{
  "city": "Jodhpur",
  "state": "Rajasthan",
  "count": 148,
  "center": {
    "lat": 26.2389,
    "lng": 73.0243
  },
  "pumps": [
    {
      "place_id": "ChIJJfcju_aJQTkRB-KCs6AGxpE",
      "name": "IndianOil",
      "address": "Ground Floor Luni, Jodhpur Kachery, Tanawada",
      "lat": 26.162134,
      "lng": 72.988177,
      "open_now": true
    },
    {
      "place_id": "ChIJSXX0iS-JQTkR8tWrsSQrTfk",
      "name": "Indian Oil Petrol Pump",
      "address": "Bhadu Market, Jodhpur",
      "lat": 26.214995,
      "lng": 72.95076089999999,
      "open_now": true
    },
    {
      "place_id": "ChIJoY7Th8iLQTkR8xglohkRxbs",
      "name": "Bhagwati Roadways",
      "address": "near Bharat petrol pump, by pass, Sangriya, Jodhpur",
      "lat": 26.2059186,
      "lng": 73.0135864,
      "open_now": true
    },
    {
      "place_id": "ChIJCUOFS56JQTkR3VPkOacS3c0",
      "name": "KIRAN ENERGY STATION BPCL PETROL PUMP",
      "address": "near 23 NO BUS STAND, Boranada",
      "lat": 26.1696661,
      "lng": 72.934759,
      "open_now": true
    },
    {
      "place_id": "ChIJJ7-pQFWJQTkRaZOfX1Yi2dI",
      "name": "Ges office",
      "address": "Krishna Leela nagar, Boranada",
      "lat": 26.1907383,
      "lng": 72.9463233,
      "open_now": null
    },
    {
      "place_id": "ChIJuyEe1PeIQTkRcDKbyhMnmt0",
      "name": "Vimal Power",
      "address": "India",
      "lat": 26.1849403,
      "lng": 72.93166029999999,
      "open_now": null
    },
    {
      "place_id": "ChIJ7U0ugFiIQTkRPBnhYPXVMkE",
      "name": "Hindustan Petroleum Corporation Limited",
      "address": "Ground Floor, NH 25, Jodhpur - Balotra Road, Boranada",
      "lat": 26.184556,
      "lng": 72.931141,
      "open_now": true
    },
    {
      "place_id": "ChIJeRpJk18nQjkRBIx_x6vE1_c",
      "name": "Hindustan Petroleum Corporation Limited",
      "address": "Ground Floor, Boranada - Salawas Road, Luni, Salawas",
      "lat": 26.1424678,
      "lng": 72.9710498,
      "open_now": true
    },
    {
      "place_id": "ChIJ9fR_yjqJQTkRpZAeOFbRIbo",
      "name": "BPCL Petrol Pump - Jagdish Energy Station",
      "address": "Plot No. 9A, Khasra No. 93, Salawas Road, Salawas",
      "lat": 26.1493519,
      "lng": 72.98374299999999,
      "open_now": true
    },
    {
      "place_id": "ChIJJRBG1h2JQTkRiZ4okyDNeU0",
      "name": "IndianOil",
      "address": "Ground Floor, NH 112, Pal Road, Nandanwan, Jodhpur",
      "lat": 26.2041,
      "lng": 72.9481,
      "open_now": true
    },
    {
      "place_id": "ChIJ00pOqFcnQjkRZ4qZiZJiVoo",
      "name": "Hindustan Petroleum Corporation Limited",
      "address": "Ground Floor, Basni Road, Luni, Salawas",
      "lat": 26.1424232,
      "lng": 72.9835052,
      "open_now": true
    },
    {
      "place_id": "ChIJedFffDSJQTkRTJjZxNPgSB0",
      "name": "SUV CNG SOLUTIONS",
      "address": "6X42+Q8X, Phase I, Pal Gaon, Jodhpur",
      "lat": 26.2070957,
      "lng": 72.95080829999999,
      "open_now": null
    },
    {
      "place_id": "ChIJy8iULQCJQTkR1WOd5SF52ys",
      "name": "Reliance petroleum",
      "address": "VISHVKARMA NAGAR shilp gram, Plot 10, opposite Ashapurna City, Vishvkarma nagar, Pal, rod, Jodhpur",
      "lat": 26.209612,
      "lng": 72.95210449999999,
      "open_now": null
    },
    {
      "place_id": "ChIJ-7L2FACJQTkRX3WiBOlAvx8",
      "name": "Lalji Energy Station Bharat petroleum",
      "address": "6X6C+72F, Pashu Mela Road, Phase 1st, Sangriya, Pal",
      "lat": 26.21068339999999,
      "lng": 72.9700625,
      "open_now": true
    },
    {
      "place_id": "ChIJ78PkqyOJQTkRPrhlRUO_msU",
      "name": "IndianOil",
      "address": "Shilp Gram, Plot No CP/1, Bhandu Kallan",
      "lat": 26.213724,
      "lng": 72.954596,
      "open_now": true
    },
    {
      "place_id": "ChIJZ_zbqCOJQTkRZRnLz32hMpE",
      "name": "NAKODA MOTORS FUEL STATION (PETROL PUMP)",
      "address": "CP 1, slip garm, Industrial Area, Pal",
      "lat": 26.2141183,
      "lng": 72.9546684,
      "open_now": true
    },
    {
      "place_id": "ChIJAwaocgGJQTkRimYE8ulteIo",
      "name": "Hindustan Petroleum Corporation Limited",
      "address": "Ground Floor, Pal Road, Boranada",
      "lat": 26.218487,
      "lng": 72.95566699999999,
      "open_now": true
    },
    {
      "place_id": "ChIJW06tbgSIQTkR6cjkiOS4b7U",
      "name": "IndianOil",
      "address": "Ground Floor, Jodhpur - Barmer Road, Narnadi",
      "lat": 26.142699,
      "lng": 72.906759,
      "open_now": true
    },
    {
      "place_id": "ChIJvSMibPiJQTkRU21B7EaGFyQ",
      "name": "Nayara Petrol Pump - Parvez Filling Station",
      "address": "K.No 110, 2, Gigana Fanta, Pal Gaon, Jodhpur",
      "lat": 26.2195342,
      "lng": 72.9558911,
      "open_now": true
    },
    {
      "place_id": "ChIJl2lOiC-JQTkRoXK_gGjPkm4",
      "name": "IndianOil",
      "address": "Ground Floor, Pal Road, Gandhi Maidan, Jodhpur",
      "lat": 26.2221001,
      "lng": 72.95570099999999,
      "open_now": true
    },
    {
      "place_id": "ChIJ3ZodJkOJQTkRNC67KAvBIjs",
      "name": "Pal Gas Godam",
      "address": "6X8J+M7H, Pal Road, Pal Gaon, Jodhpur",
      "lat": 26.2166764,
      "lng": 72.9807464,
      "open_now": true
    },
    {
      "place_id": "ChIJVfE_qjKJQTkRR52oxS7o1zs",
      "name": "Bharat Petroleum, Petrol Pump -Nasrani Petrol Pump",
      "address": "PAL,JODHPUR-BARMER ROAD, JO",
      "lat": 26.2228378,
      "lng": 72.9569425,
      "open_now": true
    },
    {
      "place_id": "ChIJd1lWHQCJQTkRLhvDwXMyF2E",
      "name": "Bharat Petroleum Paras Petroleum",
      "address": "6X9H+4C6, Pal Gaon, Jodhpur",
      "lat": 26.21814449999999,
      "lng": 72.9794094,
      "open_now": true
    },
    {
      "place_id": "ChIJfcGuz1CJQTkRPxzc9NlilrE",
      "name": "H P Petrol Pump- Aastha Filling Station",
      "address": "near Royal enclave, Main Pal By Pass Service Road, near Royal enclave, Pal - Sangariya Bypass Road, Jodhpur",
      "lat": 26.2128446,
      "lng": 72.99046779999999,
      "open_now": true
    },
    {
      "place_id": "ChIJEzBidwCLQTkRh5V2xdZ8Vvc",
      "name": "Rajputana Automobile",
      "address": "6X5W+Q5V, opp. Parshnath City, Pal - Sangariya Bypass Road, Parsvnath City, Jodhpur",
      "lat": 26.2092648,
      "lng": 72.9960203,
      "open_now": null
    },
    {
      "place_id": "ChIJNWRKzTGJQTkRLsFVwmcROOA",
      "name": "Janta Service Station",
      "address": "1/18, 2/18, Boranada Road Main DPS CIRCLE Pal Vilas, Jodhpur",
      "lat": 26.225711,
      "lng": 72.95817199999999,
      "open_now": true
    },
    {
      "place_id": "ChIJ_w-8gnOJQTkREXSawW9DWgs",
      "name": "Ramdev Filling Station",
      "address": "Chopasani Housing Borad, Jodhpur",
      "lat": 26.2219379,
      "lng": 72.9897905,
      "open_now": null
    },
    {
      "place_id": "ChIJ7RWnfwCJQTkRr36r6lZg0tM",
      "name": "J.R.DHAYAL FILLING STATION",
      "address": "Bujhawar",
      "lat": 26.2209051,
      "lng": 72.9135253,
      "open_now": true
    },
    {
      "place_id": "ChIJEyIAhMiLQTkRmHeE0t4GZXA",
      "name": "Bharat Petroleum, Petrol Pump -Jai Shree Filling Station",
      "address": "near RAILWAY CROS, SANGRIYA, near RAILWAY CROS, Jodhpur",
      "lat": 26.2056426,
      "lng": 73.013624,
      "open_now": true
    },
    {
      "place_id": "ChIJ2SoGJACLQTkReq5N04QeEdI",
      "name": "Veer tejaji nagar",
      "address": "6283+RW7, Basni, Jodhpur",
      "lat": 26.2170431,
      "lng": 73.0047908,
      "open_now": null
    },
    {
      "place_id": "ChIJtQEmYzOGQTkRvj4w4TdE3SY",
      "name": "Hindustan Petroleum Corporation Limited",
      "address": "Swagat Vatika, Jhanwar Road, Doli",
      "lat": 26.1806289,
      "lng": 72.8813351,
      "open_now": true
    },
    {
      "place_id": "ChIJVYjgiJkgQjkRGLq9Iq17K3Y",
      "name": "BPCL Depot, Salawas",
      "address": "42RF+523, Salawas",
      "lat": 26.1403911,
      "lng": 73.02254409999999,
      "open_now": null
    },
    {
      "place_id": "ChIJ29kMthaLQTkR7GGZPH2cYiU",
      "name": "Pashuaahar Petrol Pump ⛽",
      "address": "6294+GXF, M.I.A. 1st Phase, Basni, Basni, Jodhpur",
      "lat": 26.2188186,
      "lng": 73.007421,
      "open_now": null
    },
    {
      "place_id": "ChIJb8YBZLaLQTkRi1543JEltBU",
      "name": "IndianOil",
      "address": "Pal - Sangariya Bypass Road, Transport Nagar, Phase 2, Basni, Jodhpur",
      "lat": 26.218711,
      "lng": 73.00769799999999,
      "open_now": true
    },
    {
      "place_id": "ChIJQxrLLwgoQjkRGGR6f2gr6Z0",
      "name": "Hindustan Petroleum Corporation Limited",
      "address": "Ground Floor, NH 25, Jodhpur - Balotra Road, Bhandu Kallan",
      "lat": 26.121201,
      "lng": 72.8979301,
      "open_now": true
    },
    {
      "place_id": "ChIJqxtkUrSPQTkRlVmYGsxkjJs",
      "name": "Jio-bp pulse",
      "address": "near Hotel Aarunya Royale, Ground Floor, Niom Hospitality Veetraj City, near Hotel Aarunya Royale, Jaisalmer Bypass Road, Jodhpur",
      "lat": 26.2385343,
      "lng": 72.95248169999999,
      "open_now": true
    },
    {
      "place_id": "ChIJW2tg6tuPQTkRH4bO7vip_6w",
      "name": "Panchvati, shri narayan panchgavya anusandhan",
      "address": "6XQ8+8RW, Pal Balaji, Khema-Ka-Kuwa, Jodhpur",
      "lat": 26.2383504,
      "lng": 72.967079,
      "open_now": false
    },
    {
      "place_id": "ChIJ8cWaEgCPQTkR5Z9hiUsixOc",
      "name": "JRD ENERGY",
      "address": "DALI BAI MANDIR SE, Jhanwar Road, Jodhpur",
      "lat": 26.2392835,
      "lng": 72.9404539,
      "open_now": null
    },
    {
      "place_id": "ChIJHyW-lhKLQTkR_PG-Q8QRYmg",
      "name": "Bharat Petroleum, Petrol Pump -Jaswant Singh & Sons",
      "address": "JHALAMAND,VILLAGE, JHALAMAN, Jodhpur",
      "lat": 26.22049359999999,
      "lng": 73.0533693,
      "open_now": true
    },
    {
      "place_id": "ChIJ2zTr552LQTkRH0ckcwB6Bn8",
      "name": "BLUE CITY FUEL STATION",
      "address": "near National Highway 62, Jhalamand, near National Highway 62, Circle, Prithviraj Nagar, Jodhpur",
      "lat": 26.2269361,
      "lng": 73.0391277,
      "open_now": true
    },
    {
      "place_id": "ChIJa5VlCksgQjkR3K_CZ00bPGU",
      "name": "Reliance Petroleum",
      "address": "KHASRA NO. - 165 , LHS, TEHS, TOWARDS, NH- 65, Jodhpur",
      "lat": 26.1130143,
      "lng": 73.05947239999999,
      "open_now": true
    },
    {
      "place_id": "ChIJF9Yn5_yLQTkRNASs-YQiWW0",
      "name": "Bharat Petroleum, Petrol Pump -Nasrani Petrol Pump",
      "address": "Ansals Sushant City, Bhakrasni",
      "lat": 26.1647306,
      "lng": 73.0469473,
      "open_now": true
    },
    {
      "place_id": "ChIJyX5eTQCLQTkR_mqPiYgsCLI",
      "name": "Indian Oil Petrol Pump (N R Filling Station)",
      "address": "52GW+QV, Sangariya",
      "lat": 26.176995,
      "lng": 73.04714,
      "open_now": true
    },
    {
      "place_id": "ChIJkxAf_hkhQjkRo3exB6ZxX7s",
      "name": "Anupam Motor, Ashok Leyland",
      "address": "Mogra",
      "lat": 26.1345816,
      "lng": 73.0548841,
      "open_now": true
    },
    {
      "place_id": "ChIJ701HPAAhQjkRh5g8GrOMfGs",
      "name": "CNG pump",
      "address": "43M3+QW2, Mogra",
      "lat": 26.1343781,
      "lng": 73.054762,
      "open_now": null
    },
    {
      "place_id": "ChIJFSWEsmkgQjkRSDLxb4h2BS8",
      "name": "IndianOil",
      "address": "Ground Floor Pali Road, National Highway 62, Mogra",
      "lat": 26.1342746,
      "lng": 73.05462349999999,
      "open_now": true
    },
    {
      "place_id": "ChIJfdLvSwiLQTkR_ilOaq8B-aw",
      "name": "Hindustan Petroleum Corporation Limited",
      "address": "Ground Floor, near Shatabdi Circle, NH 62, Jodhpur Pali Road, Kudi Bhagtasni Housing Board, Jodhpur",
      "lat": 26.2119301,
      "lng": 73.0423201,
      "open_now": true
    },
    {
      "place_id": "ChIJ-xWauA-LQTkRizHyOdEBIEk",
      "name": "HANUMAN PURUSHOTTAM HP GAS GODOWN",
      "address": "6334+QW4, Unnamed Road",
      "lat": 26.2043771,
      "lng": 73.0573436,
      "open_now": null
    },
    {
      "place_id": "ChIJp7vm5PkhQjkR8YorHpyIRvo",
      "name": "IndianOil",
      "address": "Ground Floor NH 62, Old NH 65, Luni, Mogra Khurd",
      "lat": 26.1240085,
      "lng": 73.0571409,
      "open_now": true
    },
    {
      "place_id": "ChIJWfpu2n2LQTkRSINoDrROdUE",
      "name": "IndianOil",
      "address": "Ground Floor, Jhalamand",
      "lat": 26.2118001,
      "lng": 73.061101,
      "open_now": true
    },
    {
      "place_id": "ChIJmya9CQCLQTkRhjx4ZRQ9skY",
      "name": "Ummed Prajapati Kumar budharam ji parivar",
      "address": "63F3+586, Hanuman Nagar, Jhalamand, Jodhpur",
      "lat": 26.2229167,
      "lng": 73.05325169999999,
      "open_now": null
    },
    {
      "place_id": "ChIJm3tSPVOLQTkRbj1Jp5Cu7c8",
      "name": "Shyam Energy Station - BPCL FUEL STATION",
      "address": "Bpcl petrol pump, Shyam Energy Station, nr. Jhalamand, Circle, Jodhpur",
      "lat": 26.2309885,
      "lng": 73.034065,
      "open_now": true
    },
    {
      "place_id": "ChIJXX88FCmLQTkRvhpstA9Qz1s",
      "name": "Bharat Petroleum, Petrol Pump -Basni Filling Station",
      "address": "RO AR BASNI,TRANSPORT NAGAR BASN, Jodhpur",
      "lat": 26.2324537,
      "lng": 73.02183540000001,
      "open_now": true
    },
    {
      "place_id": "ChIJk0U_iIyLQTkRIOXaXzDsVNA",
      "name": "Kishore Filling Station - BPCL Fuel Pump",
      "address": "Basni Area, National Highway 62, Saraswati Nagar, Jodhpur",
      "lat": 26.2344374,
      "lng": 73.0197448,
      "open_now": true
    },
    {
      "place_id": "ChIJXw64bksgQjkRg4_spS9mrA0",
      "name": "Bharat Petroleum-JP Filling Station",
      "address": "4365+4PC, National Highway 62, Mogra Kalan",
      "lat": 26.1103077,
      "lng": 73.05925359999999,
      "open_now": true
    },
    {
      "place_id": "ChIJeVk_5EyLQTkR68aL4hClEvc",
      "name": "Jio-bp pulse",
      "address": "Plot No 7, Pali Road, Saraswati Nagar, Jodhpur",
      "lat": 26.2352319,
      "lng": 73.0194088,
      "open_now": true
    },
    {
      "place_id": "ChIJw8awJUsgQjkRLMQjMw9eDSI",
      "name": "Hindustan Petroleum Corporation Limited",
      "address": "Ground Floor, NH 62, Jodhpur Pali Rd, Luni, Mogra Kalan",
      "lat": 26.109501,
      "lng": 73.060701,
      "open_now": true
    },
    {
      "place_id": "ChIJk6okeGqLQTkReGK7I-DYElg",
      "name": "Hindustan Petroleum Corporation Limited",
      "address": "Ground Floor, Jodhpur Bypass, Jodhpur Road, Jhalamand, Jodhpur",
      "lat": 26.2271263,
      "lng": 73.06402419999999,
      "open_now": true
    },
    {
      "place_id": "ChIJ8zAWG5eLQTkRUH1G_E7pjIw",
      "name": "BPCL - Basni Filling Station",
      "address": "Basni Phase 2, M.I.A. 1st Phase, Basni, Basni, Jodhpur",
      "lat": 26.2368544,
      "lng": 73.0104549,
      "open_now": true
    },
    {
      "place_id": "ChIJ9Snj8O0fQjkRo905BDpdFGM",
      "name": "Bharat Petroleum, Petrol Pump -Vijay Filling Station",
      "address": "Guda Road, Bishnoi Colony, Jodhpur",
      "lat": 26.1493581,
      "lng": 73.1250597,
      "open_now": true
    },
    {
      "place_id": "ChIJ7yhqG7eOQTkRKGfmYKLC2ls",
      "name": "Hindustan Petroleum Corporation Limited",
      "address": "Ground Floor, near Pal Balaji, Pal Road, Pal",
      "lat": 26.24454009999999,
      "lng": 72.9734701,
      "open_now": true
    },
    {
      "place_id": "ChIJVX0CFY6OQTkR5OwZz-IdS6M",
      "name": "IndianOil",
      "address": "Chopasani Road, Chopasni Housing Board, Jodhpur",
      "lat": 26.2710968,
      "lng": 72.9772418,
      "open_now": true
    },
    {
      "place_id": "ChIJ2x2-nymMQTkR3Qo4huCgcQs",
      "name": "Ratan Enterprises ( Bharat Petroleum Pump )",
      "address": "Plot No 7, Near Vishal Mega Mart Upper Ligh Scheme No.3 Upper, Chopasni Road, Jodhpur",
      "lat": 26.2774518,
      "lng": 72.9957055,
      "open_now": true
    },
    {
      "place_id": "ChIJIyBV-S-MQTkRYvXy5fT9hVc",
      "name": "SHANKARLAL RAMRATAN, BPCL PETROLPUMP",
      "address": "Residency Road, Sindhi Colony, Sector-E, Shastri Nagar, Jodhpur",
      "lat": 26.274013,
      "lng": 73.0047309,
      "open_now": true
    },
    {
      "place_id": "ChIJWeuILy6MQTkRmW2R_5Z4zp8",
      "name": "Hindustan Petroleum Corporation Limited",
      "address": "601, 9th B Road, Sardarpura, Jodhpur",
      "lat": 26.2769578,
      "lng": 73.0020645,
      "open_now": null
    },
    {
      "place_id": "ChIJcZLzUzqMQTkR97TDWF08y_A",
      "name": "Hindustan Petroleum Corporation Limited",
      "address": "Ground Floor, Residency Road, Opp. Medical College, Jodhpur",
      "lat": 26.2717201,
      "lng": 73.0082601,
      "open_now": true
    },
    {
      "place_id": "ChIJE9E-7i-JQTkRNOl-HeD-QXA",
      "name": "Bharat Petroleum Gas Station",
      "address": "State Highway 16, Jodhpur",
      "lat": 26.280783,
      "lng": 73.0189943,
      "open_now": true
    },
    {
      "place_id": "ChIJ4XUaJy6PQTkRKQLLiQ7p1jQ",
      "name": "BPCL - DUDI FILLING STATION",
      "address": "plot no 3 gangashree roop vatika",
      "lat": 26.24647779999999,
      "lng": 72.9527888,
      "open_now": null
    },
    {
      "place_id": "ChIJj4h2Tw2PQTkRWvKvchq0XHQ",
      "name": "IndianOil",
      "address": "New Jodhpur Bypass Road, Chopasani Road, Jodhpur",
      "lat": 26.254201,
      "lng": 72.94760099999999,
      "open_now": true
    },
    {
      "place_id": "ChIJ68i3acGOQTkRP0nIyqAULRI",
      "name": "Hindustan Petroleum Corporation Limited",
      "address": "Ground Floor, Jhanwar Road, Shankar Nagar, Chopasni Housing Board, Jodhpur",
      "lat": 26.252991,
      "lng": 72.96484099999999,
      "open_now": true
    },
    {
      "place_id": "ChIJtzPGLyyMQTkR7WSSXpMSOCU",
      "name": "Hindustan Petroleum Corporation Limited",
      "address": "Ground Floor, NH 65, Jodhpur Pali Road, Nimbla, Jodhpur",
      "lat": 26.2557788,
      "lng": 72.9653404,
      "open_now": true
    },
    {
      "place_id": "ChIJ08D6H_qPQTkRVlB8AKo5xqY",
      "name": "Jaishree automobile chopasni",
      "address": "filter house ke samne, Chopasni Road, Jodhpur",
      "lat": 26.2647353,
      "lng": 72.9618448,
      "open_now": true
    },
    {
      "place_id": "ChIJJX9cdQCPQTkRq6M2LrwiXgQ",
      "name": "सुभाष नगर A",
      "address": "A शिवाय पेट्रोल पंप के पीछे, 72, सुभाष नगर, पाली",
      "lat": 26.2510467,
      "lng": 72.9839473,
      "open_now": null
    },
    {
      "place_id": "ChIJySyoeACPQTkRSbPOURuoyjE",
      "name": "RAJ AUTOMOBILES",
      "address": "7XCG+HQP, 2nd Puliya, Jodhpur",
      "lat": 26.2714601,
      "lng": 72.9769645,
      "open_now": true
    },
    {
      "place_id": "ChIJZUrJ0JONQTkRM_9rjIgxfek",
      "name": "Hindustan Petroleum Corporation Limited",
      "address": "Ground Floor, RIICO Road, 10, AIIMS Road, MIA 2nd Phase, Basni, Jodhpur",
      "lat": 26.2416555,
      "lng": 72.9984666,
      "open_now": true
    },
    {
      "place_id": "ChIJf6ad2p2OQTkRkZJgdpAsLHs",
      "name": "Jaswant Singh Petrol Pump",
      "address": "Masuria Colony, Baldev Nagar, Jodhpur",
      "lat": 26.2668786,
      "lng": 72.9911861,
      "open_now": true
    },
    {
      "place_id": "ChIJUV9NHGiPQTkRzcRlXD-ATGA",
      "name": "IndianOil",
      "address": "police station, near Pal Balaji Mandir, Keshav Nagar, Shastri Nagar, Jodhpur",
      "lat": 26.2653248,
      "lng": 72.9928132,
      "open_now": true
    },
    {
      "place_id": "ChIJN9-q1iyNQTkRjw790wQEYh4",
      "name": "Rd Brothers",
      "address": "1 A1 Emery Industrial Area",
      "lat": 26.2580392,
      "lng": 73.0022283,
      "open_now": null
    },
    {
      "place_id": "ChIJ9-KiH5yLQTkRpI9_ksHSM3A",
      "name": "Hindustan Petroleum Corporation Limited",
      "address": "Ground Floor, Diesel Shed Road, Bhagat Ki Kothi, Jodhpur",
      "lat": 26.241735,
      "lng": 73.010826,
      "open_now": true
    },
    {
      "place_id": "ChIJVfSBMsyNQTkRBc-yZwvuaRo",
      "name": "IndianOil",
      "address": "near Diesel Loco Shed, Outlet Main Basai Road, Jodhpur",
      "lat": 26.24453699999999,
      "lng": 73.011398,
      "open_now": true
    },
    {
      "place_id": "ChIJbYWaUXWNQTkRj9IsEatXITY",
      "name": "Shri Ram Filling Station",
      "address": "7XCX+VC8, Pal Road, Sector-E, Baldev Nagar, Jodhpur",
      "lat": 26.2721612,
      "lng": 72.9985635,
      "open_now": true
    },
    {
      "place_id": "ChIJPwdVzxWNQTkRZkRdx3sv10s",
      "name": "Hindustan Petroleum Corporation Limited",
      "address": "Ground Floor, New Power House Road, ITI Chowk, Jodhpur",
      "lat": 26.2581225,
      "lng": 73.0081194,
      "open_now": true
    },
    {
      "place_id": "ChIJTY2WPQCPQTkR2tm5A8f63pM",
      "name": "Dalley khan Petrol pump",
      "address": "near बजाज मोटरसाइकिल-राजा बजाज, 77a, Soorsagar Road, Pratap Nagar, Jodhpur",
      "lat": 26.2794033,
      "lng": 72.9913333,
      "open_now": true
    },
    {
      "place_id": "ChIJ02kuF0uNQTkR2X1VMKhEKQM",
      "name": "IndianOil",
      "address": "Ground Floor, Soorsagar Road, Pratap Nagar, Jodhpur",
      "lat": 26.2798576,
      "lng": 72.9912435,
      "open_now": true
    },
    {
      "place_id": "ChIJGzIIWymMQTkRyQGskAMDn98",
      "name": "IndianOil",
      "address": "Lock 1418, Chopasani Road, Pratap Nagar, Jodhpur",
      "lat": 26.278211,
      "lng": 72.998199,
      "open_now": true
    },
    {
      "place_id": "ChIJsbw4m_KNQTkRGzQKQPML8XA",
      "name": "IndianOil",
      "address": "Ground Floor, Chopasani Road, Near Bombay Motor Circle, Jodhpur",
      "lat": 26.278507,
      "lng": 72.9979117,
      "open_now": true
    },
    {
      "place_id": "ChIJZSYnAwCNQTkRyRBJwI8PxZ0",
      "name": "Haji umrao khan petrol pump हाजी उमराव खान पेट्रोल पम्प",
      "address": "Near, Bombay Motors Circle, Jodhpur",
      "lat": 26.2785115,
      "lng": 72.9979159,
      "open_now": true
    },
    {
      "place_id": "ChIJZ1IUpG2NQTkRhceef_H7F6Y",
      "name": "Sharda Filling Station",
      "address": "Sharda Filling Station, Jodhpur",
      "lat": 26.2787189,
      "lng": 72.99919899999999,
      "open_now": null
    },
    {
      "place_id": "ChIJy2vhYe6NQTkRL4_dkIp5fyA",
      "name": "GAYATRI PETROL PUMP",
      "address": "GAYATRI PETROL PUMP, Jodhpur",
      "lat": 26.2819972,
      "lng": 72.99919899999999,
      "open_now": null
    },
    {
      "place_id": "ChIJsx-E0l6MQTkR1wPYgn8pJcs",
      "name": "Bharat Petroleum, Petrol Pump -Naman Fuel Centre",
      "address": "Ratanada Circle, Jodhpur",
      "lat": 26.2719461,
      "lng": 73.0368355,
      "open_now": true
    },
    {
      "place_id": "ChIJdxhaQ62NQTkRf6RuMUO74Qk",
      "name": "Bharat Petroleum Petrol Pump",
      "address": "72QH+PX8, High Court Road, Sri Ganganagar, Jodhpur",
      "lat": 26.28928569999999,
      "lng": 73.0299679,
      "open_now": true
    },
    {
      "place_id": "ChIJ1TjLr9aNQTkRL_xxJpZDxtM",
      "name": "IndianOil",
      "address": "Lock No, 11019, Market Circle, Ratanada, Jodhpur",
      "lat": 26.271299,
      "lng": 73.036301,
      "open_now": true
    },
    {
      "place_id": "ChIJwVTORz-NQTkRqi5mwYIB7HA",
      "name": "BHATI PETROL PUMP",
      "address": "Jo6, Ratanada, Jodhpur",
      "lat": 26.2730785,
      "lng": 73.0293615,
      "open_now": null
    },
    {
      "place_id": "ChIJmxrCwweNQTkREQTDdQrENVA",
      "name": "Shree Sainalrai Filling Station",
      "address": "Shree Sainalrai Filling Station, Dhandhaniya, Sasan Balesar, Jodhpur",
      "lat": 26.27843319999999,
      "lng": 73.0128671,
      "open_now": null
    },
    {
      "place_id": "ChIJIfvRiEmMQTkREMze2r-JAo0",
      "name": "Sanghi Brothers Petrol Pump",
      "address": "72J9+7QF, Station Road, N K Sanghi Circle, Ratanada, Jodhpur",
      "lat": 26.2808133,
      "lng": 73.0188874,
      "open_now": true
    },
    {
      "place_id": "ChIJRZRMp1eMQTkR1gKjSVDJUyM",
      "name": "IndianOil",
      "address": "Circuit House Road, East Patel Nagar, Jodhpur",
      "lat": 26.279411,
      "lng": 73.03769700000001,
      "open_now": true
    },
    {
      "place_id": "ChIJk3Zs_C-MQTkRsfVbKq6L3sk",
      "name": "Nasrani Petrol Pump Bharat Petroleum",
      "address": "Chopasani Road, Sardarpura, Jodhpur",
      "lat": 26.2803463,
      "lng": 73.00487489999999,
      "open_now": null
    },
    {
      "place_id": "ChIJKVN6mzOMQTkRSucK1-07N48",
      "name": "Hindustan Petroleum Corporation Limited",
      "address": "Ground Floor, opposite Nasrani Cinema, Chopasni Road, Jodhpur",
      "lat": 26.282493,
      "lng": 73.01014599999999,
      "open_now": true
    },
    {
      "place_id": "ChIJaSvemzOMQTkRh3lohRVm6dM",
      "name": "Hindustan Petroleum Corporation Limited",
      "address": "Ground Floor, opposite Nasrani Cinema, Chopasni Road, Jodhpur",
      "lat": 26.2826901,
      "lng": 73.010401,
      "open_now": true
    },
    {
      "place_id": "ChIJgcOX2HaLQTkRhN_5Whsi3a8",
      "name": "HP Petrol Pump - Sai Filling Station",
      "address": "State Highway-61, near Gora Hotel, Sardar Samand Road, Jodhpur",
      "lat": 26.2429743,
      "lng": 73.0758304,
      "open_now": true
    },
    {
      "place_id": "ChIJG53MSG6TQTkRugjFYUpgppw",
      "name": "Hindustan Petroleum Corporation Limited",
      "address": "Khasra No 15, 2 SH 61, Alakhdara",
      "lat": 26.243063,
      "lng": 73.07592799999999,
      "open_now": true
    },
    {
      "place_id": "ChIJ-aCOobKNQTkR0qlFIskLlfM",
      "name": "Hindustan Petroleum Corporation Limited",
      "address": "Ground Floor, opposite Ansal Royal Plaza, Kutchery Road, Jodhpur",
      "lat": 26.2893001,
      "lng": 73.02838009999999,
      "open_now": true
    },
    {
      "place_id": "ChIJYTC9mzL1QTkRJBDm_zSYWrg",
      "name": "Nayara Petrol Pump-High Caliber filling Station",
      "address": "Khasra No. 100/11, Village - Uchiyarda, Distt, Tehsil, Jodhpur",
      "lat": 26.2429778,
      "lng": 73.1175689,
      "open_now": true
    },
    {
      "place_id": "ChIJlxrFILCNQTkRshEngN-x7EE",
      "name": "Hindustan Petroleum Corporation Limited",
      "address": "28, Shikargarh Road, Kanhaiya nagar, Jodhpur",
      "lat": 26.275361,
      "lng": 73.0827501,
      "open_now": true
    },
    {
      "place_id": "ChIJawkHEgD1QTkRmRiGHMhC_8s",
      "name": "JIOBP - SHAMRATHAL RING ROAD",
      "address": "64XW+W7M, Nandara Kalan",
      "lat": 26.2498478,
      "lng": 73.1456634,
      "open_now": null
    },
    {
      "place_id": "ChIJx9mBOKv5QTkRj9RSArNDw8E",
      "name": "Hindustan Petroleum Corporation Limited",
      "address": "near Dangiawas, Ground Floor NH25, New Jodhpur Bypass Rd, near Dangiawas, Jhalamand Crossing Road, Nandara Kalan",
      "lat": 26.2494629,
      "lng": 73.1481439,
      "open_now": true
    },
    {
      "place_id": "ChIJs0eWBgD1QTkRfeD1BGuEFm8",
      "name": "Shree Pabuji filling station",
      "address": "7532+RM, Nandara Kalan",
      "lat": 26.2545625,
      "lng": 73.1516875,
      "open_now": true
    },
    {
      "place_id": "ChIJNZTbeHT0QTkRQE6LMmTlu7E",
      "name": "IndianOil",
      "address": "Ground Floor Nandra, New Jodhpur, Bypass Rd, Agolai",
      "lat": 26.25152,
      "lng": 73.155584,
      "open_now": true
    },
    {
      "place_id": "ChIJYzYL_dmPQTkRyJas5Jb5BFI",
      "name": "(NAYARA) KHETESHWAR PETROLEUM",
      "address": "Main Road, Khudiyala - Bambor Road, Barli",
      "lat": 26.319427,
      "lng": 72.94158999999999,
      "open_now": true
    },
    {
      "place_id": "ChIJvcGE8fuRQTkRVyyCDk-bGz0",
      "name": "Hindustan Petroleum Corporation Limited",
      "address": "Ground Floor, Road, Keroo",
      "lat": 26.337225,
      "lng": 72.936893,
      "open_now": true
    },
    {
      "place_id": "ChIJuxJBnf2RQTkR_OeMxbjvOH0",
      "name": "BPCL Petrol Pump",
      "address": "Jodhpur",
      "lat": 26.3292305,
      "lng": 72.9845153,
      "open_now": null
    },
    {
      "place_id": "ChIJLZMH6eeRQTkR8z6qVJ49Rnw",
      "name": "Reliance Petroleum",
      "address": "Khasra No 75/2 Nh 114, Jaisalmer Road, Gevon, Jodhpur",
      "lat": 26.3291101,
      "lng": 72.98777299999999,
      "open_now": true
    },
    {
      "place_id": "ChIJjUhHtOGNQTkRQaiVoldqYhE",
      "name": "Hindustan Petroleum Corporation Limited",
      "address": "Ground Floor, Soorsagar Bypass Road, Jodhpur",
      "lat": 26.309869,
      "lng": 72.995003,
      "open_now": true
    },
    {
      "place_id": "ChIJIwhQAf6RQTkRQiL7P1Ju7F8",
      "name": "Sankhla Auto Electric Parts",
      "address": "8XHQ+W7R, Fidusar chopad, opp. Reliance Petrol pump, Jaisalmer Road, Soorsagar, Jodhpur",
      "lat": 26.3298582,
      "lng": 72.9881537,
      "open_now": true
    },
    {
      "place_id": "ChIJVznMz8-RQTkRDuvU4tMw3UA",
      "name": "IndianOil",
      "address": "Jaisalmer Road, Soorsagar, Jodhpur",
      "lat": 26.3028708,
      "lng": 72.99557209999999,
      "open_now": true
    },
    {
      "place_id": "ChIJmZOHXUqPQTkR6_QxgV9V3_I",
      "name": "Bharat Petroleum, Petrol Pump -Bharat Fuels",
      "address": "KAYALANA CHORAHA, Jodhpur",
      "lat": 26.30337330000001,
      "lng": 72.9958882,
      "open_now": true
    },
    {
      "place_id": "ChIJgTZSKDyQQTkRNvv4Hp8b-aU",
      "name": "Bharat Petroleum, Petrol Pump -Shree Dada Darbar Service Station",
      "address": "BARLI SARHAD, Jodhpur",
      "lat": 26.338429,
      "lng": 72.92595419999999,
      "open_now": true
    },
    {
      "place_id": "ChIJO6Hzz-qbQTkRKz8oCBE8iaQ",
      "name": "IndianOil",
      "address": "Ground Floor, Keru",
      "lat": 26.3402898,
      "lng": 72.92300449999999,
      "open_now": true
    },
    {
      "place_id": "ChIJdTPvT02PQTkRP4UKmjYh2FI",
      "name": "Supreme Energy Station- Indian Oil",
      "address": "Aarna Jharna Flyover, Near, Jaisalmer Ring Road, Barli",
      "lat": 26.3132411,
      "lng": 72.9075755,
      "open_now": true
    },
    {
      "place_id": "ChIJUy08aACRQTkRpF4xq6tURcM",
      "name": "Gunjan Fuelling Pvt Ltd",
      "address": "9X32+6QP, Jakharo Ki Dhani",
      "lat": 26.3530823,
      "lng": 72.9519622,
      "open_now": null
    },
    {
      "place_id": "ChIJcebz8OWNQTkRL8D0vvpika4",
      "name": "Hindustan Petroleum Corporation Limited",
      "address": "Ground Floor, Soorsagar, Jodhpur",
      "lat": 26.3145065,
      "lng": 73.0046287,
      "open_now": true
    },
    {
      "place_id": "ChIJ_5h9AwyNQTkREusk81ImfVo",
      "name": "Bharat Petroleum, Petrol Pump -Himmat Petrol Service",
      "address": "Royalty Circle, Soorsagar, Jodhpur",
      "lat": 26.3093221,
      "lng": 73.0068118,
      "open_now": true
    },
    {
      "place_id": "ChIJ8QQk97qRQTkRXo5eExJFcOM",
      "name": "BPCL PETROL PUMP",
      "address": "Major District Road 104, Jakharo Ki Dhani",
      "lat": 26.35780189999999,
      "lng": 72.9775429,
      "open_now": null
    },
    {
      "place_id": "ChIJWwpQh7ONQTkRuvi3-yRpwCI",
      "name": "Ges SarvisSenter",
      "address": "Gida Gida, Jodhpur",
      "lat": 26.2904815,
      "lng": 73.0256409,
      "open_now": null
    },
    {
      "place_id": "ChIJGUCgC9GPQTkRBU9Fz1Ynm2M",
      "name": "Bharat Petroleum, Petrol Pump -Amar Jyoti Filling Stn",
      "address": "KERU /JODHPUR-JAISALMER RO, Jodhpur",
      "lat": 26.3175701,
      "lng": 72.8774559,
      "open_now": true
    },
    {
      "place_id": "ChIJl4AqJACbQTkRstkpDRlWyFU",
      "name": "Keru",
      "address": "8V9G+2XF, Keroo",
      "lat": 26.3180278,
      "lng": 72.8772505,
      "open_now": null
    },
    {
      "place_id": "ChIJs3GjRKCNQTkRqTMeBiTr5XU",
      "name": "Bharat Petroleum",
      "address": "MAHAMANDIR RLY STATION, JO, Jodhpur",
      "lat": 26.310078,
      "lng": 73.03864349999999,
      "open_now": true
    },
    {
      "place_id": "ChIJG4BTUnONQTkR2aOGENyyydg",
      "name": "Bharat Petrol Pump",
      "address": "Bhadwasiya RTO Link Road, Jodhpur",
      "lat": 26.3133602,
      "lng": 73.04703049999999,
      "open_now": true
    },
    {
      "place_id": "ChIJ11G8-XiNQTkRcIRd2kzSNA8",
      "name": "Narpat Petrol Service",
      "address": "Mandore Road, Near Bhumiya Ji ka Mandir, Kishore Bagh, Maderana Colony, Jodhpur",
      "lat": 26.3272261,
      "lng": 73.0429296,
      "open_now": true
    },
    {
      "place_id": "ChIJ5V0WsmOSQTkRMVwp_kI7OxA",
      "name": "Hindustan Petroleum Corporation Limited",
      "address": "Ground Floor, near Mondor Garden, Mandore, Jodhpur",
      "lat": 26.3499401,
      "lng": 73.03715009999999,
      "open_now": true
    },
    {
      "place_id": "ChIJVyjra1SNQTkRnBxbubmRoow",
      "name": "Laxmi Petroleam Indian Oil",
      "address": "near Sumer School, 01, near Sumer School, Mahamandir, Jodhpur",
      "lat": 26.3074254,
      "lng": 73.0378138,
      "open_now": null
    },
    {
      "place_id": "ChIJJVNIYU-NQTkR-vtyb7EH7bo",
      "name": "Bharat Petroleum, Petrol Pump -Narpat Petrol Service",
      "address": "KISHOREBAGH,MANDORE,JODHPU, Jodhpur",
      "lat": 26.310153,
      "lng": 73.03821429999999,
      "open_now": true
    },
    {
      "place_id": "ChIJeVo2OXuNQTkRx2ZY4wFzzSQ",
      "name": "Nayara petrol pump BABARAMDEV AUTOMOBILES",
      "address": "magraj ji ka taka, 41, Jodhpur",
      "lat": 26.3175065,
      "lng": 73.0436996,
      "open_now": true
    },
    {
      "place_id": "ChIJWWcI4uCNQTkRQX_ZqRhrzWk",
      "name": "Hindustan Petroleum",
      "address": "Hindustan Petroleum, Jodhpur",
      "lat": 26.29556,
      "lng": 73.0401818,
      "open_now": null
    },
    {
      "place_id": "ChIJwZR1eC6NQTkRDLbPWJ_KL3s",
      "name": "Aainath Filling Station",
      "address": "Shop Number 01, Jodhpur",
      "lat": 26.30393149999999,
      "lng": 73.0496903,
      "open_now": null
    },
    {
      "place_id": "ChIJKUGj2maNQTkR8AWFmKjSgW4",
      "name": "Omkar Singh Tak and Sons",
      "address": "Near, Lalsagar Underbridge, Jodhpur",
      "lat": 26.3281377,
      "lng": 73.04543749999999,
      "open_now": false
    },
    {
      "place_id": "ChIJZ32d8HmSQTkRzZd8SglfN5M",
      "name": "Hindustan Petroleum Corporation Limited",
      "address": "Ground Floor, near Royalty Naka, Soorsagar Road, Mandore, Jodhpur",
      "lat": 26.3394986,
      "lng": 73.02930630000002,
      "open_now": true
    },
    {
      "place_id": "ChIJCVtBNACNQTkRrRVYCfW66pc",
      "name": "Hp petrol pump",
      "address": "Main, Bhadwasiya RTO Link Road, Parihar Nagar, Maderana Colony, Jodhpur",
      "lat": 26.3196948,
      "lng": 73.0581198,
      "open_now": null
    },
    {
      "place_id": "ChIJ5a8cFZ6NQTkRs2insOMI14Q",
      "name": "Hindustan Petroleum Corporation Limited",
      "address": "Ground Floor, Panchayat Samiti, near Mandore, Lal Sagar Road, Lal Sagar, Jodhpur",
      "lat": 26.333401,
      "lng": 73.047701,
      "open_now": true
    },
    {
      "place_id": "ChIJwYniSWeNQTkR4v_AIsKg5mc",
      "name": "नेशनल ओटो गैस एवम सर्विस स्टेशन",
      "address": "India",
      "lat": 26.3315338,
      "lng": 73.0627751,
      "open_now": null
    },
    {
      "place_id": "ChIJFc2VCACTQTkRv-6T6l59D6w",
      "name": "Hindustan Petroleum Corporation Limited",
      "address": "Ground Floor, NH 62, Mandore, Jodhpur",
      "lat": 26.3663994,
      "lng": 73.0577062,
      "open_now": true
    },
    {
      "place_id": "ChIJz86ykVDzQTkR-2fg-vmzSNk",
      "name": "Bharat Petroleum, Petrol Pump -Shanti Automobiles",
      "address": "VILLAGE NANDARI, NANADARI, Jodhpur",
      "lat": 26.31478599999999,
      "lng": 73.097856,
      "open_now": true
    },
    {
      "place_id": "ChIJdySuWhvzQTkRsD1rgvbMGX8",
      "name": "VIRENDRA SINGH (KUKU)",
      "address": "Santi nager, Banar",
      "lat": 26.3164778,
      "lng": 73.11317989999999,
      "open_now": null
    },
    {
      "place_id": "ChIJR4XgoZPyQTkRClwF9JfeKSM",
      "name": "IndianOil",
      "address": "Octroi Barrier Banar, Road, Jaleli Fojdara, Ajmer",
      "lat": 26.3249957,
      "lng": 73.1187846,
      "open_now": true
    },
    {
      "place_id": "ChIJtZRUPMztQTkRN0PZ8OnCnl8",
      "name": "Himanshu Ac",
      "address": "10, Road, Noduka, Anganwa",
      "lat": 26.3451355,
      "lng": 73.0926542,
      "open_now": null
    },
    {
      "place_id": "ChIJKR6vxmLyQTkRyBKw34u4HeI",
      "name": "Hindustan Petroleum Corporation Limited",
      "address": "Ground Floor, Banar Road, Gujrawas Khurd",
      "lat": 26.3342101,
      "lng": 73.1368401,
      "open_now": true
    },
    {
      "place_id": "ChIJ0WoAFTDyQTkR2gy6qXQWtbI",
      "name": "Reliance Petroleum",
      "address": "Khasra No 585/1, Vishnoiyon Ki Dhani, Banar",
      "lat": 26.315471,
      "lng": 73.16932899999999,
      "open_now": true
    },
    {
      "place_id": "ChIJ-2wW_eeSQTkRJsKMjCLbJeo",
      "name": "BPCL - K.K. Filling Station",
      "address": "BHATIANADI,MANDORE JODHPUR, Jodhpur",
      "lat": 26.37224489999999,
      "lng": 73.0638718,
      "open_now": true
    }
  ]
}