{
  "city": "Bhilai",
  "state": "Chhattisgarh",
  "count": 151,
  "center": {
    "lat": 21.2083,
    "lng": 81.4333
  },
  "pumps": [
    {
      "place_id": "ChIJy7v5eVYkKToRy5Hb5uHL12s",
      "name": "Bharat Petroleum Solanki Fuels",
      "address": "22, Durg - Patan - Abhanpur Road, Utai",
      "lat": 21.119137,
      "lng": 81.38602999999999,
      "open_now": true
    },
    {
      "place_id": "ChIJxapUpnIjKToRrFPJ8o9vG9E",
      "name": "CIA Office",
      "address": "59JF+W65, Bhilai Steel Plant, Bhilai",
      "lat": 21.1822569,
      "lng": 81.3731092,
      "open_now": null
    },
    {
      "place_id": "ChIJH6eezcs8KToR6cZzaIOf4D4",
      "name": "Indian Oil LPG Agency",
      "address": "58MP+P46, Street Number 5, Sector 10, Bhilai",
      "lat": 21.1842915,
      "lng": 81.33527880000001,
      "open_now": null
    },
    {
      "place_id": "ChIJt8ezICYjKToRSS8USFmFRlY",
      "name": "IndianOil",
      "address": "Mahila Samaj, Bhilai Steel Plant Run By, Sector 2, Bhilai",
      "lat": 21.2015116,
      "lng": 81.3506669,
      "open_now": true
    },
    {
      "place_id": "ChIJT9DZkRgjKToR9rEU3ccmrj4",
      "name": "Ashok fuels Petrol Pump",
      "address": "Street Number 83, Sector 6, Bhilai",
      "lat": 21.20218569999999,
      "lng": 81.349158,
      "open_now": null
    },
    {
      "place_id": "ChIJcYi1dec8KToRCKckDM8Yntk",
      "name": "IndianOil",
      "address": "near Sector 9 Hospital, Bhillai, near Sector 9 Hospital, Township, Sector 8, Durg",
      "lat": 21.195181,
      "lng": 81.31702399999999,
      "open_now": true
    },
    {
      "place_id": "ChIJj5FB6v0iKToR7IDqINSSYmU",
      "name": "Bharat Petroleum",
      "address": "Camp 2, Bhilai",
      "lat": 21.2084,
      "lng": 81.37729999999999,
      "open_now": null
    },
    {
      "place_id": "ChIJGfZzH7okKToR2lTRagbNSlE",
      "name": "IndianOil",
      "address": "Ground Floor Umarpoti,Industrial Estate Bhilai, Bhilai",
      "lat": 21.140719,
      "lng": 81.35211799999999,
      "open_now": true
    },
    {
      "place_id": "ChIJSTe9-zslKToRVsfLDOE-Eec",
      "name": "IndianOil",
      "address": "Ground Floor, Dundera, Purai",
      "lat": 21.11933,
      "lng": 81.36089,
      "open_now": true
    },
    {
      "place_id": "ChIJk8d5UgAlKToRvWPvTINVvwU",
      "name": "Petrol.pump",
      "address": "499J+C4Q, Utai",
      "lat": 21.118584,
      "lng": 81.3803461,
      "open_now": null
    },
    {
      "place_id": "ChIJ4XsSulkjKToRe9k84HJ57OM",
      "name": "IndianOil",
      "address": "Newai, Maroda Basti",
      "lat": 21.162609,
      "lng": 81.352867,
      "open_now": true
    },
    {
      "place_id": "ChIJP_uUMgAjKToR1Gg1UTT007g",
      "name": "BASTER Fuel,s",
      "address": "5972+537, Maroda Basti",
      "lat": 21.162924,
      "lng": 81.3501727,
      "open_now": null
    },
    {
      "place_id": "ChIJ5bHsDO47KToRZvV0ufCUqX8",
      "name": "Hindustan Petroleum Corporation Limited",
      "address": "Ground Floor, Dhanora Main Road, Bhilai",
      "lat": 21.1554201,
      "lng": 81.338618,
      "open_now": true
    },
    {
      "place_id": "ChIJEcaqI1U7KToRTtzuxqHYUFk",
      "name": "Addoc Fuel pump",
      "address": "584Q+5CH, Hind Nagar",
      "lat": 21.1554273,
      "lng": 81.33862309999999,
      "open_now": null
    },
    {
      "place_id": "ChIJNVNFaAAlKToRcDZT7QrLETQ",
      "name": "Thap house",
      "address": "497P+P2, Patora",
      "lat": 21.114335,
      "lng": 81.38500499999999,
      "open_now": null
    },
    {
      "place_id": "ChIJrygGq0U7KToRyW03GAQasOM",
      "name": "Manav Petrol Pump",
      "address": "48RG+RGX, Dhanora Main Road, Sarojini Nagar, Dhanora",
      "lat": 21.1421059,
      "lng": 81.32634759999999,
      "open_now": true
    },
    {
      "place_id": "ChIJiXxrFlMkKToRLf93bjeGCGQ",
      "name": "Hindustan Petroleum Corporation Limited",
      "address": "Ground Floor, Dumardih",
      "lat": 21.114761,
      "lng": 81.39107400000002,
      "open_now": true
    },
    {
      "place_id": "ChIJ9ZQ10aw8KToRB27MKkKYTi8",
      "name": "Pawar Petrol Pump (Mahamaya Fuels)",
      "address": "Street 3A, Maitrinagar, Risali",
      "lat": 21.166341,
      "lng": 81.3396406,
      "open_now": true
    },
    {
      "place_id": "ChIJExvKtnQ7KToRZmAOyvYRzqo",
      "name": "IndianOil",
      "address": "Ground Floor, Pauwara,Dundera, Patora",
      "lat": 21.10303,
      "lng": 81.33794,
      "open_now": true
    },
    {
      "place_id": "ChIJX1tnbbM8KToR-qlaO5V30mw",
      "name": "IndianOil",
      "address": "Forest Avenue Road Bhilai Niwas, Township, Bhilai",
      "lat": 21.1743029,
      "lng": 81.33798829999999,
      "open_now": true
    },
    {
      "place_id": "ChIJSYFd-MklKToRI0w8C3REIvY",
      "name": "IndianOil",
      "address": "Ground Floor Patora, Patan",
      "lat": 21.107534,
      "lng": 81.40660299999999,
      "open_now": true
    },
    {
      "place_id": "ChIJ7_zYmRYjKToRXLYdGamLSP4",
      "name": "Bharat Petroleum Waghela Filling Station",
      "address": "near Boriya Gate, Forest Avenue Road, Sector 4, near Boriya Gate, Bhilai",
      "lat": 21.1892329,
      "lng": 81.3659957,
      "open_now": null
    },
    {
      "place_id": "ChIJ-3UZFmI9KToRGyByOttiiiM",
      "name": "Hindustan Petroleum Corporation Limited",
      "address": "Khasra No 234, 24 & 235/19, Borsi",
      "lat": 21.156648,
      "lng": 81.310737,
      "open_now": true
    },
    {
      "place_id": "ChIJNeRUHIEjKToRP6_9yZHaoMs",
      "name": "Bharat Petroleum, Petrol Pump -Civic Centre Autos",
      "address": "Central Avenue, Sector 6, Bhilai",
      "lat": 21.1892573,
      "lng": 81.345466,
      "open_now": true
    },
    {
      "place_id": "ChIJB1SE5WU9KToRyqaXTKVkKbc",
      "name": "Police petrol pump",
      "address": "58QQ+5PF, State Bank Colony, Sector 6, Bhilai",
      "lat": 21.1877592,
      "lng": 81.3408025,
      "open_now": null
    },
    {
      "place_id": "ChIJBRjgQjMjKToRAa4H0jQ300Y",
      "name": "IndianOil",
      "address": "Steel Plant, Central Avenue, State Bank Colony, Sector 6, Bhilai",
      "lat": 21.188294,
      "lng": 81.3411059,
      "open_now": true
    },
    {
      "place_id": "ChIJre5Kfcs8KToR71bU5uTFn_E",
      "name": "Hindustan Petroleum Corporation Limited",
      "address": "Ground Floor, Central Avenue, Sector 10, Durg",
      "lat": 21.187231,
      "lng": 81.337949,
      "open_now": true
    },
    {
      "place_id": "ChIJOVBngTM7KToRHlMERlSSgWI",
      "name": "Hindustan Petroleum Corporation Limited",
      "address": "Khasra No 578, 1 & 578/2, Hanoda",
      "lat": 21.141973,
      "lng": 81.30256500000002,
      "open_now": true
    },
    {
      "place_id": "ChIJVwjBSukjKToRFMue1Pnafsw",
      "name": "Khan Petrol Pumps",
      "address": "Ambikapur Shop, Bhilai",
      "lat": 21.1954199,
      "lng": 81.3712012,
      "open_now": null
    },
    {
      "place_id": "ChIJJUFhZgAlKToR8iNStRjHREo",
      "name": "Maheshwara Fuels",
      "address": "39HC+F5P, Utai-Machandur Road, Ghughsidih",
      "lat": 21.079802,
      "lng": 81.3704219,
      "open_now": null
    },
    {
      "place_id": "ChIJPUw5MQA7KToRmHo9DTBhNRE",
      "name": "R.S. FUELS",
      "address": "48M2+945, Durg",
      "lat": 21.13338139999999,
      "lng": 81.30035459999999,
      "open_now": null
    },
    {
      "place_id": "ChIJFcrF7SUjKToRgy058ymapIU",
      "name": "Bharat Petroleum, Petrol Pump -Bhilai Service Station",
      "address": "Central Avenue, Sector 4, Bhilai",
      "lat": 21.1981428,
      "lng": 81.3628136,
      "open_now": true
    },
    {
      "place_id": "ChIJAXL-R-IlKToROoFOO6Wvc_Q",
      "name": "Bharat Petroleum Petrol Pump , SHREE RAJ FUELS",
      "address": "TEHSIL, VILLAGE MUDPAR, Patan",
      "lat": 21.114629,
      "lng": 81.42264999999999,
      "open_now": true
    },
    {
      "place_id": "ChIJ9wgwdtQ8KToR8SSybgjmR0s",
      "name": "Hindustan Petroleum Corporation Limited",
      "address": "Ground Floor, Infront of Maharan Pratap, Garage Road, Sector 7, Durg",
      "lat": 21.1985545,
      "lng": 81.3348733,
      "open_now": true
    },
    {
      "place_id": "ChIJoc2lT-08KToR_Yrv2uU__uQ",
      "name": "Hudco Petrol Pump",
      "address": "Utai Road, Amdi Nagar, Hudco Colony, Hudco, Bhilai",
      "lat": 21.1804252,
      "lng": 81.30789399999999,
      "open_now": true
    },
    {
      "place_id": "ChIJLRBNDN49KToRzp0N0pv-TWQ",
      "name": "Manish Grocery",
      "address": "Priyadarsani, west, Bhilai",
      "lat": 21.199407,
      "lng": 81.3308007,
      "open_now": null
    },
    {
      "place_id": "ChIJByagE9giKToR3HotLvgufWU",
      "name": "IndianOil",
      "address": "GE Road, Supela, Bhilai",
      "lat": 21.206852,
      "lng": 81.352013,
      "open_now": true
    },
    {
      "place_id": "ChIJi4_Sd9UiKToRPJWLo_CVj9E",
      "name": "IndianOil",
      "address": "Nh 6, Supela, Krishna Nager",
      "lat": 21.206051,
      "lng": 81.34271199999999,
      "open_now": true
    },
    {
      "place_id": "ChIJS6ExMf0iKToRZqRHua95GZ8",
      "name": "Highway Petrol Pump",
      "address": "695F+F9C, Raipur-Bhilai-Durg Expressway Road (NH6), Camp 2, Bhilai",
      "lat": 21.2087,
      "lng": 81.37339999999999,
      "open_now": true
    },
    {
      "place_id": "ChIJobi0O_0iKToRQW2e-ExKIm0",
      "name": "Hindustan Petroleum Corporation Limited",
      "address": "Ground Floor, NH 53, Great Eastern Road, power house, Bhilai",
      "lat": 21.208651,
      "lng": 81.374611,
      "open_now": true
    },
    {
      "place_id": "ChIJp2bovf0iKToR2gt6OlLfNMM",
      "name": "Hindustan Petroleum Corporation Limited",
      "address": "Ground Floor, NH 53, power house, Chowk, Durg",
      "lat": 21.2085783,
      "lng": 81.3768166,
      "open_now": true
    },
    {
      "place_id": "ChIJq3uLrdUjKToRsH6ScIL69fg",
      "name": "IndianOil",
      "address": "NH 6, 3, Bajrang para, Bhilai",
      "lat": 21.20597099999999,
      "lng": 81.42571029999999,
      "open_now": true
    },
    {
      "place_id": "ChIJ0cgEIAEnKToRnsPtVMg_vpk",
      "name": "KDS FUELS",
      "address": "Besides KDS Farm, Ghughuwa Road, Dhour",
      "lat": 21.1210225,
      "lng": 81.4508783,
      "open_now": true
    },
    {
      "place_id": "ChIJO01YsEQhKToRj-BlSWuEMno",
      "name": "IndianOil",
      "address": "Ground Floor Somni, Industrial Estate Bhilai",
      "lat": 21.17966,
      "lng": 81.439138,
      "open_now": true
    },
    {
      "place_id": "ChIJ7XSIGx8nKToRiM-GVVg7CHk",
      "name": "Bharat Petroleum, Petrol Pump -Siddharth Fuels",
      "address": "JAMGAON",
      "lat": 21.092188,
      "lng": 81.4342801,
      "open_now": null
    },
    {
      "place_id": "ChIJAxn4wwsnKToR4xxl-PU1Ixs",
      "name": "IndianOil",
      "address": "Ground Floor Ghughwa, Tarra Ghughwa, Road, Patan",
      "lat": 21.12884,
      "lng": 81.481948,
      "open_now": true
    },
    {
      "place_id": "ChIJdeViZz0hKToRWSOihkUF1XM",
      "name": "rishab auto center",
      "address": "5F9H+CH6, Auri",
      "lat": 21.1685414,
      "lng": 81.4788945,
      "open_now": null
    },
    {
      "place_id": "ChIJoe8FhmAhKToRKW31UMKvoiQ",
      "name": "Hindustan Petroleum Corporation Limited",
      "address": "Khasra No 126, 2 Patan, Auri",
      "lat": 21.169369,
      "lng": 81.483295,
      "open_now": true
    },
    {
      "place_id": "ChIJydBn0tLsKzoRB0FsTPWDYBc",
      "name": "IndianOil - SWAGAT",
      "address": "Rajnandgaon, Ground Floor NH 6, GE Road, Bagh, Nadi, Bagnadi",
      "lat": 21.2078367,
      "lng": 81.4334997,
      "open_now": true
    },
    {
      "place_id": "ChIJGTQR2NInKToRSj6EdfvQffY",
      "name": "IndianOil",
      "address": "Manik Chauri",
      "lat": 21.0788869,
      "lng": 81.472583,
      "open_now": true
    },
    {
      "place_id": "ChIJf-f3OwDZKDoRP0AHqwxh7ec",
      "name": "Diwaan Aara mill",
      "address": "4GXC+PF5, Jamgaon",
      "lat": 21.1496641,
      "lng": 81.5224233,
      "open_now": null
    },
    {
      "place_id": "ChIJIaSFrNHZKDoRe8Sl4p-Vm4M",
      "name": "Hindustan Petroleum Corporation Limited",
      "address": "Khasra No, 123/1, Funda, Godadih - Raipur Road, Patan, Jamgaon",
      "lat": 21.146308,
      "lng": 81.524496,
      "open_now": true
    },
    {
      "place_id": "ChIJC8wBDE3ZKDoRsmIQyXb8u4Y",
      "name": "IndianOil",
      "address": "Ground Floor Motipu, Raipur Jamgaon, Road, Patan",
      "lat": 21.166156,
      "lng": 81.539552,
      "open_now": true
    },
    {
      "place_id": "ChIJt8WN30_ZKDoRIq8cnfT2WKE",
      "name": "Bharat Petroleum Petrol Pump , PANDE FUELS",
      "address": "MOTIPUR-JHIT, Patan Road, SAKHARA",
      "lat": 21.164904,
      "lng": 81.54151,
      "open_now": null
    },
    {
      "place_id": "ChIJFZYLMgDZKDoR804PnECQSec",
      "name": "Rameshwar sahu",
      "address": "4HX4+R62, Jheet",
      "lat": 21.1495061,
      "lng": 81.5555291,
      "open_now": null
    },
    {
      "place_id": "ChIJZRbyC8zZKDoRw8tFPQqlSzE",
      "name": "Hindustan Petroleum Corporation Limited",
      "address": "Ground Floor, Motipur Patan Road, Patan",
      "lat": 21.130263,
      "lng": 81.56431099999999,
      "open_now": true
    },
    {
      "place_id": "ChIJtVFi784nKToRx39zjUqrF5k",
      "name": "Bharat Petroleum Petrol Pump , PAWAN FUELS",
      "address": "GRAM FUNDA TAH. PATAN DIST. DURG",
      "lat": 21.081841,
      "lng": 81.48433399999999,
      "open_now": null
    },
    {
      "place_id": "ChIJ_RLMvcHfKDoR17tBvn7REqE",
      "name": "Bhaskar fuels",
      "address": "Durg, Khamariya pahanda kumhari marg",
      "lat": 21.1891504,
      "lng": 81.5385184,
      "open_now": null
    },
    {
      "place_id": "ChIJe93NORInKToRAv9IoAsD0WA",
      "name": "Hindustan Petroleum Corporation Limited",
      "address": "Khasra No 1022, 2, Patan Road, Funda",
      "lat": 21.074261,
      "lng": 81.487808,
      "open_now": true
    },
    {
      "place_id": "ChIJtWeuOf4iKToRq1-JGBFyaFU",
      "name": "IndianOil",
      "address": "Great Eastern Road, power house, Bhilai",
      "lat": 21.2085,
      "lng": 81.3805,
      "open_now": true
    },
    {
      "place_id": "ChIJB6EafvYiKToRaJlC9yCIFto",
      "name": "RAHUL AUTOMOBILES (PPD) Bharat Petroleum",
      "address": "Nandini Road, Light Industrial Area, Bhilai",
      "lat": 21.2247137,
      "lng": 81.3807241,
      "open_now": true
    },
    {
      "place_id": "ChIJsb7Oq7AiKToRE51Y7MpZV9M",
      "name": "Hindustan Petroleum Corporation Limited",
      "address": "Khasra No 1481 & 1482, Kurud Road, Kurud, Kohka, Bhilai",
      "lat": 21.2355891,
      "lng": 81.3507573,
      "open_now": null
    },
    {
      "place_id": "ChIJoRKbAEQiKToR0n0TYBUZM0c",
      "name": "IndianOil",
      "address": "Ground Floor, Hathkhoj Transport Ngr, Heavy Indl Area,I E Bhilai, Bhilai",
      "lat": 21.225729,
      "lng": 81.40024,
      "open_now": true
    },
    {
      "place_id": "ChIJDR436N48KToRimhvaxdV3DQ",
      "name": "Hindustan Petroleum Corporation Limited",
      "address": "Ground Floor, Infront of, NH 53, Durg Bypass, Nehru Nagar",
      "lat": 21.200454,
      "lng": 81.322037,
      "open_now": true
    },
    {
      "place_id": "ChIJbbfoTR8iKToRyGV4lsGoMg8",
      "name": "Hindustan Petroleum Corporation Limited",
      "address": "Ground Floor Aklordih, Road No 3, Hathkhoj",
      "lat": 21.234077,
      "lng": 81.42262199999999,
      "open_now": true
    },
    {
      "place_id": "ChIJsxe66Ho9KToRv8kozG2Hxj0",
      "name": "IndianOil",
      "address": "Ground Floor, Durg - Dhamdha Road, Admabad, Khapri",
      "lat": 21.240964,
      "lng": 81.305358,
      "open_now": true
    },
    {
      "place_id": "ChIJMZgWeKc9KToRve2g2sBcCgc",
      "name": "Petrol Pump",
      "address": "679W+347, Durg",
      "lat": 21.2176625,
      "lng": 81.295299,
      "open_now": null
    },
    {
      "place_id": "ChIJn3qlnfg8KToRoYVjuf3mHc0",
      "name": "IndianOil",
      "address": "Ground Floor, near Science College, Durg",
      "lat": 21.1946909,
      "lng": 81.2959944,
      "open_now": true
    },
    {
      "place_id": "ChIJ66agw6c9KToRSU-kHPHolsU",
      "name": "IndianOil",
      "address": "Ground Floor, Sikola Bhata",
      "lat": 21.2154903,
      "lng": 81.29431269999999,
      "open_now": true
    },
    {
      "place_id": "ChIJNW7hifUhKToRmrk2dSs7Yhk",
      "name": "Maruti Petroleum Bhilai Umda Bharat Petroleum",
      "address": "Bhilai Marshalling Yard, Charoda",
      "lat": 21.2370977,
      "lng": 81.4280675,
      "open_now": true
    },
    {
      "place_id": "ChIJP4e3X4IhKToRWfM2-44lHEg",
      "name": "Hindustan Petroleum Corporation Limited",
      "address": "Ground Floor, Sirsha chowk, near Sirsa Gate, Umda Road, Bhilai",
      "lat": 21.211739,
      "lng": 81.43615799999999,
      "open_now": true
    },
    {
      "place_id": "ChIJuwkCTlI8KToRE9fMM0l0jkc",
      "name": "SURYAKANT VALLABHDAS FUELS",
      "address": "Station Road, Guru Nanak Nagar, Durg",
      "lat": 21.1988022,
      "lng": 81.28752999999999,
      "open_now": true
    },
    {
      "place_id": "ChIJ_z-c6iUjKToRCUxLqmabVwY",
      "name": "Vishva Petrol Pump",
      "address": "Vrinda Nagar, Camp 1, Bhilai",
      "lat": 21.2158875,
      "lng": 81.3602849,
      "open_now": null
    },
    {
      "place_id": "ChIJ__VlpBMjKToRyiZ5Eoq0Vfo",
      "name": "Shivam Petrol Pump",
      "address": "Vrinda Nagar, Camp 1, Bhilai",
      "lat": 21.2183481,
      "lng": 81.3653125,
      "open_now": null
    },
    {
      "place_id": "ChIJGfMBoB4jKToR3WsACzOvlHE",
      "name": "Deepanshu Petrol Pump",
      "address": "Link Road, Bhilai",
      "lat": 21.2115243,
      "lng": 81.3740809,
      "open_now": null
    },
    {
      "place_id": "ChIJaSsu2DAjKToRq8puwG6Dr7U",
      "name": "Mirza Petrol Pump",
      "address": "Mirza Azam, Bhilai",
      "lat": 21.2117824,
      "lng": 81.37584,
      "open_now": null
    },
    {
      "place_id": "ChIJOUAT4TsjKToRfnA8uwrwG0Q",
      "name": "Hindustan Petrol Pump",
      "address": "Camp 2, Bhilai",
      "lat": 21.2113355,
      "lng": 81.376578,
      "open_now": null
    },
    {
      "place_id": "ChIJ12jZMLsjKToRKcLCjLSDYEE",
      "name": "Hindustan Petroleum Corporation Limited",
      "address": "8251/8, Kh No 8251/5, Gaurav Path, Bhilai",
      "lat": 21.220816,
      "lng": 81.358604,
      "open_now": true
    },
    {
      "place_id": "ChIJTTWyPSMjKToRJFL5CWr9o5c",
      "name": "Rahul Petrol Pump",
      "address": "Bhilai",
      "lat": 21.2123013,
      "lng": 81.3781649,
      "open_now": null
    },
    {
      "place_id": "ChIJ26cm_0wjKToRxnhDTLljUKc",
      "name": "IndianOil",
      "address": "Housing Board, Camp Area, Vaishali Nagar",
      "lat": 21.2233804,
      "lng": 81.3679952,
      "open_now": true
    },
    {
      "place_id": "ChIJUSZP0AIjKToRy7v6bNbBhC4",
      "name": "Rupesh Petrol Pump",
      "address": "Kumari Road, Bhilai",
      "lat": 21.2236771,
      "lng": 81.376522,
      "open_now": null
    },
    {
      "place_id": "ChIJIQH0_vYiKToRTVr3zQgp5f8",
      "name": "IndianOil",
      "address": "Nandini Road, Chowk, Chavni",
      "lat": 21.2218822,
      "lng": 81.3811409,
      "open_now": true
    },
    {
      "place_id": "ChIJTTtNq48jKToRrQJ-DkanB1M",
      "name": "Sai Petrol Pump",
      "address": "Bhilai",
      "lat": 21.2273784,
      "lng": 81.37521509999999,
      "open_now": null
    },
    {
      "place_id": "ChIJk-d_RcwiKToRO0S3sDO9Gog",
      "name": "BPCL Sao Petrol Pump",
      "address": "Kohka, Bajarang Para",
      "lat": 21.2208371,
      "lng": 81.3435959,
      "open_now": true
    },
    {
      "place_id": "ChIJI_r7xgUjKToROTKvJNqiFiY",
      "name": "Shakti Shambhu",
      "address": "Maharaj 33, Bhilai",
      "lat": 21.2312725,
      "lng": 81.3686829,
      "open_now": null
    },
    {
      "place_id": "ChIJt1hCPr09KToR5oiIp6Mi_YM",
      "name": "Hindustan Petroleum Corporation Limited",
      "address": "Khasra No 1879, 2 & 3309/2, Kohka, Bhilai",
      "lat": 21.218495,
      "lng": 81.33689199999999,
      "open_now": true
    },
    {
      "place_id": "ChIJf2GooEAjKToR9F0Paj8dHDU",
      "name": "ATUL OXYGEN COMPANY",
      "address": "28/B, Light Industrial Area, Bhilai",
      "lat": 21.2281949,
      "lng": 81.3866812,
      "open_now": true
    },
    {
      "place_id": "ChIJK10xczM9KToR629qlpDhFqg",
      "name": "UV power service station",
      "address": "Kohaka, Main Road, Bhillai, Kurud, Durg",
      "lat": 21.2208489,
      "lng": 81.3332683,
      "open_now": null
    },
    {
      "place_id": "ChIJFdM-nbUjKToRP2xybrZdE5s",
      "name": "Rohit Petrol Pump",
      "address": "Rohit Petrol Pump, Bhilai",
      "lat": 21.2395206,
      "lng": 81.36458879999999,
      "open_now": null
    },
    {
      "place_id": "ChIJA7-THgA9KToR_ptHpSbL1MM",
      "name": "IndianOil",
      "address": "Ground Floor, Avanti Bai Chowk, near Surya Mall, Bhilai",
      "lat": 21.2175193,
      "lng": 81.3308807,
      "open_now": true
    },
    {
      "place_id": "ChIJQX8LWac9KToR8TO0NrYURcg",
      "name": "IndianOil",
      "address": "Sirsa Road, Jewra, Arya Nagar, Kohka, Bhilai",
      "lat": 21.230789,
      "lng": 81.33144399999999,
      "open_now": true
    },
    {
      "place_id": "ChIJowLDR0EiKToRi2JWcTDTZEI",
      "name": "Reliance Petrol Pump",
      "address": "Hathkhoj",
      "lat": 21.2268,
      "lng": 81.40169999999999,
      "open_now": true
    },
    {
      "place_id": "ChIJkZ6nwjc9KToRo1zuXMmesNE",
      "name": "Shahid Kaushal filling station",
      "address": "9, Steel Colony, Katulbod, Nehru Nagar",
      "lat": 21.2009906,
      "lng": 81.3191257,
      "open_now": true
    },
    {
      "place_id": "ChIJFxdR04YiKToR1aOPGdPy_lg",
      "name": "Hindustan Petroleum Corporation Limited",
      "address": "Power House, Ground Floor Nandini Road, Road, Jamul",
      "lat": 21.248631,
      "lng": 81.381085,
      "open_now": true
    },
    {
      "place_id": "ChIJFVjV1hc9KToROgUYPlXOOTo",
      "name": "Hindustan Petroleum Corporation Limited",
      "address": "Ground Floor, Junwani Chowk, Smruti Nagar, Durg",
      "lat": 21.218211,
      "lng": 81.31762499999999,
      "open_now": true
    },
    {
      "place_id": "ChIJHd7caGs9KToR7sB3EYzrRHM",
      "name": "AMBIKA FUELS BPCL",
      "address": "Pushpak Nagar, Junwani Road, Smriti Nagar",
      "lat": 21.2104722,
      "lng": 81.3163466,
      "open_now": true
    },
    {
      "place_id": "ChIJ8YIsHGcjKToR51YEhFA6z0k",
      "name": "Onkar Fuels",
      "address": "69XM+V54, Nandini Road, Nakapara, Jamul",
      "lat": 21.2496275,
      "lng": 81.3829573,
      "open_now": true
    },
    {
      "place_id": "ChIJcZQCwp4hKToRmh9CNkcKDeU",
      "name": "Monu Petrol Pump",
      "address": "6C8W+2C5, Raipur-Bhilai-Durg Expressway Road (NH6), Bhilai Marshalling Yard, Bhilai",
      "lat": 21.215,
      "lng": 81.44610000000002,
      "open_now": true
    },
    {
      "place_id": "ChIJ9er1RswhKToRWpTc-HoEyKk",
      "name": "Hindustan Petroleum Corporation Limited",
      "address": "Ground Floor, NH 6, Durg Raipur Road, Charoda, Durg",
      "lat": 21.215933,
      "lng": 81.446176,
      "open_now": true
    },
    {
      "place_id": "ChIJS8KnoB8iKToRgSAjaEVC8O8",
      "name": "IndianOil",
      "address": "Ground Floor, Abhanpur, Tekari-2",
      "lat": 21.23480099999999,
      "lng": 81.425101,
      "open_now": true
    },
    {
      "place_id": "ChIJ7e5KMIAjKToRA9W13dNoomc",
      "name": "Reliance Petroleum",
      "address": "No 46, Heavy Industrial Area Hathkhoj, Bhilai",
      "lat": 21.23551,
      "lng": 81.41416199999999,
      "open_now": true
    },
    {
      "place_id": "ChIJH6fkXV4hKToRWt9nCwdg3Rw",
      "name": "Nimesha Energies",
      "address": "Nimesha Energies, HPCL Petrol Pump, in front of Devbhog Dugdh Sangh Plant, 46/2, Urla Road, Urla",
      "lat": 21.2324095,
      "lng": 81.485084,
      "open_now": true
    },
    {
      "place_id": "ChIJd4r9YEkhKToRj28OBpFrBeQ",
      "name": "Hindustan Petroleum Corporation Limited",
      "address": "Ground Floor, Kumhari NP Part",
      "lat": 21.232511,
      "lng": 81.485261,
      "open_now": true
    },
    {
      "place_id": "ChIJQ7NfOjggKToRrBhB9Ji3iYY",
      "name": "IndianOil",
      "address": "Ground Floor, Charoda, NH 6 Janjgiri, Great Eastern Road, Bhilai Marshalling Yard, Bhilai",
      "lat": 21.238301,
      "lng": 81.483508,
      "open_now": true
    },
    {
      "place_id": "ChIJ_6f1nYAiKToRKo1911W81gA",
      "name": "IndianOil",
      "address": "Ground Floor, Jamul, Kurud, Bhilai",
      "lat": 21.250635,
      "lng": 81.383883,
      "open_now": true
    },
    {
      "place_id": "ChIJEQrL07chKToR-9Yu4U5tBWY",
      "name": "IndianOil",
      "address": "Ground Floor, NH 6, Janjgiri, Kumhari",
      "lat": 21.2426341,
      "lng": 81.49749489999999,
      "open_now": true
    },
    {
      "place_id": "ChIJ4wcumxYgKToRMB-XwcsQW80",
      "name": "TCI PUMP",
      "address": "H-1/318, Nagpur - Bhandara - Rajnandgaon - Raipur Highway, Kumhari NP Part",
      "lat": 21.24319329999999,
      "lng": 81.49725169999999,
      "open_now": true
    },
    {
      "place_id": "ChIJf--3nPDfKDoRI2iypSw_KJs",
      "name": "Bharat Petroleum Petrol / CNG",
      "address": "Raipur-Bhilai-Durg Expressway Road (NH6), Ward Number 15, Kumhari, Bhilai",
      "lat": 21.2496278,
      "lng": 81.523213,
      "open_now": null
    },
    {
      "place_id": "ChIJ68cSDubfKDoRxwDxZhB0LvE",
      "name": "Bharat Petroleum",
      "address": "Kumhari, Raipur, NH-6, Armori Bhandara Highway, Raipur, Raipur",
      "lat": 21.251445,
      "lng": 81.53281799999999,
      "open_now": true
    },
    {
      "place_id": "ChIJXW1cbdPfKDoRgtsnwUvI3dE",
      "name": "BPCL Petrol Pump",
      "address": "National Highway 6, Tatibandh, Raipur",
      "lat": 21.2559798,
      "lng": 81.55767159999999,
      "open_now": true
    },
    {
      "place_id": "ChIJZ8QNK4YhKToRwYad0vIsKoA",
      "name": "Bhawani Service Station",
      "address": "Bhawani Service Station, NH 53, Great Eastern Road",
      "lat": 21.2439459,
      "lng": 81.50267889999999,
      "open_now": true
    },
    {
      "place_id": "ChIJYQCilxEgKToRf_HHf7f9YV8",
      "name": "Hindustan Petroleum Corporation Limited",
      "address": "Ground Floor, near DMC, NH 6, Kumhari",
      "lat": 21.244077,
      "lng": 81.5027662,
      "open_now": true
    },
    {
      "place_id": "ChIJ0ZMAy2UhKToRm9CK_VAPF-E",
      "name": "Hindustan Petroleum Corporation Limited",
      "address": "Khasra No 30/3, 30/6 30/4 & 29/1, Dhamdha Road, Kumhari",
      "lat": 21.2441638,
      "lng": 81.5058997,
      "open_now": true
    },
    {
      "place_id": "ChIJT1NxXw4gKToRVoz_WgTeIGA",
      "name": "Jio-BP",
      "address": "6GW4+4VQ, Great Eastern Road, Kumhari",
      "lat": 21.2453446,
      "lng": 81.5072428,
      "open_now": true
    },
    {
      "place_id": "ChIJid7OYBEhKToRmlURxz3_4SM",
      "name": "Hindustan Petroleum Corporation Limited",
      "address": "Durg, Khasra No 357/6 Dhamdha, Rampur Chorha",
      "lat": 21.25403679999999,
      "lng": 81.5078793,
      "open_now": true
    },
    {
      "place_id": "ChIJayEB7uXfKDoRUqE3bOyJqds",
      "name": "IndianOil",
      "address": "Ground Floor, Dhamdha, Kumhari",
      "lat": 21.2511943,
      "lng": 81.531207,
      "open_now": true
    },
    {
      "place_id": "ChIJKfWl4-XfKDoRnucC0pXRSy4",
      "name": "Jio-bp",
      "address": "Ground Floor, Opposite Yug Bodh Prakashan, Nh 6, Kumhari",
      "lat": 21.2513028,
      "lng": 81.5320844,
      "open_now": true
    },
    {
      "place_id": "ChIJ03xA0cLfKDoR22-YyKTtIXY",
      "name": "Bharat Petroleum, Petrol Pump -Vimal Transport",
      "address": "KUMHARI (NH-6), DURG",
      "lat": 21.2496895,
      "lng": 81.5432874,
      "open_now": null
    },
    {
      "place_id": "ChIJjanLhY3fKDoRNSRae-hPHOg",
      "name": "Shri Ram Fuels",
      "address": "Patan - Raipur Road, Amleshwar",
      "lat": 21.1986287,
      "lng": 81.5719435,
      "open_now": true
    },
    {
      "place_id": "ChIJuWIftujeKDoRFdMk0_6PggU",
      "name": "Bharat Petroleum",
      "address": "India",
      "lat": 21.1986593,
      "lng": 81.5719682,
      "open_now": null
    },
    {
      "place_id": "ChIJ8YiDhPjfKDoRqe3uqFFAwM4",
      "name": "Hindustan Petroleum Corporation Limited",
      "address": "Ground Floor, near Wall Fort Vihar, Amleshwar",
      "lat": 21.199011,
      "lng": 81.57228669999999,
      "open_now": true
    },
    {
      "place_id": "ChIJWWVPZwAZKToRIvIplw5HINU",
      "name": "पेट्रोल पंप (Petrol Pump)",
      "address": "894M+WH4, Aheri",
      "lat": 21.3085133,
      "lng": 81.3845351,
      "open_now": null
    },
    {
      "place_id": "ChIJK6uVt-cZKToRkAWGbn1cO3M",
      "name": "Hindustan Petroleum Corporation Limited",
      "address": "Khasra No, 814 & 815, Nandini Road, Dhamdha, Jamul",
      "lat": 21.3122781,
      "lng": 81.3836493,
      "open_now": true
    },
    {
      "place_id": "ChIJl3xiofwXKToRlyi5KRrQcXk",
      "name": "Bharat Petroleum M/s Sumitra Devi Fuels",
      "address": "78WF+6HM, Durg",
      "lat": 21.2955834,
      "lng": 81.32392279999999,
      "open_now": null
    },
    {
      "place_id": "ChIJJ0Tjb6MXKToRr2HY21gcx1k",
      "name": "Hindustan Petroleum Corporation Limited",
      "address": "Khasra No 266/4, Durg - Dhamdha Road, Karanja B",
      "lat": 21.2844897,
      "lng": 81.31820920000001,
      "open_now": true
    },
    {
      "place_id": "ChIJgQ9P644ZKToRMCiK_EKfOlM",
      "name": "IndianOil",
      "address": "Ground Floor Bagdumar, Dhamdha, Dhaur",
      "lat": 21.319086,
      "lng": 81.38487099999999,
      "open_now": true
    },
    {
      "place_id": "ChIJT8LFtZkXKToRuFx-YDZBq-I",
      "name": "Hindustan Petroleum Corporation Limited",
      "address": "Khasra No 66/2, Jevra Sirsa",
      "lat": 21.268625,
      "lng": 81.309953,
      "open_now": true
    },
    {
      "place_id": "ChIJjWMtBwAXKToRIlq26HUzPyk",
      "name": "Jai Joganiya Power",
      "address": "88CM+HVQ, Durg - Dhamdha Road, Medesara",
      "lat": 21.3214584,
      "lng": 81.3347295,
      "open_now": true
    },
    {
      "place_id": "ChIJU5oHSAAXKToRE83c723UKII",
      "name": "Pinky bio fuels",
      "address": "88CM+JWV, Durg - Dhamdha Road, Rawelidih",
      "lat": 21.3216023,
      "lng": 81.3348113,
      "open_now": true
    },
    {
      "place_id": "ChIJv2OkbFg9KToR_t80Svq45PE",
      "name": "M/s Abhishek Fuels",
      "address": "Kohka jewara, Sirsa Road, Bhilai",
      "lat": 21.2388812,
      "lng": 81.32188769999999,
      "open_now": true
    },
    {
      "place_id": "ChIJp7wTNt8XKToR5776CYaTY2o",
      "name": "IndianOil",
      "address": "Ground Floor Nandkatti, Borsi",
      "lat": 21.329525,
      "lng": 81.33847899999999,
      "open_now": true
    },
    {
      "place_id": "ChIJc3f1q8IXKToRDDUII5ggDY0",
      "name": "Bharat Petroleum, Petrol Pump -Maa Gumano Fuels",
      "address": "DURG, NEAR BYPASS FLYOVER, Durg",
      "lat": 21.26568499999999,
      "lng": 81.30432499999999,
      "open_now": null
    },
    {
      "place_id": "ChIJTRf_Hm4ZKToR8uhyvuqmx7M",
      "name": "Hari Om Sai Fuels",
      "address": "Banbarad, Ahiwara",
      "lat": 21.333376,
      "lng": 81.395106,
      "open_now": true
    },
    {
      "place_id": "ChIJj4sDHQA9KToRq0XIvr9ggSQ",
      "name": "Naina fuels (BPCL)",
      "address": "68V4+VH6, Khapri Alias Pipardih",
      "lat": 21.244669,
      "lng": 81.3063926,
      "open_now": true
    },
    {
      "place_id": "ChIJJZ5g7HoZKToRHzrZvaWBZug",
      "name": "HP Petrol Pump - Dhawan Service Station",
      "address": "HP Petrol Pump Village: Banbarad Nandini, (bhilai Ahiwara Road), Raipur",
      "lat": 21.3395529,
      "lng": 81.3933354,
      "open_now": true
    },
    {
      "place_id": "ChIJl1HKQAIZKToRO1yRxX7ee0w",
      "name": "Hindustan Petroleum Corporation Limited",
      "address": "Ground Floor, Nandini Ahiwara Road, Banbarad, Raipur",
      "lat": 21.33961,
      "lng": 81.393335,
      "open_now": true
    },
    {
      "place_id": "ChIJXUoY3PgZKToRGYMj9bpZ9aQ",
      "name": "Indian Oil Petrol Pump",
      "address": "Ground Floor, Dhamdha, Kodia",
      "lat": 21.3448794,
      "lng": 81.3464953,
      "open_now": true
    },
    {
      "place_id": "ChIJb-2CTnA9KToRgsR17yC9yBw",
      "name": "IndianOil",
      "address": "Ground Floor Khapri, Motilal Nehru Nagar",
      "lat": 21.2361835,
      "lng": 81.30508449999999,
      "open_now": true
    },
    {
      "place_id": "ChIJUQGDUgAfKToRMOnGxT6qDSA",
      "name": "Shri Sai petroleum (Petrol Pump) Murmunda",
      "address": "Kumhari, Ahiwara, Road, Kandraka",
      "lat": 21.3040841,
      "lng": 81.4692314,
      "open_now": true
    },
    {
      "place_id": "ChIJmRlRwGIfKToRI_6HJ3jrwXU",
      "name": "Hindustan Petroleum Corporation Limited",
      "address": "Khasra No 251, 7 & 251/1, Ahiwara, Dhamdha, Murmunda",
      "lat": 21.317867,
      "lng": 81.45454199999999,
      "open_now": true
    },
    {
      "place_id": "ChIJb8sSDwAfKToR72_OXydNFzE",
      "name": "Hindustan Petroleum Corporation Limited",
      "address": "Ground Floor, SH 21, Kandarka, Durg",
      "lat": 21.29809699999999,
      "lng": 81.477672,
      "open_now": true
    },
    {
      "place_id": "ChIJqV-YegAfKToRpBxUbM6QJas",
      "name": "Siddhi fuels & Energy-Jio BP",
      "address": "8CRH+HV, Sandi",
      "lat": 21.3414304,
      "lng": 81.4297431,
      "open_now": null
    },
    {
      "place_id": "ChIJK-t_aQDhKDoRSlo_s1B8RMg",
      "name": "Induria Fuels CG",
      "address": "7H97+JW5, Tatibandh, Raipur",
      "lat": 21.2690109,
      "lng": 81.564864,
      "open_now": true
    },
    {
      "place_id": "ChIJJ67LfSzeKDoRDEg0l1m2A3g",
      "name": "IndianOil",
      "address": "Ground Floor, Tatibandh, Raipur",
      "lat": 21.2565676,
      "lng": 81.56251549999999,
      "open_now": true
    },
    {
      "place_id": "ChIJP6jmkR3fKDoRhY85ZAqppqE",
      "name": "Jai Siddhivinayak Petroleum",
      "address": "N.H.53,Near Bajipura Sumul Daan Factory, Titva (Bajipura), Ta-Valod,Di",
      "lat": 21.2586913,
      "lng": 81.5663538,
      "open_now": null
    },
    {
      "place_id": "ChIJb2GRnrPfKDoRrjQQ1dH2who",
      "name": "Hindustan Petroleum Corporation Limited",
      "address": "Ground Floor, Ring Road, Chowk, Tatibandh, Raipur",
      "lat": 21.258191,
      "lng": 81.56696099999999,
      "open_now": true
    },
    {
      "place_id": "ChIJiTb-_CfeKDoRBJx401u5nFQ",
      "name": "IndianOil",
      "address": "Ring Road Number 2, Tatibandh, Durg",
      "lat": 21.263508,
      "lng": 81.570854,
      "open_now": true
    },
    {
      "place_id": "ChIJjQEyL8zhKDoRWqY_0DcsJg4",
      "name": "Hindustan Petroleum Corporation Limited",
      "address": "Ground Floor, Guma-2",
      "lat": 21.311387,
      "lng": 81.563527,
      "open_now": true
    },
    {
      "place_id": "ChIJHahrBPLgKDoRP9SSpvnlbl0",
      "name": "IndianOil",
      "address": "Ground Floor, Urla Road, Tendua",
      "lat": 21.295212,
      "lng": 81.571491,
      "open_now": true
    },
    {
      "place_id": "ChIJ6bVvEqrfKDoRFOYXpmVHYsM",
      "name": "Hindustan Petroleum Corporation Limited",
      "address": "Ground Floor, Apollo pharmacy line, near Bharat Mata School, MIG-22, Great Eastern Road, Shri Shanti Nath Nagar, Tatibandh, Raipur",
      "lat": 21.25986559999999,
      "lng": 81.5754541,
      "open_now": true
    },
    {
      "place_id": "ChIJ0RQbZL3hKDoRXbgKywPXs9Y",
      "name": "Bharat Petroleum, Petrol Pump -Oberoi Freight Carriers",
      "address": "SONDONGRI",
      "lat": 21.2663763,
      "lng": 81.578937,
      "open_now": null
    }
  ]
}