{
  "city": "Guntur",
  "state": "Andhra Pradesh",
  "count": 126,
  "center": {
    "lat": 16.3067,
    "lng": 80.4365
  },
  "pumps": [
    {
      "place_id": "ChIJBd1YZCZ3SjoRSJtpf0ZyNOQ",
      "name": "Hindustan Petroleum Corporation Limited",
      "address": "Survey No 39/1, NH 5, Chinakondrupadu",
      "lat": 16.2329273,
      "lng": 80.3166565,
      "open_now": true
    },
    {
      "place_id": "ChIJcVuI8RJxSjoRGkVw9DvNXuQ",
      "name": "Hindustan Petroleum Corporation Limited",
      "address": "Ground Floor, opposite Excise Police Station, Guntur Road, Prathipadu",
      "lat": 16.1867348,
      "lng": 80.3414568,
      "open_now": true
    },
    {
      "place_id": "ChIJGVHMegZxSjoRLz80qxxMc-w",
      "name": "IndianOil",
      "address": "Lock No T1/313/4, D No 116, Prathipadu",
      "lat": 16.177892,
      "lng": 80.33028999999999,
      "open_now": true
    },
    {
      "place_id": "ChIJmfXMJ591SjoRS99amQEsj1I",
      "name": "Hindustan Petroleum Corporation Limited",
      "address": "near Housing Board Colony, No 115/2, Nallapadu Road, Ankireddy Palem",
      "lat": 16.2952459,
      "lng": 80.40591090000001,
      "open_now": true
    },
    {
      "place_id": "ChIJ1SiypZ91SjoRjqpIN92OtJs",
      "name": "IndianOil",
      "address": "Lock T1/00000000473/4/5, No 4096, No 177, Nallapadu Road, Nallapadu",
      "lat": 16.2947741,
      "lng": 80.40809689999999,
      "open_now": true
    },
    {
      "place_id": "ChIJadnJq-B2SjoRueqBbJqb6Z4",
      "name": "Hindustan Petroleum Corporation Limited",
      "address": "Door No 778/1, National Highway 16, Prathipadu, Yanamadala",
      "lat": 16.242689,
      "lng": 80.3266192,
      "open_now": true
    },
    {
      "place_id": "ChIJrYSbY4h1SjoRLLQ-NDYPOto",
      "name": "IndianOil",
      "address": "SY No 65/A, Etukur",
      "lat": 16.2565691,
      "lng": 80.4202474,
      "open_now": true
    },
    {
      "place_id": "ChIJx8ZbDqV1SjoRqd9Ivsjt8CU",
      "name": "Hindustan Petroleum Corporation Limited",
      "address": "Ground Floor, NH 5, Service Road, Guntur",
      "lat": 16.2827573,
      "lng": 80.4015005,
      "open_now": true
    },
    {
      "place_id": "ChIJZWHidMB1SjoRJ5HOev6SvKk",
      "name": "Indian Oil",
      "address": "79RQ+454, Mahatma Gandhi Inner Ring Road, Nallapadu Rural",
      "lat": 16.2902634,
      "lng": 80.3879551,
      "open_now": null
    },
    {
      "place_id": "ChIJPeg7QgB1SjoRbd7wjXVtPgc",
      "name": "Hp mabujani petrol pump janib",
      "address": "7C5C+CVW, Guntur",
      "lat": 16.258721,
      "lng": 80.422077,
      "open_now": null
    },
    {
      "place_id": "ChIJn2svl_51SjoRqqk1YZnx928",
      "name": "Hindustan Petroleum Corporation Limited",
      "address": "Ground Floor, near Etukuru, Etukur",
      "lat": 16.2586728,
      "lng": 80.4222241,
      "open_now": true
    },
    {
      "place_id": "ChIJeUyFKKpxSjoRsG4aqkBT2JQ",
      "name": "Hindustan Petroleum Corporation Limited",
      "address": "Survey No, opposite Veterinary Hospital, 366/A1, Guntur - Prathipadu Road, Prathipadu",
      "lat": 16.183482,
      "lng": 80.33845099999999,
      "open_now": true
    },
    {
      "place_id": "ChIJ5_jzSQB1SjoREAFwXLsjnng",
      "name": "Nayara Petrol Bunk",
      "address": "88-103, Rotary Colony, Ankireddy Palem",
      "lat": 16.28475509999999,
      "lng": 80.4066835,
      "open_now": null
    },
    {
      "place_id": "ChIJGzguMOB0SjoRnQDxn8E8O30",
      "name": "Arunachalam Bharat Petroleums PETROL BUNK",
      "address": "Etukuru Road, Guntur",
      "lat": 16.2696825,
      "lng": 80.4303912,
      "open_now": true
    },
    {
      "place_id": "ChIJ_yjYlFZ1SjoRlHwM6nP0y0M",
      "name": "HP",
      "address": "Bus Stop, Housing Board Colony Side, Guntur - Sattenapalli Road, APHB Colony, Nallapadu",
      "lat": 16.2952214,
      "lng": 80.40666329999999,
      "open_now": null
    },
    {
      "place_id": "ChIJm_g_EicLSjoRm8jAyoOX-eg",
      "name": "Hindustan Petroleum Corporation Limited",
      "address": "Ground Floor, near Microwave Tower, NH 5, Service Road, Budampadu",
      "lat": 16.2703915,
      "lng": 80.469583,
      "open_now": true
    },
    {
      "place_id": "ChIJWbShBTh1SjoRJKO6OUoXuzg",
      "name": "PDR & Son Petrol Bunk",
      "address": "Patnam Bazar Road, Lalapet, Guntur",
      "lat": 16.2909479,
      "lng": 80.4424417,
      "open_now": true
    },
    {
      "place_id": "ChIJZ0CR8hR1SjoRgAELTVB48Ok",
      "name": "Bharat service station",
      "address": "Hpcl Dealers Near Medical Club OLD G.T Road,, Guntur",
      "lat": 16.29139899999999,
      "lng": 80.428579,
      "open_now": true
    },
    {
      "place_id": "ChIJO72KbxJ1SjoRtVEfewzjtYs",
      "name": "Hindustan Petroleum Corporation Limited",
      "address": "Ground Floor, near Medical Club, Old, Grand Trunk Road, Guntur",
      "lat": 16.2915507,
      "lng": 80.4285392,
      "open_now": true
    },
    {
      "place_id": "ChIJAUuW6jV1SjoRah5ztZtlIPY",
      "name": "A V Krishna Murthy & Sons - Best Bharat Petroleum Petrol Bunk in Guntur",
      "address": "D No 14-1-66 Stadium Road Opp Old Bus Stand, Guntur",
      "lat": 16.2932981,
      "lng": 80.4508216,
      "open_now": true
    },
    {
      "place_id": "ChIJ1VgMZEh1SjoRgqnbP7JDgGg",
      "name": "IndianOil",
      "address": "Ground Floor, Sambasiva Pet, Guntur",
      "lat": 16.296856,
      "lng": 80.444786,
      "open_now": true
    },
    {
      "place_id": "ChIJwRm6N7UKSjoRzPuvAvzjKq8",
      "name": "IndianOil",
      "address": "D No 151, Indian Bank Colony, Lock T1/405/6/9, Guntur",
      "lat": 16.296478,
      "lng": 80.455437,
      "open_now": true
    },
    {
      "place_id": "ChIJ1XWGwVx1SjoRR6AdOOoRLeQ",
      "name": "IndianOil",
      "address": "D No 154, Lock T1/415, 6/7/8, AMV Road, Guntur",
      "lat": 16.306967,
      "lng": 80.4364784,
      "open_now": true
    },
    {
      "place_id": "ChIJbbUuLIYLSjoRr-orcX8iHyQ",
      "name": "IndianOil",
      "address": "4/124, Guntur - Ponnur Road, Narakoduru",
      "lat": 16.2305282,
      "lng": 80.50997199999999,
      "open_now": true
    },
    {
      "place_id": "ChIJYYsbyXp1SjoRtUCzukBV5AM",
      "name": "Hindustan Petroleum Corporation Limited",
      "address": "Ground Floor, near Swami Theatre, Krishna Nagar, Guntur",
      "lat": 16.3066676,
      "lng": 80.42099639999999,
      "open_now": true
    },
    {
      "place_id": "ChIJ9W7DHLd0SjoRoalJxlWAwpY",
      "name": "IndianOil",
      "address": "Rs No 2, 1B, Guntur - Vatticherukuru Road, Ananthavarappadu",
      "lat": 16.2444476,
      "lng": 80.44451579999999,
      "open_now": true
    },
    {
      "place_id": "ChIJLW8syjR1SjoRnhMeGq-fLno",
      "name": "Venkata Sai Durga filling station, Ananthavarappadu",
      "address": "MDR31",
      "lat": 16.2444173,
      "lng": 80.4465026,
      "open_now": true
    },
    {
      "place_id": "ChIJR5awrNh0SjoRhAiNX3axW20",
      "name": "Bharat Petroleum BP Guntur",
      "address": "opp. hanumaan statue, Service Road, Guntur",
      "lat": 16.2705435,
      "lng": 80.43825149999999,
      "open_now": true
    },
    {
      "place_id": "ChIJh8sKAwB1SjoR1hl9gLdDjuY",
      "name": "Hindustan Petroleum Corporation Limited",
      "address": "Survey No 242, 1A, Service Road, Guntur",
      "lat": 16.2713254,
      "lng": 80.43556260000001,
      "open_now": true
    },
    {
      "place_id": "ChIJDyvODCF1SjoR08y6l7Z_WNw",
      "name": "IndianOil",
      "address": "Lock T1/357/8/9, D No 134, Nallacheruvu, Guntur",
      "lat": 16.2751511,
      "lng": 80.4360557,
      "open_now": true
    },
    {
      "place_id": "ChIJ3_Kc5SN1SjoRXQijYKq3dhA",
      "name": "Bharat Petroleum - AMARALINGESWARA FILLING STATION",
      "address": "India",
      "lat": 16.2772953,
      "lng": 80.43733,
      "open_now": null
    },
    {
      "place_id": "ChIJsQbsybILSjoRitsWVSltkZw",
      "name": "IndianOil",
      "address": "Ground Floor, near Ankireddypalem, NH 16, Choutra, Y Junction, Guntur",
      "lat": 16.26971,
      "lng": 80.46668009999999,
      "open_now": true
    },
    {
      "place_id": "ChIJ70z6LxYLSjoR3kkhA6tRC_0",
      "name": "Bharat Petroleum",
      "address": "India",
      "lat": 16.2573779,
      "lng": 80.4778092,
      "open_now": null
    },
    {
      "place_id": "ChIJEaTJH8oLSjoRLvUVlAFKqyk",
      "name": "IndianOil",
      "address": "Ward 33, near Guntur - Ponnur Road, No 1218/B1A, Muthyala Reddy Nagar, Guntur",
      "lat": 16.2689352,
      "lng": 80.4698141,
      "open_now": true
    },
    {
      "place_id": "ChIJQx2BI8gLSjoRnSGTA-_hH7w",
      "name": "Nayara Petrol & Diesel Station",
      "address": "7FJ4+8PP, Guntur",
      "lat": 16.2803525,
      "lng": 80.45666849999999,
      "open_now": true
    },
    {
      "place_id": "ChIJj-MoqrALSjoROMeMJzcuJNc",
      "name": "IndianOil",
      "address": "Survey No 80/1, Budampadu",
      "lat": 16.2542568,
      "lng": 80.4827756,
      "open_now": true
    },
    {
      "place_id": "ChIJ3VM85wx1SjoR65i2Lh4R4_8",
      "name": "IndianOil",
      "address": "Sy No 534, Bus Stop 19/7/87, 1 & 534/3, Ponnur Road, Sangadigunta, Guntur",
      "lat": 16.281358,
      "lng": 80.455072,
      "open_now": true
    },
    {
      "place_id": "ChIJkXX_cQB1SjoRVvvqRa2JQNg",
      "name": "Hindustan Petroleum Corporation Limited",
      "address": "Old D No 25, Survey No 13/2, New D 86/14, VIP Road, KVP Colony, Guntur",
      "lat": 16.2877349,
      "lng": 80.4253006,
      "open_now": true
    },
    {
      "place_id": "ChIJDbqIcl51SjoRjNRN4nRXB-M",
      "name": "Jio-bp KKR Agencies",
      "address": "near KKR Sai Nivya Theatre, Old, Mirchi Yard Road, Guntur",
      "lat": 16.2885534,
      "lng": 80.4195479,
      "open_now": true
    },
    {
      "place_id": "ChIJV4ptGQALSjoRX4aKAKEvrcA",
      "name": "Nayara Petrol & Diesel Station",
      "address": "6FVV+V32, Guntur",
      "lat": 16.2446436,
      "lng": 80.49263859999999,
      "open_now": null
    },
    {
      "place_id": "ChIJCwfn0P91SjoRYbZuS5vx3BQ",
      "name": "Hindustan Petroleum Corporation Limited",
      "address": "Ground Floor, R Agraharam, Guntur",
      "lat": 16.2909644,
      "lng": 80.4424858,
      "open_now": true
    },
    {
      "place_id": "ChIJq0AbiXJ1SjoRo8E9jZ7IPsU",
      "name": "Hindustan Petroleum Corporation Limited",
      "address": "Ground Floor, near Mastan Dargah, Nagarampalem, Guntur",
      "lat": 16.2917064,
      "lng": 80.43973419999999,
      "open_now": true
    },
    {
      "place_id": "ChIJUzn6mYsLSjoRCNDIgcTQuxw",
      "name": "Sivakumar",
      "address": "161-3, Mallaiah Lingam Nagar, Ali Nagar, Old Guntur, Guntur",
      "lat": 16.2874618,
      "lng": 80.4588411,
      "open_now": null
    },
    {
      "place_id": "ChIJK-_UbJ91SjoRSOM1dWJDmPU",
      "name": "BPCL",
      "address": "7CRH+F3V, 0 lane, Kodandaramaiah nagar, Guntur",
      "lat": 16.291227,
      "lng": 80.42768199999999,
      "open_now": null
    },
    {
      "place_id": "ChIJ0wIE_HcjSjoRg_8usX2y5qU",
      "name": "IndianOil",
      "address": "Ground Floor, near Port Land, Fishing Harbour, Guntur",
      "lat": 16.2920486,
      "lng": 80.4277079,
      "open_now": true
    },
    {
      "place_id": "ChIJGfCFycN1SjoRWm1lxBwpqbM",
      "name": "Bharat Petroleum, Petrol Pump -Pioneer Oils",
      "address": "OPP HINDU COLLEGE GUNTUR, Guntur",
      "lat": 16.2934439,
      "lng": 80.4437164,
      "open_now": true
    },
    {
      "place_id": "ChIJZ-R5Dzh1SjoRzZm8rr9pwwU",
      "name": "Hindustan Petroleum Corporation Limited",
      "address": "Ground Floor, near Hindu College Road, Kothapeta, Guntur",
      "lat": 16.29382099999999,
      "lng": 80.443041,
      "open_now": true
    },
    {
      "place_id": "ChIJAZ_DMN51SjoRLTQ2VM3qqDc",
      "name": "IndianOil",
      "address": "Survey No 237, opposite K & M Hotel, Collector Office Road, Guntur",
      "lat": 16.294125,
      "lng": 80.440834,
      "open_now": true
    },
    {
      "place_id": "ChIJ3RejMFt1SjoRMAf3toqyFJA",
      "name": "HP Petrol bunk",
      "address": "D No 22, near Old Bus Stand, 4/17, Grand Trunk Road, Lalapet, Guntur",
      "lat": 16.2929242,
      "lng": 80.45061199999999,
      "open_now": true
    },
    {
      "place_id": "ChIJBbB0HlB1SjoRU0HtLB0LkiM",
      "name": "Rosaiah Bharat Petroleum",
      "address": "7CVX+FJ5, Pottur Vari Thota, Guntur",
      "lat": 16.2936447,
      "lng": 80.44912269999999,
      "open_now": null
    },
    {
      "place_id": "ChIJMwX79-R1SjoRT_J3l4VuVKs",
      "name": "Bharat Petroleum, Petrol Pump -Lakshmi Oil Fillings",
      "address": "Nallapadu Road, Guntur",
      "lat": 16.2929459,
      "lng": 80.4204908,
      "open_now": true
    },
    {
      "place_id": "ChIJG-cO4lFzSjoRW3StnROfyYs",
      "name": "VIJAYALAKSHMI OIL TRADERS",
      "address": "331/c1, Valluru Road, Vatticherukuru",
      "lat": 16.178192,
      "lng": 80.44334719999999,
      "open_now": true
    },
    {
      "place_id": "ChIJ-bqw4s4LSjoRrS5ene8NheU",
      "name": "Hindustan Petroleum Corporation Limited",
      "address": "Ground Floor, opposite RTC Bus Stand, Nandivelugu Road, Guntur",
      "lat": 16.2937378,
      "lng": 80.45561169999999,
      "open_now": true
    },
    {
      "place_id": "ChIJbQGGCm11SjoRT2gvPD15BPQ",
      "name": "Nallagunta Arch",
      "address": "26-47-001,, Main Road, Nalakunta, Guntur",
      "lat": 16.2963079,
      "lng": 80.4230688,
      "open_now": null
    },
    {
      "place_id": "ChIJI45hTthySjoRgdxoi7yiSHc",
      "name": "IndianOil",
      "address": "D No 125, Lock T1, 333/4/5, Vatticherukuru",
      "lat": 16.1753221,
      "lng": 80.4416552,
      "open_now": true
    },
    {
      "place_id": "ChIJs9szryQLSjoRJVi4esjzz70",
      "name": "PANCHAMI FUELS ( BHARAT PETROLEUM CORPORATION LIMITED)",
      "address": "SURVEY NO 140/B, Narakoduru",
      "lat": 16.2372209,
      "lng": 80.5014872,
      "open_now": true
    },
    {
      "place_id": "ChIJcxCuCewLSjoROR-Yk5V7iq0",
      "name": "Bharat Petroleum, Petrol Pump -Ch.L.Narasimham & Co",
      "address": "KAKANI ROAD GUNTUR, Guntur",
      "lat": 16.2990592,
      "lng": 80.45697229999999,
      "open_now": true
    },
    {
      "place_id": "ChIJSZ3ldAB1SjoRreCiRYrYpCY",
      "name": "Hindustan Petroleum Corporation Limited",
      "address": "TS No 91 & 92, 5th Lane, Dash 1, Brodipet, Guntur",
      "lat": 16.3026182,
      "lng": 80.43735149999999,
      "open_now": true
    },
    {
      "place_id": "ChIJMWadyO11SjoRoW0fh4VKrS4",
      "name": "N 1833 THE ANGALUR PRIMARY AGRICULTURAL CO-OP SOCIETY LTD",
      "address": "Venugopal Rao Nagar, opp. Apcob Bank, Guntur",
      "lat": 16.3003344,
      "lng": 80.411422,
      "open_now": null
    },
    {
      "place_id": "ChIJ1y0_hMh1SjoRgmoQIqOTAkA",
      "name": "Brohith",
      "address": "Balaji Nagar, 62-54, 7th Line, Guntur",
      "lat": 16.3055822,
      "lng": 80.4372704,
      "open_now": null
    },
    {
      "place_id": "ChIJlflkQtB1SjoRDyCwmoufzAw",
      "name": "NARUKULLAPADU PRIMARY AGRICULTURAL COOP CRIDIT SOCIETY LIMITED",
      "address": "near Iskon Temple, 2-67, NGO Colony, Guntur",
      "lat": 16.3019315,
      "lng": 80.41188749999999,
      "open_now": null
    },
    {
      "place_id": "ChIJsyDHaAB1SjoRD6a71itMwXM",
      "name": "CNG bink",
      "address": "8C4P+MJ7, Guntur",
      "lat": 16.30665249999999,
      "lng": 80.4365402,
      "open_now": null
    },
    {
      "place_id": "ChIJhXyBwVx1SjoR06HdXRNnF2Q",
      "name": "Raghu Oil Corporation",
      "address": "Door No 6, opposite Hollywood Theatre, 29-15, Koritepadu Road, Koritepadu, Guntur",
      "lat": 16.3069836,
      "lng": 80.4364973,
      "open_now": null
    },
    {
      "place_id": "ChIJ77TroDcLSjoR1rPcBaxLeRc",
      "name": "IndianOil",
      "address": "beside PADAMAJA PETROL BUNK, 11a, Kakani Road, Sitaram Nagar, Guntur",
      "lat": 16.3040164,
      "lng": 80.4606544,
      "open_now": null
    },
    {
      "place_id": "ChIJYYa0cogLSjoRqVXD8yggDk4",
      "name": "Hindustan Petroleum Corporation Limited",
      "address": "Ground Floor, Narakoduru",
      "lat": 16.229086,
      "lng": 80.5111154,
      "open_now": true
    },
    {
      "place_id": "ChIJkeAyKRUMSjoRI4vC0ALMYSM",
      "name": "Hindustan Petroleum Corporation Limited",
      "address": "Survey No 221, opposite Jaya Lakshmi Spng Mills, SH 48, Chebrolu",
      "lat": 16.20731319999999,
      "lng": 80.52208689999999,
      "open_now": true
    },
    {
      "place_id": "ChIJqUh91UgJSjoR4uEyPRo-304",
      "name": "IndianOil",
      "address": "Door No 131, Lock T1/349/50/1, Near Sangam Dairy, Vadlamudi",
      "lat": 16.2382898,
      "lng": 80.5607762,
      "open_now": true
    },
    {
      "place_id": "ChIJp-o21lELSjoR4qG8EGxWHhA",
      "name": "JIO BP Vejendla",
      "address": "to, Guntur -Tenali Road, Vejendla",
      "lat": 16.2287816,
      "lng": 80.5275411,
      "open_now": true
    },
    {
      "place_id": "ChIJ74HcvmwMSjoR8CklSLSItec",
      "name": "Surendra Filling Station Bharat Petroleum",
      "address": "SH-48, Guntur - Ponnur Road, Chebrolu",
      "lat": 16.2113505,
      "lng": 80.5196869,
      "open_now": true
    },
    {
      "place_id": "ChIJfSoTFzcMSjoRH4z-3uKpHdU",
      "name": "Nayara Petrol Bunk",
      "address": "5GRG+G52, Chebrolu",
      "lat": 16.1912695,
      "lng": 80.525381,
      "open_now": true
    },
    {
      "place_id": "ChIJb5TlOsUJSjoRv3_-mB_Rw9E",
      "name": "NAYARA ENERGY LTD , ESSAR OILS . DURGA OIL FILLING STATION",
      "address": "State Highway 261, Garuvu Palem",
      "lat": 16.2414149,
      "lng": 80.57112,
      "open_now": true
    },
    {
      "place_id": "ChIJE1-499ENSjoR-nUGq_LEKEY",
      "name": "IndianOil",
      "address": "S No 963, 2A 963, 2B Chebrolu, Brahmanakoduru",
      "lat": 16.1760276,
      "lng": 80.5334501,
      "open_now": true
    },
    {
      "place_id": "ChIJd_AP8IsKSjoRdA6jyXflBBQ",
      "name": "Bharath Petroleum",
      "address": "Guntur",
      "lat": 16.3017265,
      "lng": 80.4944759,
      "open_now": true
    },
    {
      "place_id": "ChIJJ2cGDZUKSjoRlnk2niAH5XQ",
      "name": "IndianOil",
      "address": "Survey No 581/1 Takkellapadu, Main Road, Balaramunipet, Guntur",
      "lat": 16.2982115,
      "lng": 80.478659,
      "open_now": true
    },
    {
      "place_id": "ChIJcb3YJeKJNToRKebm89p_JiE",
      "name": "IndianOil",
      "address": "D No 159, Lock No T1/428/9/30/1, Perecherla",
      "lat": 16.315737,
      "lng": 80.349749,
      "open_now": true
    },
    {
      "place_id": "ChIJt8Ddam2KNToR8EE3LhwpU5o",
      "name": "IndianOil",
      "address": "Door No 149, T1/400/1/2, Peda Palakaluru Road, Guntur",
      "lat": 16.3284746,
      "lng": 80.3896582,
      "open_now": true
    },
    {
      "place_id": "ChIJ4fnLpHt1SjoRts2HvHBxe-8",
      "name": "IndianOil",
      "address": "Lock T1/451/2/3, D No 168, Pattabhipuram, Guntur",
      "lat": 16.3089503,
      "lng": 80.4184416,
      "open_now": true
    },
    {
      "place_id": "ChIJqTc-JmN1SjoRyNbKi40SL68",
      "name": "Hindustan Petroleum Corporation Limited",
      "address": "Ground Floor, Brindavan Gardens, Guntur",
      "lat": 16.3153927,
      "lng": 80.4219883,
      "open_now": true
    },
    {
      "place_id": "ChIJKWGEJWN1SjoR87JTTSdjbZ8",
      "name": "IndianOil",
      "address": "Ground Floor, 3rd Lane, Guntur",
      "lat": 16.3135964,
      "lng": 80.42230649999999,
      "open_now": true
    },
    {
      "place_id": "ChIJyRat9aOKNToRPhxnS1UVToM",
      "name": "Bharat Petroleum",
      "address": "156/1, Amaravathi Road, Nagaral, Velangini Nagar, Guntur",
      "lat": 16.3244716,
      "lng": 80.4380481,
      "open_now": true
    },
    {
      "place_id": "ChIJL36FVAB1SjoRktKcig3tX6U",
      "name": "JAYAN ENERGY STATION",
      "address": "8968+2R5, Nallapadu Rural",
      "lat": 16.3097843,
      "lng": 80.36707489999999,
      "open_now": null
    },
    {
      "place_id": "ChIJ7V3XCb2JNToRk-vlrN7uuhM",
      "name": "IndianOil",
      "address": "D No 74, Lock No T1/208/9/10, Perecherla",
      "lat": 16.3149313,
      "lng": 80.35865629999999,
      "open_now": true
    },
    {
      "place_id": "ChIJNQCvTPCJNToRB5tu8POg6MY",
      "name": "Bharat Petroleum భారత్ పెట్రోల్ బంక్",
      "address": "Brr Gardens, Palakaluru Road, China Palakaluru",
      "lat": 16.3282138,
      "lng": 80.3565007,
      "open_now": null
    },
    {
      "place_id": "ChIJzXcX_x2KNToRVne1YzE6OOY",
      "name": "Hindustan Petroleum Corporation Limited",
      "address": "RS No 83/2 & 84/A2, China Palakaluru, Guntur",
      "lat": 16.331365,
      "lng": 80.366032,
      "open_now": true
    },
    {
      "place_id": "ChIJaaMjRBGKNToRaxal_2eRAcA",
      "name": "HP petrol bunk",
      "address": "Palakaluru Road, Guntur",
      "lat": 16.3314405,
      "lng": 80.3658643,
      "open_now": true
    },
    {
      "place_id": "ChIJydAUTH6JNToRCkXWLSrbSOg",
      "name": "Essar Petrol Pump",
      "address": "Hyderabad - Guntur Road",
      "lat": 16.3310313,
      "lng": 80.3330656,
      "open_now": true
    },
    {
      "place_id": "ChIJF846QNOJNToRh3qRNwAYrzY",
      "name": "Bharat Petroleum, Petrol Pump -KARTHIKEYA VENKATESWARA F/S, Perecherla",
      "address": "Perecherla Village Road, Guntur",
      "lat": 16.3317174,
      "lng": 80.3320225,
      "open_now": true
    },
    {
      "place_id": "ChIJEeqV-Xt1SjoRoMv3zzCEaF8",
      "name": "Shell filling station",
      "address": "8C87+823, Stambalagaruvu, Guntur",
      "lat": 16.3161128,
      "lng": 80.4127279,
      "open_now": null
    },
    {
      "place_id": "ChIJ4RnnNYF3SjoRUeZ8M7JS7UE",
      "name": "Bharat Petroleum, Petrol Pump -Snm Fuel Park",
      "address": "DOKIPARRU ON SH50, Guntur",
      "lat": 16.310472,
      "lng": 80.31802499999999,
      "open_now": true
    },
    {
      "place_id": "ChIJBTpm-1R1SjoR9K3sfLGxxeY",
      "name": "IndianOil",
      "address": "Lock T1/451/2/3, D No 168, Pattabhipuram, Guntur",
      "lat": 16.309558,
      "lng": 80.415691,
      "open_now": true
    },
    {
      "place_id": "ChIJRyXWuBp1SjoR0Y4UEiTEa8w",
      "name": "SRI RAMASWAMY FILLING STATION",
      "address": "SRI RAMA SWAMY FILLING STATION, B-9,MAIN ROAD, OLD, Pattabhipuram, Guntur",
      "lat": 16.3087116,
      "lng": 80.41801029999999,
      "open_now": true
    },
    {
      "place_id": "ChIJHRtJltyJNToR5c1zP7Mi15E",
      "name": "HP Petrol Pump",
      "address": "88R9+73P, Guntur",
      "lat": 16.3407063,
      "lng": 80.31771599999999,
      "open_now": null
    },
    {
      "place_id": "ChIJ7XqFhDaJNToRN4pO68jP16k",
      "name": "Hindustan Petroleum Corporation Limited",
      "address": "D No 354/1C SH 2, Visadala Road, Medikonduru",
      "lat": 16.3411428,
      "lng": 80.31658139999999,
      "open_now": true
    },
    {
      "place_id": "ChIJecNMj_CLNToRJYZV8mYVGT8",
      "name": "IndianOil",
      "address": "near RTO Office Road, Survey No 221/6AC1, Adavi Takkellapadu, near RTO Office Road, Peda Palakaluru",
      "lat": 16.3372615,
      "lng": 80.42016430000001,
      "open_now": true
    },
    {
      "place_id": "ChIJHd9NzZOLNToRGsNx_YQO0nU",
      "name": "Sai Filling Station",
      "address": "Inner Ring Road, Phase-2, Guntur",
      "lat": 16.3384473,
      "lng": 80.42473629999999,
      "open_now": true
    },
    {
      "place_id": "ChIJk04_N0x1SjoRiCFgQ52Usbk",
      "name": "Bharat Petroleum, Petrol Pump -Lakshmi Harihar Petroleums",
      "address": "H.H.MAHAL GUNTUR II TOWN, Guntur",
      "lat": 16.3093987,
      "lng": 80.4347373,
      "open_now": true
    },
    {
      "place_id": "ChIJpzBEeQB1SjoRyhTQ1P2qE5I",
      "name": "Hindustan Petroleum Corporation Limited",
      "address": "Survey No 517, Slash 1B, Naidupet, Guntur",
      "lat": 16.3101069,
      "lng": 80.43482639999999,
      "open_now": true
    },
    {
      "place_id": "ChIJ-zAIqGx1SjoRB5z6BHwVBUg",
      "name": "Hindustan Petroleum Corporation Limited",
      "address": "Ground Floor, opposite Water Tank, 4th Lane, Koritepadu, Guntur",
      "lat": 16.3086967,
      "lng": 80.43556,
      "open_now": true
    },
    {
      "place_id": "ChIJeah2J6GKNToRO20ebzJj31c",
      "name": "Hindustan Petroleum Corporation Limited",
      "address": "Ground Floor, Amaravathi Road, Gauthami Nagar, Guntur",
      "lat": 16.3203656,
      "lng": 80.4374074,
      "open_now": true
    },
    {
      "place_id": "ChIJw9VS_KUKSjoRA2HVrHJ_bYk",
      "name": "Hindustan Petroleum Corporation Limited",
      "address": "Ground Floor, Varappadu, Guntur",
      "lat": 16.3127725,
      "lng": 80.46659199999999,
      "open_now": true
    },
    {
      "place_id": "ChIJIezbVl_1NToRm5C1lx4Goqc",
      "name": "Reliance Petroleum",
      "address": "D No 8, near Auto Nagar, 24/61, Mangalagiri Road, Gaddipadu, Autonagar, Agatavarappadu",
      "lat": 16.3192818,
      "lng": 80.47218579999999,
      "open_now": true
    },
    {
      "place_id": "ChIJq7Ely1_1NToRURgbEusetg8",
      "name": "Hindustan Petroleum Corporation Limited",
      "address": "Survey No 131, near Indira Cooperative Society, 1/A/2 Phase 1 & 2, Autonagar Road, Agatha Varappadu, Guntur",
      "lat": 16.3211249,
      "lng": 80.4750919,
      "open_now": true
    },
    {
      "place_id": "ChIJ4zn7mmD1NToRYYa5k6EYpXY",
      "name": "P. S. Rao Fuel Products - Bharat Petroleum",
      "address": "3rd LINE, Autonagar, Agatavarappadu",
      "lat": 16.3228663,
      "lng": 80.4780117,
      "open_now": true
    },
    {
      "place_id": "ChIJWVwMRlyLNToRUjKnT1pkLQc",
      "name": "Hindustan Petroleum Corporation Limited",
      "address": "Survey No 282/2, Inner Ring Road, Reddypalem, Guntur",
      "lat": 16.3284739,
      "lng": 80.4483262,
      "open_now": true
    },
    {
      "place_id": "ChIJAZud7Lb1NToRarxL1UpKZ7Y",
      "name": "Bharat Petroleum - Baba Oil Corporation",
      "address": "Guntur",
      "lat": 16.3266734,
      "lng": 80.4557701,
      "open_now": true
    },
    {
      "place_id": "ChIJEwdRfi-LNToRySkmY9CKH3I",
      "name": "Hindustan Petroleum Corporation Limited",
      "address": "D, No 130/13, Amaravathi Road, Annapurna Nagar, Gorantla, Guntur",
      "lat": 16.3351326,
      "lng": 80.43869,
      "open_now": true
    },
    {
      "place_id": "ChIJLe7SB0P1NToR4xNmbTZhicA",
      "name": "Hindustan Petroleum Corporation Limited",
      "address": "Ground Floor, near Pedakakani, Mahatma Gandhi Inner Ring Road, Agatha Varappadu, Agatavarappadu",
      "lat": 16.3245586,
      "lng": 80.4635018,
      "open_now": true
    },
    {
      "place_id": "ChIJfyLtpX4LSjoR_A9KEexdp8Q",
      "name": "MRS FILLING STATION",
      "address": "National Highway 16 Service Road, Autonagar, Guntur",
      "lat": 16.3175664,
      "lng": 80.4840849,
      "open_now": true
    },
    {
      "place_id": "ChIJJ6DeOvwLSjoR233x1Zy2Tiw",
      "name": "IndianOil",
      "address": "near Autonagar Road, No B 43, National Highway 16, Agatha Varappadu, Pedakakani",
      "lat": 16.3154799,
      "lng": 80.4827153,
      "open_now": true
    },
    {
      "place_id": "ChIJ9ZxydQD1NToREvKa0izpk-Y",
      "name": "Bharat Petrol & Diesel Station",
      "address": "3, Autonagar, Pedakakani",
      "lat": 16.3257436,
      "lng": 80.48237979999999,
      "open_now": true
    },
    {
      "place_id": "ChIJVapG2XH1NToR-GL5SJG8Zrc",
      "name": "Hindustan Petroleum Corporation Limited",
      "address": "Ground Floor, NH 5, Pedakakani",
      "lat": 16.3353601,
      "lng": 80.4885201,
      "open_now": true
    },
    {
      "place_id": "ChIJgw3fEiD1NToRAjcOmEMJPbk",
      "name": "Fuel Point",
      "address": "Food And Cafe, Road, Pedakakani",
      "lat": 16.3198643,
      "lng": 80.47335009999999,
      "open_now": null
    },
    {
      "place_id": "ChIJ108tsl71NToRNAtPHUQZRis",
      "name": "Sesha Sai Bharat Gas Company Godown",
      "address": "8FFC+GQR, Agatavarappadu",
      "lat": 16.3238632,
      "lng": 80.4718934,
      "open_now": true
    },
    {
      "place_id": "ChIJ2zSh-I71NToRDKHioziOlGE",
      "name": "IndianOil",
      "address": "near Chillies Dhaba, Mahatma Gandhi Inner Ring Road, Agatha Varappadu, Agatavarappadu",
      "lat": 16.324086,
      "lng": 80.46745349999999,
      "open_now": true
    },
    {
      "place_id": "ChIJzySX4Uj1NToRGwFgQpmrxRY",
      "name": "Bharat Petroleum, Petrol Pump -Swathi Fuel Station",
      "address": "KOPPURAVURU, Guntur",
      "lat": 16.362501,
      "lng": 80.50098369999999,
      "open_now": true
    },
    {
      "place_id": "ChIJ24O9Qyf1NToRWStgnjM4n48",
      "name": "IndianOil",
      "address": "Back Gate, opp. Ramakrishna Venuzia Road, Road, Kaza",
      "lat": 16.3716543,
      "lng": 80.5355311,
      "open_now": true
    },
    {
      "place_id": "ChIJz5xaMn2LNToRhh0UsA33zR0",
      "name": "Petrol Pump",
      "address": "Amaravathi Road",
      "lat": 16.4077909,
      "lng": 80.4213153,
      "open_now": null
    },
    {
      "place_id": "ChIJM7Q_L16PNToROEc1LO8E3qU",
      "name": "Bharat Petroleum Petrol Pump , ANNAPURNA OIL FILLING STATION",
      "address": "210/ARAVELA, Guntur",
      "lat": 16.416945,
      "lng": 80.355036,
      "open_now": true
    },
    {
      "place_id": "ChIJ55pxJGCLNToRNrX7yBA4r7E",
      "name": "Fuel Station",
      "address": "Survey No 61/3A1A, Sub Station, near Tadikonda, Amaravathi Road, Tadikonda",
      "lat": 16.4044118,
      "lng": 80.42254090000002,
      "open_now": true
    },
    {
      "place_id": "ChIJGRcVN_yLNToRQXGnoTIP0VM",
      "name": "Hindustan Petroleum Corporation Limited",
      "address": "Survey No 123/1, Guntur - Amaravathi Road, Lam",
      "lat": 16.3751235,
      "lng": 80.4323564,
      "open_now": true
    },
    {
      "place_id": "ChIJ8z24DtCLNToRyvam91gO9Y0",
      "name": "IndianOil",
      "address": "Ground Floor, near Lodge Center, Amaravathi Road, Gorantla",
      "lat": 16.3547933,
      "lng": 80.43660919999999,
      "open_now": true
    },
    {
      "place_id": "ChIJ-YOCUuCLNToRbZ7Tyq_dWVQ",
      "name": "Kommineni Filling Station BPCL",
      "address": "opposite Hosanna Mandhir, Amaravathi Road, Gorantla",
      "lat": 16.3499844,
      "lng": 80.4377188,
      "open_now": true
    },
    {
      "place_id": "ChIJJdusLq-MNToRTJ5hZVcMadI",
      "name": "Hindustan Petroleum Corporation Limited",
      "address": "D, 142/3, Tadikonda - Rayapudi Road, Swarajya Nagar, Tadikonda",
      "lat": 16.4162892,
      "lng": 80.44485739999999,
      "open_now": true
    },
    {
      "place_id": "ChIJD12C6q_2NToRrK2fdB-H9XA",
      "name": "IndianOil",
      "address": "Lock No T1/360/1/2/3, D No 135 Chinakakani L, Colony, Mangalagiri, Apsp",
      "lat": 16.4058558,
      "lng": 80.5534971,
      "open_now": true
    },
    {
      "place_id": "ChIJra_Kplv3NToRy0c9S1QH_cI",
      "name": "Hindustan Petroleum Corporation Limited",
      "address": "opposite NRI Hospital, Survey No 236/1A1 GT Road, Mangalagiri, opposite NRI Hospital, Chinnakakani",
      "lat": 16.4143191,
      "lng": 80.5600961,
      "open_now": true
    },
    {
      "place_id": "ChIJgeo0n6bxNToRjXzIKzaN71Q",
      "name": "Bharat Petroleum Corporation Limited - Sree Bharathi Filling Station",
      "address": "opposite Cricket Stadium, Nidamarru Road, Mangalagiru",
      "lat": 16.4314065,
      "lng": 80.5547461,
      "open_now": true
    }
  ]
}