{
  "city": "Vijayawada",
  "state": "Andhra Pradesh",
  "count": 201,
  "center": {
    "lat": 16.5062,
    "lng": 80.648
  },
  "pumps": [
    {
      "place_id": "ChIJW3r9GTjxNToRpIEV38ZLU0Y",
      "name": "Indian Oil - Mangalgiri Indane",
      "address": "masjid street, Mangalagiru",
      "lat": 16.4311049,
      "lng": 80.5671557,
      "open_now": true
    },
    {
      "place_id": "ChIJDw0jhkfxNToRi4MvbG583cI",
      "name": "IndianOil",
      "address": "D No 187, Lock, T2/1/2/3/4, Colony, Mangalagiru",
      "lat": 16.430279,
      "lng": 80.565777,
      "open_now": true
    },
    {
      "place_id": "ChIJ23w8G0jxNToR4JN-BnrYNXg",
      "name": "Hindustan Petroleum Corporation Limited",
      "address": "D No 7/380, Trunk Road, Mangalagiru",
      "lat": 16.428394,
      "lng": 80.56588099999999,
      "open_now": true
    },
    {
      "place_id": "ChIJ1fbSKFHwNToR6cGOPFWXfL0",
      "name": "Hindustan Petroleum Corporation Limited",
      "address": "Ground Floor, beside Vijayawada Retail Regional Office, Mangalagiri Road, Tadepalle, Guntur",
      "lat": 16.4717734,
      "lng": 80.5965717,
      "open_now": true
    },
    {
      "place_id": "ChIJHf8Cn0_3NToRo9Ajq7-rLrc",
      "name": "Hindustan Petroleum Corporation Limited",
      "address": "Ground Floor Mangalagiri, Tenali - Vijayawada, Nutakki",
      "lat": 16.4087921,
      "lng": 80.61914809999999,
      "open_now": true
    },
    {
      "place_id": "ChIJQWD4127wNToRfVcaAyxKg-A",
      "name": "Hindustan Petroleum Corporation Limited",
      "address": "Survey No 95/1, National Highway 16, Tadepalli, Guntur",
      "lat": 16.4800299,
      "lng": 80.6172966,
      "open_now": true
    },
    {
      "place_id": "ChIJqa81bwDxNToRbtBqk4VWFFg",
      "name": "Battalion Petrol bunk",
      "address": "CHQM+72X, Atmakur",
      "lat": 16.4382465,
      "lng": 80.5826129,
      "open_now": null
    },
    {
      "place_id": "ChIJOfSrDBvxNToRc1DHjpXKSH8",
      "name": "IndianOil",
      "address": "D No 1, Lock No, T1/403/4, APSP Colony Road, Mangalagiru",
      "lat": 16.4323947,
      "lng": 80.5826845,
      "open_now": true
    },
    {
      "place_id": "ChIJ-1wHE5HxNToR7ndkcjWL95E",
      "name": "Indian Enterprisse",
      "address": "CHHH+PMV, Mangalagiri Flyover, Atmakur",
      "lat": 16.4293587,
      "lng": 80.5791636,
      "open_now": null
    },
    {
      "place_id": "ChIJ8dzLK-3xNToR3J6m9ZvTi50",
      "name": "Hindustan Petroleum Corporation Limited",
      "address": "22, 26 & 27, Survey No 220/3, Plot No 21, Mangalagiru",
      "lat": 16.4289302,
      "lng": 80.5741271,
      "open_now": true
    },
    {
      "place_id": "ChIJw0SCdjDxNToRdDn2ZD6Hbyk",
      "name": "VKD Vinay H P Filling Station",
      "address": "CHHG+74M, Balaji Nagar",
      "lat": 16.4282013,
      "lng": 80.5752949,
      "open_now": true
    },
    {
      "place_id": "ChIJGfUVESHxNToRlqR0UKRD6lo",
      "name": "Hindustan Petroleum",
      "address": "Tenali Road, Mangalagiru",
      "lat": 16.4271449,
      "lng": 80.577052,
      "open_now": true
    },
    {
      "place_id": "ChIJM4kvHGnxNToRE6hPcSvPccA",
      "name": "Bharat Petroleum, Petrol Pump -Ch.L.Narasimham & Co",
      "address": "Vijayawada - Guntur Highway, Mangalagiru",
      "lat": 16.4240723,
      "lng": 80.57604839999999,
      "open_now": true
    },
    {
      "place_id": "ChIJl--LDZ_xNToRdzCu8JXwLmw",
      "name": "Hindustan Petroleum Corporation Limited",
      "address": "Survey No 372, APSP Cooperative Society, APSP 6th BN Road, Vaddeswaram",
      "lat": 16.446429,
      "lng": 80.594701,
      "open_now": true
    },
    {
      "place_id": "ChIJ6zFZKN_xNToROovevrdJnaU",
      "name": "IndianOil",
      "address": "near Coca Cola Company Bus Stop, 50/C2C, Tenali Mangalagiri Rd Atmakuru, near Coca Cola Company Bus Stop, Pedavadlapudi",
      "lat": 16.4183363,
      "lng": 80.5911704,
      "open_now": true
    },
    {
      "place_id": "ChIJgeo0n6bxNToRjXzIKzaN71Q",
      "name": "Bharat Petroleum Corporation Limited - Sree Bharathi Filling Station",
      "address": "opposite Cricket Stadium, Nidamarru Road, Mangalagiru",
      "lat": 16.4314065,
      "lng": 80.5547461,
      "open_now": true
    },
    {
      "place_id": "ChIJMRzpZFPxNToRCnxmf6OcTSw",
      "name": "IndianOil",
      "address": "Ground Floor, near Sai Baba Temple road, Service Road, APSP Colony, Navuluru",
      "lat": 16.456538,
      "lng": 80.5661057,
      "open_now": true
    },
    {
      "place_id": "ChIJra_Kplv3NToRy0c9S1QH_cI",
      "name": "Hindustan Petroleum Corporation Limited",
      "address": "opposite NRI Hospital, Survey No 236/1A1 GT Road, Mangalagiri, opposite NRI Hospital, Chinnakakani",
      "lat": 16.4143191,
      "lng": 80.5600961,
      "open_now": true
    },
    {
      "place_id": "ChIJ029wE1XwNToRT3ZumU-VZck",
      "name": "Bharat Petroleum Petrol Pump , SAROJA SERVICE STATION",
      "address": "SY.NO 335/1BMANGALAGIRI, Prakasam Barrage Road",
      "lat": 16.465696,
      "lng": 80.590209,
      "open_now": true
    },
    {
      "place_id": "ChIJD12C6q_2NToRrK2fdB-H9XA",
      "name": "IndianOil",
      "address": "Lock No T1/360/1/2/3, D No 135 Chinakakani L, Colony, Mangalagiri, Apsp",
      "lat": 16.4058558,
      "lng": 80.5534971,
      "open_now": true
    },
    {
      "place_id": "ChIJiZfrYI3xNToRSRM4x-w2w6A",
      "name": "IndianOil",
      "address": "Survey No, 307 & 308, Tadepalle, Guntur",
      "lat": 16.471151,
      "lng": 80.5957139,
      "open_now": true
    },
    {
      "place_id": "ChIJmYkYAgDxNToRod-c8H0u-_A",
      "name": "Indian oil petrol bunk",
      "address": "FHCW+F78, Tadepalle, Nulakapeta",
      "lat": 16.4711508,
      "lng": 80.5957172,
      "open_now": null
    },
    {
      "place_id": "ChIJj-GfT-3xNToRwzdTzUiN34o",
      "name": "HP petrol pump, COCO tadepalli",
      "address": "FHCW+MJ8, Tadepalle",
      "lat": 16.4716646,
      "lng": 80.5965701,
      "open_now": true
    },
    {
      "place_id": "ChIJ5ZLdzZvxNToRtBMe7tLSKig",
      "name": "Hindustan Petroleum Corporation Limited",
      "address": "Survey No 168/3, Old GT Road, Polkampadu, Guntur",
      "lat": 16.4830928,
      "lng": 80.598782,
      "open_now": true
    },
    {
      "place_id": "ChIJp5KQyb7xNToRkJkmn600kwU",
      "name": "IndianOil",
      "address": "Door No 139, Lock No T1/372/3/4, Guntur",
      "lat": 16.480157,
      "lng": 80.6181287,
      "open_now": true
    },
    {
      "place_id": "ChIJw1XLTzjwNToR5bbneSD5Z6w",
      "name": "Hindustan Petroleum Corporation Limited",
      "address": "Ground Floor Tadepalli, near Undavalli Centre, Guntur",
      "lat": 16.490316,
      "lng": 80.601402,
      "open_now": true
    },
    {
      "place_id": "ChIJ0YB5ulr3NToREq-_j4eI3zw",
      "name": "IndianOil",
      "address": "Harika jr college, road, Revendrapadu",
      "lat": 16.3952415,
      "lng": 80.6248025,
      "open_now": true
    },
    {
      "place_id": "ChIJF_SjRRnxNToRZE9CdpEiEUE",
      "name": "Akhil",
      "address": "opposite Guntur, 12-643/11, 18 Road, Tadepalle, akhil, Mahanadu",
      "lat": 16.4892999,
      "lng": 80.6128123,
      "open_now": null
    },
    {
      "place_id": "ChIJiYLWl5L5NToRXuddCT_WcWs",
      "name": "ASR Filling Station",
      "address": "CJ6Q+RJ, Nutakki",
      "lat": 16.4121248,
      "lng": 80.6390448,
      "open_now": true
    },
    {
      "place_id": "ChIJB9ERI875NToRYgI7hoSlwow",
      "name": "IndianOil",
      "address": "Ground Floor, Mangalagiri, Nutakki",
      "lat": 16.41238,
      "lng": 80.639703,
      "open_now": true
    },
    {
      "place_id": "ChIJ_YJxfBD7NToRao9r5nBNdwU",
      "name": "Bharat Petroleum",
      "address": "FMMQ+2CP, Vijayawada Road, Kanuru",
      "lat": 16.482591,
      "lng": 80.6885937,
      "open_now": true
    },
    {
      "place_id": "ChIJbY10XNn6NToR9VXjaJ3eVO8",
      "name": "IndianOil",
      "address": "Lock No T1/183/4/5, D No 64, Autonagar, Venkata Ram Nagar, Kanuru, Kanuru",
      "lat": 16.4816979,
      "lng": 80.6930227,
      "open_now": true
    },
    {
      "place_id": "ChIJ-5AuRdn6NToRVtJmvzVxtzw",
      "name": "Arunasri Filling Station Hp Petrol Bunk",
      "address": "Ground Floor, Auto Nagar 100 Feet Road, Auto Nagar, Vijayawada",
      "lat": 16.4981216,
      "lng": 80.67247359999999,
      "open_now": true
    },
    {
      "place_id": "ChIJ_yfY_636NToRhX73p42s9i8",
      "name": "IndianOil",
      "address": "D No 4, VD No 11/7, Lock No T1/9, Near Kalmandapam Moghul, 10/11, A S Rama Rao Road, Rajapuram",
      "lat": 16.507236,
      "lng": 80.643509,
      "open_now": true
    },
    {
      "place_id": "ChIJQ5l_cAD7NToRhV7LDNoH6lA",
      "name": "Krupa Filling Station (B.P Petrol Station)",
      "address": "CMC2+QJ, Nutakki",
      "lat": 16.4219389,
      "lng": 80.6515524,
      "open_now": true
    },
    {
      "place_id": "ChIJ6-ssLm_7NToRpAEnNTYpF84",
      "name": "Bharat Petroleum - Kiranya Enterprises",
      "address": "CMXP+2X, Vijayawada",
      "lat": 16.4475831,
      "lng": 80.6874139,
      "open_now": true
    },
    {
      "place_id": "ChIJ5clBo3X5NToRFvv9RDS55VQ",
      "name": "FINEST OIL FILLING STATION NAYARA PUMP",
      "address": "India",
      "lat": 16.4016966,
      "lng": 80.6787379,
      "open_now": true
    },
    {
      "place_id": "ChIJGzu0p4H7NToRjp90h8XwSZ0",
      "name": "IndianOil",
      "address": "muncipality, Penamaluru, near Ramalingeswara Swamy Temple, Tadigadapa Donka Road, Yanamalakuduru, Pedapulipaka",
      "lat": 16.4833582,
      "lng": 80.6600983,
      "open_now": true
    },
    {
      "place_id": "ChIJ2yP2m1D7NToRNmGZqmVDnKA",
      "name": "Sri Phanindra Oils",
      "address": "9 1, Vijayawada Road, Kamayyathopu, Ashok Nagar, Vijayawada",
      "lat": 16.4852679,
      "lng": 80.68251029999999,
      "open_now": true
    },
    {
      "place_id": "ChIJqaT6awD7NToR0O7DPmflBJs",
      "name": "Bend circle",
      "address": "FMW3+7M8, Benz Circle, Vijayawada",
      "lat": 16.4956621,
      "lng": 80.6542015,
      "open_now": null
    },
    {
      "place_id": "ChIJxRIoEd36NToRPBPeDJYBvrk",
      "name": "Sri Lalithadevi Gas Agencys H P Gas",
      "address": "#56-15-4 Ganapathi, Temple Street, Patamata, Vijayawada",
      "lat": 16.4929241,
      "lng": 80.6677046,
      "open_now": true
    },
    {
      "place_id": "ChIJUezlYff7NToReOJi7KqM94s",
      "name": "Meghagas CNG Station",
      "address": "Ashok Nagar, Kanuru",
      "lat": 16.4845236,
      "lng": 80.6852117,
      "open_now": true
    },
    {
      "place_id": "ChIJh_qXXwD7NToRPM9f0V8O8d4",
      "name": "Yalamnchili NR Filling station",
      "address": "57-3, AH45, Patamatalanka, Benz Circle, Vijayawada",
      "lat": 16.4951904,
      "lng": 80.6611018,
      "open_now": null
    },
    {
      "place_id": "ChIJnaIjNAD7NToRDiJhetJb1gU",
      "name": "Indian Oil Petrol & Diesel Station",
      "address": "57-8-14, Yadavula St, Yadavula Bazar, Patamata, Benz Circle, Vijayawada",
      "lat": 16.4952631,
      "lng": 80.6611175,
      "open_now": null
    },
    {
      "place_id": "ChIJVSLzddv7NToRJeFeOkHNm5c",
      "name": "Jay Ramanjaneya Service Station(Bharat petrol bunk)",
      "address": "near Navata Road Transport, 11-45, Sanath Nagar, Kanuru",
      "lat": 16.4874439,
      "lng": 80.68187979999999,
      "open_now": true
    },
    {
      "place_id": "ChIJWzC2xS77NToRk2oiEHzqTIA",
      "name": "IndianOil",
      "address": "No T1/74/5, Krishna, D No 26, Lock, adjacent Kdloa Kalyana Mandapam, 6, National Highway 16, Sriram Nagar, Vijayawada",
      "lat": 16.496899,
      "lng": 80.652146,
      "open_now": true
    },
    {
      "place_id": "ChIJn_lF67j6NToRwR-yoFCrHKU",
      "name": "IndianOil",
      "address": "No T1/18/19, D No 7, Lock, 20/21/22, Sriram Nagar, Vijayawada",
      "lat": 16.497814,
      "lng": 80.65352600000001,
      "open_now": true
    },
    {
      "place_id": "ChIJuw_LFaH7NToR1bV0VCMpsgY",
      "name": "farmsteel products",
      "address": "FMVF+HF9, Auto Nagar, Vijayawada",
      "lat": 16.4939122,
      "lng": 80.67375,
      "open_now": null
    },
    {
      "place_id": "ChIJ27S9NMD7NToRBOWMYktyICI",
      "name": "Auto nagar gas fitting shed",
      "address": "FMWC+3V5, Auto Nagar, Vijayawada",
      "lat": 16.4951432,
      "lng": 80.67224259999999,
      "open_now": null
    },
    {
      "place_id": "ChIJPW6bTrv7NToRzuaEM0_tnbs",
      "name": "Hindustan Petroleum Corporation Limited",
      "address": "Ground Floor, Panta Kaluva Road, Patamata, Vijayawada",
      "lat": 16.495134,
      "lng": 80.673323,
      "open_now": true
    },
    {
      "place_id": "ChIJBa_e_0P7NToRoGars-xci1k",
      "name": "Supreme Fuels - Indian Oil Flagship Outlet",
      "address": "55-1-15, Jawahar, Auto Nagar 100 Feet Road, Vijayawada",
      "lat": 16.4969133,
      "lng": 80.67139949999999,
      "open_now": true
    },
    {
      "place_id": "ChIJfyac9K_6NToRxbtF9YvUerM",
      "name": "Chennupati Petrol Bunk Bharat Petroleum",
      "address": "Katragadda Pitchaiah Street, Labbipet, Vijayawada",
      "lat": 16.5017747,
      "lng": 80.64240769999999,
      "open_now": true
    },
    {
      "place_id": "ChIJ40ybEvn7NToR4tx5FVO-JOg",
      "name": "IndianOil",
      "address": "D No 1A, Lock, 6 Canal, T1/77/8/9/80/1/2/3/4/5, SPSC Bose Road, Vijayawada",
      "lat": 16.498263,
      "lng": 80.671921,
      "open_now": true
    },
    {
      "place_id": "ChIJD4O6Ld_6NToRu88bMIYbmOw",
      "name": "Hindustan Petroleum Corporation Limited",
      "address": "Ground Floor 1st Cross, 5th Road, Auto Nagar, Vijayawada",
      "lat": 16.497179,
      "lng": 80.67513799999999,
      "open_now": true
    },
    {
      "place_id": "ChIJZ-Y9QLH6NToRLy4z8-kmTcI",
      "name": "Sree Vijaya Lakshmi Oil Traders",
      "address": "55-6-20, 1st Cross Road, 5th Road,, Auto Nagar, Vijayawada",
      "lat": 16.498657,
      "lng": 80.67542999999999,
      "open_now": true
    },
    {
      "place_id": "ChIJ20vYXq77NToR7SZtzAbNUXA",
      "name": "IndianOil",
      "address": "Ground Floor, near Kennedy Highway, Kanuru Main Road, Auto Nagar, Penamaluru",
      "lat": 16.49177,
      "lng": 80.68915299999999,
      "open_now": true
    },
    {
      "place_id": "ChIJP19XSvr7NToRisrpvrDDQ-0",
      "name": "Bharat Petroleum Petrol Pump , CITY POLICE SERVICE STATION",
      "address": "CITY ARMED RESERVE GROUNDSM.G. ROAD, Labbipet",
      "lat": 16.5038666,
      "lng": 80.63630119999999,
      "open_now": true
    },
    {
      "place_id": "ChIJwVxVbQD7NToRHGgZxRvdvjY",
      "name": "Bharat Petrol Bunk",
      "address": "GJ4W+FCH, Siddhartha College Road, Mogalrajapuram, Shanti Nagar, Labbipet, Vijayawada",
      "lat": 16.5061904,
      "lng": 80.64610549999999,
      "open_now": true
    },
    {
      "place_id": "ChIJbaKDLQD7NToR-IXRq-jP-do",
      "name": "Giribala Gjmr filling station",
      "address": "GJ4W+J88, Mogalrajapuram, Christurajupuram, Vijayawada",
      "lat": 16.5065472,
      "lng": 80.6458253,
      "open_now": true
    },
    {
      "place_id": "ChIJi7X38rH6NToR0dv4iVNCs4w",
      "name": "Hindustan Petroleum Corporation Limited",
      "address": "RS No 21/10, D No 32/9/18, Mogalrajapuram, Vijayawada",
      "lat": 16.506801,
      "lng": 80.6450101,
      "open_now": true
    },
    {
      "place_id": "ChIJ5cFkLdj6NToR3YK_5yizoiA",
      "name": "Hindustan Petroleum Corporation Limited",
      "address": "D No 54/9/54A, Plot No 19 & 20, Auto Nagar 100 Feet Road, Auto Nagar, Vijayawada",
      "lat": 16.502191,
      "lng": 80.674431,
      "open_now": true
    },
    {
      "place_id": "ChIJtUhMftf6NToRMFVAGs5V9ng",
      "name": "HP PETROL PUMP - SANKAR FILLING STATION ADHOC",
      "address": "1ST Cross, 5TH Road Jawahar Auto Nagar Vijayawada, Vijayawada",
      "lat": 16.502997,
      "lng": 80.674117,
      "open_now": true
    },
    {
      "place_id": "ChIJu2JG4Fr7NToRjqbXTZeWxFU",
      "name": "Narayana prasad bunk",
      "address": "GM2H+M5G, Auto Nagar, Vijayawada",
      "lat": 16.5016969,
      "lng": 80.6779426,
      "open_now": null
    },
    {
      "place_id": "ChIJL0H92Yf7NToRoI5-u1ZbLmQ",
      "name": "Venkata Rathaiyaa Charcoal",
      "address": "1, Ramapuram Colony, Poranki, Poranki",
      "lat": 16.4740933,
      "lng": 80.71160610000001,
      "open_now": null
    },
    {
      "place_id": "ChIJu5Ykjtb9NToRQ5RWjcgxjfA",
      "name": "Hindustan Petroleum Corporation Limited",
      "address": "Gr Floor, NH 9, Vijayawada - Machilipatnam Road, Kankipadu",
      "lat": 16.4292811,
      "lng": 80.772543,
      "open_now": true
    },
    {
      "place_id": "ChIJk8kti2X8NToRE2CsutEeRRk",
      "name": "IndianOil",
      "address": "Lock No T1/55/6/7/8, D No 19, Penamaluru, Ganguru",
      "lat": 16.459198,
      "lng": 80.736654,
      "open_now": true
    },
    {
      "place_id": "ChIJz2RNZgD9NToRnlFcOydoPN0",
      "name": "Hindustan Petroleum Corporation Limited",
      "address": "Ground Floor, Gosala",
      "lat": 16.444717,
      "lng": 80.753042,
      "open_now": true
    },
    {
      "place_id": "ChIJ2T0Z4Ff7NToRyEpEMaP3w64",
      "name": "Bharat Petroleum, Petrol Pump -Sri Vani Bhavani Filling Station",
      "address": "PORANKI ON MACHILIPATNAM R, KRISHNA",
      "lat": 16.4741513,
      "lng": 80.713189,
      "open_now": true
    },
    {
      "place_id": "ChIJ8yiIJpn_NToRQZYJOYl8ID8",
      "name": "Hindustan Petroleum Corporation Limited",
      "address": "RS No 231, Kankipadu",
      "lat": 16.3975066,
      "lng": 80.7309834,
      "open_now": true
    },
    {
      "place_id": "ChIJia1jWC38NToR4pFaUYZ9a00",
      "name": "Kankipadu Petrol Bunk",
      "address": "National Highway 65, Kankipadu",
      "lat": 16.4368775,
      "lng": 80.7649019,
      "open_now": null
    },
    {
      "place_id": "ChIJp1Nr3FP9NToRO59gVwYqows",
      "name": "Meghagas CNG Station",
      "address": "Vijayawada - Machilipatnam Road, Bank Colony, Kankipadu",
      "lat": 16.4292927,
      "lng": 80.7725537,
      "open_now": true
    },
    {
      "place_id": "ChIJ2Yo7jtb9NToRSu2aGy-vJt0",
      "name": "HP Petrol Pump - Sri Krishna HP Fuels",
      "address": "Hpcl Dealers Machilipatnam TO Vijayawada Road Kankipadu, National Highway 65, Vijayawada",
      "lat": 16.429016,
      "lng": 80.77258069999999,
      "open_now": true
    },
    {
      "place_id": "ChIJLcQVL1f7NToRMxxpJrzHKGM",
      "name": "IndianOil",
      "address": "Ground Floor, Penamalur, Nidmanuru,Poranki, Penamaluru",
      "lat": 16.4923633,
      "lng": 80.7145446,
      "open_now": true
    },
    {
      "place_id": "ChIJX2smjU7uNToR_rtiSWEacLE",
      "name": "IndianOil",
      "address": "D No 17, Lock No, T1/45/6/7/8/9, Gollapudi",
      "lat": 16.53828649999999,
      "lng": 80.5873902,
      "open_now": true
    },
    {
      "place_id": "ChIJPbcPIOrvNToR4VP0TeEo9dc",
      "name": "IndianOil",
      "address": "D No 47, Lock, Bangarayya Shop, T1/138/9/40, Chittinagar, V D Puram, Vijayawada",
      "lat": 16.528708,
      "lng": 80.611116,
      "open_now": true
    },
    {
      "place_id": "ChIJVVB2_gLwNToRUZMvsr4fawI",
      "name": "HP Petrol Bunk",
      "address": "GJ5F+QJR, Opp. Vijaya Krishna Super Bazar, Vijayawada Road, Vijayawada",
      "lat": 16.5094975,
      "lng": 80.6240282,
      "open_now": true
    },
    {
      "place_id": "ChIJuUZCqgPwNToR6n5aU5YOndA",
      "name": "IndianOil",
      "address": "D No 39, Lock T1, 118/9/120, Vijayawada Road, Vijayawada",
      "lat": 16.509089,
      "lng": 80.624397,
      "open_now": true
    },
    {
      "place_id": "ChIJJQoZw3O1NToRHemPzssjBOg",
      "name": "IndianOil",
      "address": "D No 75, Lock T1, Vutukuru, Gampalagudem,Penugolanu, 211/2, Vijayawada",
      "lat": 16.5156787,
      "lng": 80.6251794,
      "open_now": true
    },
    {
      "place_id": "ChIJWfJ3yv3vNToRtih9YKu5xU4",
      "name": "Hindustan Petroleum Corporation Limited",
      "address": "Ground Floor, Sambamurthy Road, Gandhi Nagar, Ongole",
      "lat": 16.51522199999999,
      "lng": 80.62571009999999,
      "open_now": true
    },
    {
      "place_id": "ChIJv5dvd1jlNToRVY9q8x5FtRc",
      "name": "Hindustan Petroleum Corporation Limited",
      "address": "Ground Floor, CK Reddy Road, Ayodhya Nagar, Vijayawada",
      "lat": 16.526525,
      "lng": 80.63285599999999,
      "open_now": true
    },
    {
      "place_id": "ChIJidW1eFPlNToRVHR0OxsXxLA",
      "name": "IndianOil",
      "address": "DN No 79, Door No 30/22/82, Lock No, T1/221/2/3, Eluru Road, Vijayawada",
      "lat": 16.5158697,
      "lng": 80.6386193,
      "open_now": true
    },
    {
      "place_id": "ChIJ-aEjjmDlNToRqH8---M81tY",
      "name": "Hindustan Petroleum Corporation Limited",
      "address": "Survey No 57, Police Quarters Road, Ajit Singh Nagar, Vijayawada",
      "lat": 16.5371391,
      "lng": 80.6361755,
      "open_now": true
    },
    {
      "place_id": "ChIJE6-6tF_lNToRiB3fpJfRjp4",
      "name": "IndianOil",
      "address": "Lock T1/188/9/90, D, 66, Nuzvid Road, Vijayawada",
      "lat": 16.537703,
      "lng": 80.63647499999999,
      "open_now": true
    },
    {
      "place_id": "ChIJFY-UK9DvNToRFFQzHBUvVHk",
      "name": "IndianOil",
      "address": "Krishna, L No T1/6/7/8, D No 3/75/12/81, Bhavanipuram, Vijayawada",
      "lat": 16.522585,
      "lng": 80.596909,
      "open_now": true
    },
    {
      "place_id": "ChIJ-f-DvWjvNToRhJ2zlf7Dcj4",
      "name": "Hindustan Petroleum Corporation Limited",
      "address": "Ground Floor, Bhavanipuram, Vijayawada",
      "lat": 16.5250146,
      "lng": 80.5942652,
      "open_now": true
    },
    {
      "place_id": "ChIJA858kjvvNToRT6FDvC0ZaCM",
      "name": "HP Petrol Bunk",
      "address": "Bank Center, near Swathi Theatre Road, opposite hp petrol bunk, Hyderabad - Vijayawada Highway, Bhavanipuram, V D Puram, Vijayawada",
      "lat": 16.5237963,
      "lng": 80.595986,
      "open_now": null
    },
    {
      "place_id": "ChIJlXla9fbvNToRFDYofk5tcak",
      "name": "Hindustan Petroleum Corporation Limited",
      "address": "Ground Floor, Bhavanipuram, Gollapudi, Vijayawada",
      "lat": 16.524291,
      "lng": 80.595871,
      "open_now": true
    },
    {
      "place_id": "ChIJD_jJkJnvNToRY9KMZP0PZtc",
      "name": "Bhagyanagar Gas Limited CNG Station",
      "address": "1/4/63B, Bhavanipuram, V D Puram, Vijayawada",
      "lat": 16.5237037,
      "lng": 80.59675089999999,
      "open_now": true
    },
    {
      "place_id": "ChIJDfKLuZjvNToR7UlY11JL-kE",
      "name": "Mahesh Filling Station",
      "address": "Kummaripalem, V D Puram, Vijayawada",
      "lat": 16.5180831,
      "lng": 80.6020774,
      "open_now": null
    },
    {
      "place_id": "ChIJ0amQmuHvNToRDLQ5iYOiTxE",
      "name": "Bharat Petroleum, Petrol Pump -Sri RajaRajeswari Petroleums",
      "address": "Bhavanipuram, Vijayawada",
      "lat": 16.5289071,
      "lng": 80.59145889999999,
      "open_now": true
    },
    {
      "place_id": "ChIJO2yl0TzvNToR2mM-34rDlyc",
      "name": "Hindustan Petroleum Corporation Limited",
      "address": "S No 547/2B, Gollapudi, Vijayawada",
      "lat": 16.519872,
      "lng": 80.60170800000002,
      "open_now": true
    },
    {
      "place_id": "ChIJHwJEubTvNToRa3VcrLRH44g",
      "name": "Bharat Petroleum, Petrol Pump -Gsr Vana Durga Filling Station",
      "address": "Vijayawada Bypass Road, Gollapudi",
      "lat": 16.5388427,
      "lng": 80.58929739999999,
      "open_now": true
    },
    {
      "place_id": "ChIJn-37k7TvNToR0O_rWNfdkFQ",
      "name": "HP PETROL PUMP - TIRUMALA FUELS",
      "address": "near Whole Sale Market, Hpcl Dealers Gollapudi Bypass Road, near Whole Sale Market, Gollapudi",
      "lat": 16.538794,
      "lng": 80.590042,
      "open_now": true
    },
    {
      "place_id": "ChIJH-1WdEbvNToRYHH2Kx2RdwA",
      "name": "Hindustan Petroleum Corporation Limited",
      "address": "Ground Floor, near Whole Sale Market, Bypass Road, Gollapudi",
      "lat": 16.539021,
      "lng": 80.5901486,
      "open_now": true
    },
    {
      "place_id": "ChIJ1SP0WADvNToR2t74Ov12rSY",
      "name": "Fuel station",
      "address": "T1-93/4/5, Gollapudi",
      "lat": 16.54189999999999,
      "lng": 80.5815983,
      "open_now": true
    },
    {
      "place_id": "ChIJK9XbIQDvNToRMYJDwXfSpR8",
      "name": "Bpcl",
      "address": "GHQV+JQP, Vijayawada Bypass Road, Jojinagar, Vijayawada",
      "lat": 16.5390979,
      "lng": 80.5944559,
      "open_now": true
    },
    {
      "place_id": "ChIJm4ubjw7vNToRq-zZ4b-gyNU",
      "name": "Bharat Petroleum, Petrol Pump -Seth Motilal Rupchand",
      "address": "1 Town, Kaleswara Rao Market, Tarapet, Vijayawada",
      "lat": 16.51354109999999,
      "lng": 80.6154341,
      "open_now": true
    },
    {
      "place_id": "ChIJVcXs02HvNToR4-JR3vVBa8g",
      "name": "Nayara Petrol Pump - GRBN Filling Station",
      "address": "RTC Depot, near Vidhyadharapuram Main Road, Jojinagar Road, Bhavanipuram, Vijayawada",
      "lat": 16.5366267,
      "lng": 80.60068679999999,
      "open_now": true
    },
    {
      "place_id": "ChIJU7gOKMfvNToReVEZUaCjvfU",
      "name": "IndianOil",
      "address": "Sitara Theatre, Y Cross Road, Gollapudi, Vijayawada",
      "lat": 16.537492,
      "lng": 80.600494,
      "open_now": true
    },
    {
      "place_id": "ChIJ9YTZvbvvNToRMPu9zPkJY9s",
      "name": "AR 402",
      "address": "GJ99+M6Q, Foot Over Bridge, Islampet, Vijayawada",
      "lat": 16.5192025,
      "lng": 80.61811349999999,
      "open_now": true
    },
    {
      "place_id": "ChIJUaUwzw3lNToRmIAt_A9CrW4",
      "name": "Hindustan Petroleum Corporation Limited",
      "address": "RS No 73/4 Plot, 1 & 2, Kundavari, Kandrika, Vijayawada",
      "lat": 16.5103657,
      "lng": 80.6215745,
      "open_now": true
    },
    {
      "place_id": "ChIJsd0NLAzvNToR8kT-BChtXfk",
      "name": "Water service point",
      "address": "near Royal Hotel, #11-64-14,Gulam, near Royal Hotel, Ghouse Mohiddin Street, Kothapet, Vijayawada",
      "lat": 16.5234983,
      "lng": 80.6179523,
      "open_now": null
    },
    {
      "place_id": "ChIJA-QdqwLwNToR2mSba0kMGH0",
      "name": "RATNAM LUBRICANTS",
      "address": "India",
      "lat": 16.5119987,
      "lng": 80.6217009,
      "open_now": true
    },
    {
      "place_id": "ChIJEQlEsALwNToR43S7bCNLOQg",
      "name": "MOHAN OIL COMPANY",
      "address": "GJ6C+GVM, Gopala Reddy Road, Governor Peta, Vijayawada",
      "lat": 16.5113404,
      "lng": 80.6221795,
      "open_now": null
    },
    {
      "place_id": "ChIJ85WV4vDvNToRKZl81bdS5NM",
      "name": "Mahaa Filling Station 1",
      "address": "GJ8C+CX7, Hanumanpet, Vijayawada",
      "lat": 16.5160255,
      "lng": 80.6224233,
      "open_now": null
    },
    {
      "place_id": "ChIJ0RuLFg3tNToRxWD0Ecj333M",
      "name": "Bharat Petroleum, Petrol Pump -Sai Leela Filling Station",
      "address": "Mandadam, Amaravati",
      "lat": 16.5134763,
      "lng": 80.5328633,
      "open_now": true
    },
    {
      "place_id": "ChIJGbzJimTtNToRLnHy37tupUU",
      "name": "Hindustan Petroleum Corporation Limited",
      "address": "Survey No 284/A, Mangalagiri - Rayapudi Road, Mandadam, Guntur",
      "lat": 16.5149115,
      "lng": 80.5320654,
      "open_now": true
    },
    {
      "place_id": "ChIJi2OWg_rxNToRPmFlQkW8qG8",
      "name": "Hindustan Petroleum Corporation Limited",
      "address": "Ground Floor, opposite Super Bazar, Vijayawada Road, Vijayawada",
      "lat": 16.508851,
      "lng": 80.624911,
      "open_now": true
    },
    {
      "place_id": "ChIJw41oRxTvNToRB8z8AgOGTkU",
      "name": "HP Petrol & CNG Bunk",
      "address": "GJ8F+8J8, Andhra Ratna Road, Hanumanpet, Vijayawada",
      "lat": 16.5157787,
      "lng": 80.6240665,
      "open_now": null
    },
    {
      "place_id": "ChIJ15JQS5nzNToRYVreylCmtiA",
      "name": "IndianOil",
      "address": "Tulluru, Sy No 407 & 408, Mandadam, Malkapuram",
      "lat": 16.497641,
      "lng": 80.5316225,
      "open_now": true
    },
    {
      "place_id": "ChIJL0tq6e_vNToRUQlR8yAsnWc",
      "name": "PHILADELPHIA FILLING STATION",
      "address": "Ramarajyanagar, Naga Sai Temple, Ramaraju nagar, kabela center,vijayawada, 520012, RR Nagar, Vijayawada",
      "lat": 16.5445273,
      "lng": 80.6045745,
      "open_now": true
    },
    {
      "place_id": "ChIJI20CAKjvNToRa0lh1ZC7taY",
      "name": "IndianOil",
      "address": "Sitara Convention, Kabela Road, Gollapudi, Vijayawada",
      "lat": 16.5432258,
      "lng": 80.6065758,
      "open_now": true
    },
    {
      "place_id": "ChIJOzrqxEfvNToRsvlFROJg19M",
      "name": "Hindustan Petroleum Corporation Limited",
      "address": "No 411/6, Survey, RR Nagar, Vijayawada",
      "lat": 16.5433677,
      "lng": 80.60641199999999,
      "open_now": true
    },
    {
      "place_id": "ChIJ5esJlJXvNToROCcWyJqLYW8",
      "name": "IndianOil",
      "address": "D No 73, Lock T1, 205/6/7, Gandhi Nagar, Hanumanpet, Vijayawada",
      "lat": 16.515766,
      "lng": 80.625092,
      "open_now": true
    },
    {
      "place_id": "ChIJwTzx7LH7NToRQutzBCVXGHs",
      "name": "IndianOil",
      "address": "D No 37, Lock T1, 112/13/14 Ig 4095/13032, Auto Nagar, Vijayawada",
      "lat": 16.5156831,
      "lng": 80.6251885,
      "open_now": true
    },
    {
      "place_id": "ChIJz0QW-NT6NToRCZdc9a0eAyw",
      "name": "IndianOil",
      "address": "D No 54, Sri Ramachandra Nagar, Lock T1, 154/5/6/7/8/9, Vijayawada",
      "lat": 16.5156831,
      "lng": 80.6251885,
      "open_now": true
    },
    {
      "place_id": "ChIJdSclwb3vNToR8JhMKUwfAcs",
      "name": "Hindustan Petroleum Corporation Limited",
      "address": "S No 5/6, Kabela Centre, Kabela Road, Bhavanipuram, RR Nagar, Vijayawada",
      "lat": 16.5419956,
      "lng": 80.60880809999999,
      "open_now": true
    },
    {
      "place_id": "ChIJp0bJb2XxNToRX2UKMeIyeUE",
      "name": "Bharat Petroleum, Petrol Pump -Sri Ramanjaneya Petrol & Diesel Sta",
      "address": "opp. SUB COLCTR OFFICE, VJA",
      "lat": 16.5068949,
      "lng": 80.6281764,
      "open_now": true
    },
    {
      "place_id": "ChIJ8cq5Ea_vNToRlmwHy5A6B4Q",
      "name": "Bharat Petroleum bunk",
      "address": "Annapurna Devi street, Gandhi Nagar, Vijayawada",
      "lat": 16.5182914,
      "lng": 80.6270042,
      "open_now": true
    },
    {
      "place_id": "ChIJWxhWxorvNToRxjvuJFFGcTI",
      "name": "Hindustan Petroleum Corporation Limited",
      "address": "Ward No 8, Block No 31, NTS 940/1A, Gandhi Nagar",
      "lat": 16.516727,
      "lng": 80.628778,
      "open_now": true
    },
    {
      "place_id": "ChIJOYfo-FTlNToR7uVCRxg8Y9I",
      "name": "SIREESHA Petrol Felling Sation",
      "address": "Adavaladeevi ,5-57, Guntur,Andhara Pradhes 522268 Adavaladeevi, Vijayawada",
      "lat": 16.5169121,
      "lng": 80.6328024,
      "open_now": null
    },
    {
      "place_id": "ChIJ5yj7pdfkNToRauhm6yrBRb8",
      "name": "IndianOil",
      "address": "Door No 8 6/7, Ramavarapadu, Vijayawada",
      "lat": 16.5244224,
      "lng": 80.6798871,
      "open_now": true
    },
    {
      "place_id": "ChIJW8BTosrkNToRlWRIBJIrrj4",
      "name": "Hindustan Petroleum Corporation Limited",
      "address": "Survey No, 177/1, Enikepadu, Vijayawada",
      "lat": 16.5169015,
      "lng": 80.6987518,
      "open_now": true
    },
    {
      "place_id": "ChIJhS4TWqrlNToRsLZj63hhHO0",
      "name": "Hindustan Petroleum Corporation Limited",
      "address": "Ground Floor, Nuziveedu Road, Vijayawada",
      "lat": 16.563241,
      "lng": 80.67387099999999,
      "open_now": true
    },
    {
      "place_id": "ChIJaYzOiEnlNToRZL68iQD6tpU",
      "name": "Bharat Petroleum, Chintapalli Filling Station",
      "address": "ELR ROAD, MARUTI NAGAR, Vijayawada",
      "lat": 16.5171744,
      "lng": 80.6451068,
      "open_now": true
    },
    {
      "place_id": "ChIJc1OR42TlNToR6LkeODsIgZU",
      "name": "Hindustan Petroleum Corporation Limited",
      "address": "Survey No 13, opposite BSNL Bhavan, 2 & 13/3, Eluru Road, Maruthi Nagar, Vijayawada",
      "lat": 16.516844,
      "lng": 80.643551,
      "open_now": true
    },
    {
      "place_id": "ChIJX8FsUFLlNToRkA2tMp6w_UA",
      "name": "IndianOil",
      "address": "Lock No T1/181/2, D No 63 Krishna, Eluru Road, Vijayawada",
      "lat": 16.516668,
      "lng": 80.641562,
      "open_now": true
    },
    {
      "place_id": "ChIJp7BgT5nlNToRg8DKCgBv11U",
      "name": "Keith Electronics vijayawada",
      "address": "30-20/1-22E, Kotilingam Street, Moghalrajpuram, Sitharamapuram, Vijayawada",
      "lat": 16.517034,
      "lng": 80.641677,
      "open_now": null
    },
    {
      "place_id": "ChIJhdjmUgDlNToRCZkkROcC6lY",
      "name": "Indian Oil Petrol and Diesel Pump",
      "address": "MatruSriKrupa building, 1st floor 23-22-1/7, BRTS Rd, beside bus stop, G.S.Raju Road, Vijayawada",
      "lat": 16.5211865,
      "lng": 80.6371134,
      "open_now": null
    },
    {
      "place_id": "ChIJ8Xq_GTjlNToRarElHD-X2tI",
      "name": "Hindustan Petroleum Corporation Limited",
      "address": "Survey No 118/5, Sivalayam Road, Satyanarayanapuram, Vijayawada",
      "lat": 16.522349,
      "lng": 80.63479799999999,
      "open_now": true
    },
    {
      "place_id": "ChIJ53xx8eXlNToRxA8JJtofVd8",
      "name": "IndianOil",
      "address": "D No 109, Lock T1, 297/8/9, Eluru Road, Padavalarevu",
      "lat": 16.524395,
      "lng": 80.658587,
      "open_now": true
    },
    {
      "place_id": "ChIJYYnI2yzlNToRoRcbY3Eoro8",
      "name": "Sri Balaji Fuel Point",
      "address": "Ring Road, NTR Colony, Kanuru",
      "lat": 16.515102,
      "lng": 80.66952289999999,
      "open_now": true
    },
    {
      "place_id": "ChIJPeY7xSzlNToRDZ5E12pvlik",
      "name": "Indian Oil",
      "address": "GM89+3RC, ESI Road, Veterinary Colony, Kanuru",
      "lat": 16.515177,
      "lng": 80.669512,
      "open_now": null
    },
    {
      "place_id": "ChIJn225Q0TlNToRbDnOtdCsYOY",
      "name": "HP PETROL PUMP - GJMR FILLING STATION",
      "address": "Door NO 21-9-15 Main Road, Madhura Nagar Vijayawada, Vijayawada",
      "lat": 16.5291792,
      "lng": 80.64745920000001,
      "open_now": null
    },
    {
      "place_id": "ChIJ2x9yQQD7NToRp_8yJ3w6_7s",
      "name": "bpcl petrol bunk",
      "address": "GM7C+3R7, Mahanadu Road, Sri Ramachandra Nagar, Kanuru",
      "lat": 16.5126704,
      "lng": 80.6720485,
      "open_now": null
    },
    {
      "place_id": "ChIJeyadd1jlNToR9uqSJ9bYHCk",
      "name": "SURYA FILLING STATION",
      "address": "Lotus Landmark, Ayodhya Nagar, Vijayawada",
      "lat": 16.5263125,
      "lng": 80.6330625,
      "open_now": true
    },
    {
      "place_id": "ChIJvx7gAK78NToRVpEELWxir8s",
      "name": "IndianOil - SWAGAT",
      "address": "D No 18, Lock No T1/50/1/2/3/4, Gudavalli Nidamanuru",
      "lat": 16.5111103,
      "lng": 80.73220169999999,
      "open_now": true
    },
    {
      "place_id": "ChIJq2FP7bH8NToRBEcd0v3dE3k",
      "name": "Hindustan Petroleum Corporation Limited",
      "address": "Ground Floor, NH 7, Nidamanuru, Vijayawada",
      "lat": 16.510361,
      "lng": 80.740783,
      "open_now": true
    },
    {
      "place_id": "ChIJm4noo678NToROJqsfbjVE6Y",
      "name": "Bharat Petroleum, Petrol Pump -Sri Ramanjaneya Petrol & Diesel Sta",
      "address": "NH 5 NIDAMANUR VIJAYAWADA, KRISHNA",
      "lat": 16.5107981,
      "lng": 80.728167,
      "open_now": true
    },
    {
      "place_id": "ChIJ96EXYEL7NToRZZo2q0a5ojQ",
      "name": "H&H Petroleum Filling Station(BHARAT PETROL BUNK)",
      "address": "9, Kakani Venkata Ratnam Road, Enikepadu, Prasadampadu",
      "lat": 16.5079987,
      "lng": 80.70596019999999,
      "open_now": true
    },
    {
      "place_id": "ChIJQYZFjs37NToRzxvdTPjU30g",
      "name": "Hindustan Petroleum Corporation Limited",
      "address": "No 218/1E, Survey, 100 Feet Road, Enikepadu, Prasadampadu",
      "lat": 16.5106732,
      "lng": 80.70666899999999,
      "open_now": true
    },
    {
      "place_id": "ChIJzbn9OAD9NToRb7i0BhYexTQ",
      "name": "Cng after ganna varam air port",
      "address": "GP6R+983, NH 44, Nidamanuru, Vijayawada",
      "lat": 16.5107964,
      "lng": 80.7406589,
      "open_now": null
    },
    {
      "place_id": "ChIJ8VUJWgD7NToRlA9vRzMC_PA",
      "name": "Kanuru Energy Station",
      "address": "GM4V+79M, Major District Road 164, Enikepadu, Kanuru",
      "lat": 16.5057751,
      "lng": 80.6942572,
      "open_now": null
    },
    {
      "place_id": "ChIJ9-J2VwDlNToR1_cfC6CZ72U",
      "name": "Bharat Petroleum- Himagiri Filling Station",
      "address": "5-15/2, near ford showroom, BMPS Road, Prasadampadu, currency nagar, Ramavarappadu",
      "lat": 16.521444,
      "lng": 80.6914181,
      "open_now": true
    },
    {
      "place_id": "ChIJH0rtSCjlNToRJ4NujGf6vlU",
      "name": "Hindustan Petroleum Corporation Limited",
      "address": "No 82/4, RS, Prasadampadu, Vijayawada",
      "lat": 16.5171287,
      "lng": 80.6836898,
      "open_now": true
    },
    {
      "place_id": "ChIJB0eLfADlNToRmDsNYR6ck10",
      "name": "Cng pump",
      "address": "near Petrol Pump, 3-45,Balem Vari Vidhi, near Petrol Pump, Main Street, Prasadampadu, currency nagar, Ramavarappadu",
      "lat": 16.5169487,
      "lng": 80.6835646,
      "open_now": null
    },
    {
      "place_id": "ChIJGYrXPGLlNToRapugIf5YmDo",
      "name": "IndianOil",
      "address": "Autonagar Road, Ballem Vari Street, Prasadampadu, Kanuru",
      "lat": 16.512161,
      "lng": 80.6816034,
      "open_now": true
    },
    {
      "place_id": "ChIJE3VyM53jNToRh342T6nWKIA",
      "name": "IndianOil",
      "address": "SY No, 718 Gannavaram, Vedurupavuluru",
      "lat": 16.5414021,
      "lng": 80.73082959999999,
      "open_now": true
    },
    {
      "place_id": "ChIJY6fX60v7NToRxIA43EkKMdI",
      "name": "Castrol authorised distributor ( Sri kanaka durga distributors)",
      "address": "# Plot no. 82, Block no - 22, Near Appolo Tyre Goodown, 3rd Road, 5th Cross Road, Auto Nagar, Kanuru",
      "lat": 16.5060155,
      "lng": 80.6775006,
      "open_now": true
    },
    {
      "place_id": "ChIJZT3u3-v7NToR1LH6FRx-L-c",
      "name": "Bharat Petroleum, Petrol Pump -Tc I India Ltd",
      "address": "AUTO NAGAR VIJAYAWADA, KRISHNA",
      "lat": 16.5084629,
      "lng": 80.6774303,
      "open_now": true
    },
    {
      "place_id": "ChIJkXYHfKH7NToRNYIE4KO3WZ4",
      "name": "IndianOil",
      "address": "Auto Nagar, Kanuru",
      "lat": 16.5065659,
      "lng": 80.67657679999999,
      "open_now": true
    },
    {
      "place_id": "ChIJW8_AUsD7NToRnU_4TBPYgNE",
      "name": "Turbotic Lubricants",
      "address": "GM5G+WCP, Auto Nagar, Kanuru",
      "lat": 16.5098453,
      "lng": 80.6760927,
      "open_now": true
    },
    {
      "place_id": "ChIJO0xyLQDlNToRVMpB-XZccLM",
      "name": "Iocl petrol pump and megha cng gas station",
      "address": "GMGG+786, Inner Ring Road, Gunadala, Kanuru",
      "lat": 16.5256635,
      "lng": 80.6757793,
      "open_now": null
    },
    {
      "place_id": "ChIJO75FXwDjNToRjQag0uOBE_Q",
      "name": "Hindustan petroleum",
      "address": "HP3G+69M, Vedhurupavaluru Road, Mustabada",
      "lat": 16.553085,
      "lng": 80.7259244,
      "open_now": true
    },
    {
      "place_id": "ChIJA0ChWADlNToRfqStvEa8444",
      "name": "Near SLV meadows Irr gunadala near ramavarapadu ring Vijayawada city ntr district ap",
      "address": "GMMH+Q28, Near SLV meadows, near ramavarapadu, Inner Ring Road, ring, Gunadala, Vijayawada",
      "lat": 16.5344006,
      "lng": 80.67758789999999,
      "open_now": null
    },
    {
      "place_id": "ChIJ0T7cTQDlNToRAwalUO-9OLc",
      "name": "Gunadala Vijayawada",
      "address": "GMMH+Q28, Near SLV meadows, near ramavarapadu, Inner Ring Road, ring, Gunadala, Vijayawada",
      "lat": 16.5344006,
      "lng": 80.67758789999999,
      "open_now": null
    },
    {
      "place_id": "ChIJI11ciVP9NToRikwG-eCE0Vo",
      "name": "Hindustan Petroleum Corporation Limited",
      "address": "Krishna, RS No 8/1A, Gannavaram Kankipadu Road Uppuluru, Kankipadu",
      "lat": 16.4990415,
      "lng": 80.776465,
      "open_now": true
    },
    {
      "place_id": "ChIJAYtgvBvlNToR9c-I7CFniRY",
      "name": "SAI KRISHNA FUEL FILLING STATION",
      "address": "Inner Ring Road, Nunna Road, Vijayawada",
      "lat": 16.5457053,
      "lng": 80.6693923,
      "open_now": true
    },
    {
      "place_id": "ChIJT0T0WfjkNToRY4TurRHW1eY",
      "name": "IndianOil",
      "address": "Ground Floor, Nunna Bypass Road, Vijayawada",
      "lat": 16.5596744,
      "lng": 80.6857927,
      "open_now": true
    },
    {
      "place_id": "ChIJEzHwJADlNToRNCY-kzstb_0",
      "name": "Hindustan Petroleum Corporation Limited",
      "address": "Ground Floor, Inner Ring Road, Gunadala",
      "lat": 16.545542,
      "lng": 80.667234,
      "open_now": true
    },
    {
      "place_id": "ChIJbfvqZ8ziNToRdCv65gaTpFU",
      "name": "IndianOil",
      "address": "Bacon Factory, S No 228/6, Kesarapalli",
      "lat": 16.5228173,
      "lng": 80.7810628,
      "open_now": true
    },
    {
      "place_id": "ChIJn9-PIRbsNToRLPZo-f4GgkI",
      "name": "Hindustan Petroleum Corporation Limited",
      "address": "Survey No 305/3B & 305/3A, NH 65, Vijayawada - Mylavaram Road",
      "lat": 16.5794114,
      "lng": 80.52832280000001,
      "open_now": true
    },
    {
      "place_id": "ChIJLXnULhTsNToRhCGEnbGMi6Y",
      "name": "IndianOil",
      "address": "Lock T1/103/4/5, D No 34 Vijayawada, Ibrahimpatnam, Chilukuru",
      "lat": 16.5812876,
      "lng": 80.5264356,
      "open_now": true
    },
    {
      "place_id": "ChIJMYn70AzsNToRhd_Z9t0OzoU",
      "name": "Hindustan Petroleum Corporation Limited",
      "address": "Ground Floor, Exchange Mylavaram Road, VTPS Colony, Ibrahimpatnam",
      "lat": 16.592851,
      "lng": 80.522171,
      "open_now": true
    },
    {
      "place_id": "ChIJsUer53fsNToRp9eNT6dUM9M",
      "name": "Bharath Petroleum Bunk BP IBM",
      "address": "Kotikalapudi - Modepalli Road, West Ibrahimpatnam, Vijayawada",
      "lat": 16.6000738,
      "lng": 80.5117465,
      "open_now": true
    },
    {
      "place_id": "ChIJZWNsmkTvNToRCmsf9jQfu0A",
      "name": "NAYARA",
      "address": "India",
      "lat": 16.5885797,
      "lng": 80.6197576,
      "open_now": null
    },
    {
      "place_id": "ChIJRbJmLvvvNToRiibLs2k26bw",
      "name": "BPCL Petrol Bunk [Maruti Filling Station]",
      "address": "HJ38+5X5, State Highway 32, Jakkampudi",
      "lat": 16.5528901,
      "lng": 80.61748419999999,
      "open_now": null
    },
    {
      "place_id": "ChIJi31zWjntNToRMcuvs7mmizM",
      "name": "Hindustan Petroleum Corporation Limited",
      "address": "Ground Floor, Main Road, Paritala, Vijayawada",
      "lat": 16.57897999999999,
      "lng": 80.52870999999999,
      "open_now": true
    },
    {
      "place_id": "ChIJUYtuBhnvNToRnTai7yIa5F4",
      "name": "S.V.K FUEL & RETAIL STORE (HPCL PUMP)",
      "address": "4-4-1/3A/1, DBR Bailding Jakkampudi, Vijayawada",
      "lat": 16.5532708,
      "lng": 80.6236543,
      "open_now": true
    },
    {
      "place_id": "ChIJibbQXJTvNToRooqNRmfy0TI",
      "name": "Hindustan Petroleum Corporation Limited",
      "address": "No 33/6, 100 Feet Road",
      "lat": 16.5533065,
      "lng": 80.62371089999999,
      "open_now": true
    },
    {
      "place_id": "ChIJy2wEbADtNToRDRe5HdXFwS4",
      "name": "CNG filling station",
      "address": "T1-103/4/5-34, Vijayawada",
      "lat": 16.5814032,
      "lng": 80.52656569999999,
      "open_now": null
    },
    {
      "place_id": "ChIJfe8rRiztNToRAMBqDLJCoSk",
      "name": "petrol pump ibrahimpatanam",
      "address": "Ibrahimpatnam",
      "lat": 16.5837327,
      "lng": 80.5255268,
      "open_now": true
    },
    {
      "place_id": "ChIJVUg4ihPsNToREU82YeDn8I8",
      "name": "Indian Oil",
      "address": "India",
      "lat": 16.583756,
      "lng": 80.5255186,
      "open_now": null
    },
    {
      "place_id": "ChIJaXlmhHfvNToRrGcKS1hbYzw",
      "name": "IndianOil",
      "address": "YV Rao Estate, Pipula Road, Road, Ambapuram",
      "lat": 16.5526481,
      "lng": 80.62533189999999,
      "open_now": true
    },
    {
      "place_id": "ChIJY9zW3b3vNToRohbUAeyAc8A",
      "name": "IndianOil",
      "address": "Survey No 2/1, YV Rao Estate Krishna, Pipula Road, Vijayawada",
      "lat": 16.5507921,
      "lng": 80.6299009,
      "open_now": true
    },
    {
      "place_id": "ChIJbxDUcOHrNToRqJQkN2H7DHI",
      "name": "Kondapalli Automobiles, IOC Petrol Pump",
      "address": "Door # 5, Arya Vysya Kalyana, Mandapal Road, Kondapalli, Ibrahimpatnam",
      "lat": 16.620232,
      "lng": 80.540675,
      "open_now": true
    },
    {
      "place_id": "ChIJq2yZrljtNToRiSFouztM_Ek",
      "name": "Bharat Petroleum, Petrol Pump -Bp-Ibrahimpatnam",
      "address": "IBRAHIMPATNAM, OSTS",
      "lat": 16.5891465,
      "lng": 80.520091,
      "open_now": true
    },
    {
      "place_id": "ChIJf1hn98TvNToRkfsg3y7ZmpM",
      "name": "Hindustan Petroleum Corporation Limited",
      "address": "RS No 2, 1 Portion, Old, New, Vijayawada Nuzvidu Road, Vijayawada",
      "lat": 16.5504187,
      "lng": 80.6314601,
      "open_now": true
    },
    {
      "place_id": "ChIJp3EOhQvpNToRGRXaBBzS58w",
      "name": "Vishnu Engineers works at Dr.nttps",
      "address": "JHMG+JPM, Unnamed Road, Kotha Kavuluru",
      "lat": 16.634082,
      "lng": 80.57679999999999,
      "open_now": null
    },
    {
      "place_id": "ChIJPUtKdQDtNToRS04VjYZ-cvM",
      "name": "IOCL Fuel station - Axis Energies",
      "address": "Ibrahimpatnam",
      "lat": 16.5905794,
      "lng": 80.5184719,
      "open_now": true
    },
    {
      "place_id": "ChIJXVeAQNt1SjoR1YDIX_Njjqw",
      "name": "Maaya Autobahn",
      "address": "HGR9+69Q, Ibrahimpatnam",
      "lat": 16.5905625,
      "lng": 80.51843749999999,
      "open_now": true
    },
    {
      "place_id": "ChIJLwK1AQDtNToRY8mOO6K7AoY",
      "name": "Indian Oil Petrol pump",
      "address": "HGR9+833, Hyderabad to, near Mecdonals, national highway, Vijayawada",
      "lat": 16.5907623,
      "lng": 80.51768489999999,
      "open_now": null
    },
    {
      "place_id": "ChIJBWSBUcDpNToR0mb0gw7OwNA",
      "name": "BPCL Filling Station and ev",
      "address": "JHJ3+PCQ, Vijayawada",
      "lat": 16.6318351,
      "lng": 80.5536212,
      "open_now": null
    },
    {
      "place_id": "ChIJy9nXJWDpNToRiA9mGg-NmaM",
      "name": "Hindustan Petroleum Corporation Limited",
      "address": "S No, 3800/3A, Ibrahimpatnam, Kondapalli",
      "lat": 16.6273583,
      "lng": 80.5441937,
      "open_now": true
    },
    {
      "place_id": "ChIJU3iBbwDpNToRYQicUX-Xo5k",
      "name": "Bharath petrol bunk",
      "address": "JJG9+V5M, Vijayawada",
      "lat": 16.6279188,
      "lng": 80.6170109,
      "open_now": true
    },
    {
      "place_id": "ChIJETbSgmPlNToR7zh47mbv9Wg",
      "name": "Hindustan Petroleum Corporation Limited",
      "address": "S No 385/386, PNT Colony, Vijayawada",
      "lat": 16.5443019,
      "lng": 80.6382197,
      "open_now": true
    },
    {
      "place_id": "ChIJOaOLSrHlNToR6SYOjYGwH4U",
      "name": "Gas Godown",
      "address": "GJWR+R7P, PNT Colony, Vijayawada",
      "lat": 16.5470987,
      "lng": 80.6407029,
      "open_now": null
    },
    {
      "place_id": "ChIJJcQT8u_pNToRPA5gbHYuBx8",
      "name": "RCM Store",
      "address": "2 ed sreet, Ida, Vijayawada - Mylavaram Road, Baharampur",
      "lat": 16.6413815,
      "lng": 80.5576902,
      "open_now": null
    },
    {
      "place_id": "ChIJ7cffONvrNToRnK5ynKy-cN8",
      "name": "CNG",
      "address": "JG26+5HW, Kotikalapudi - Modepalli Road, West Ibrahimpatnam",
      "lat": 16.6006178,
      "lng": 80.5115974,
      "open_now": null
    },
    {
      "place_id": "ChIJFyqvPnHpNToRAgtKoAeKA74",
      "name": "Bharat Petroleum",
      "address": "India",
      "lat": 16.64235469999999,
      "lng": 80.558798,
      "open_now": null
    },
    {
      "place_id": "ChIJH8OOXLDlNToRUW4hqHIWXg4",
      "name": "Bharat Petroleum, Petrol Pump -Sree Sai Filling Station",
      "address": "Payakapuram, Payikapuram",
      "lat": 16.547901,
      "lng": 80.6518847,
      "open_now": false
    },
    {
      "place_id": "ChIJvZP9vKrlNToRqar--wOzaEM",
      "name": "Honey service station Indian oil",
      "address": "near Powergrid, Gunadala Road, Vijayawada",
      "lat": 16.5620951,
      "lng": 80.6760821,
      "open_now": true
    },
    {
      "place_id": "ChIJOTJAAQDlNToRGRDKy58PMgM",
      "name": "Srinu gadi adda",
      "address": "JM3P+659, Vikas College Road",
      "lat": 16.6030442,
      "lng": 80.6854754,
      "open_now": null
    },
    {
      "place_id": "ChIJW2eAqRbkNToR4AZt2A4fICY",
      "name": "NAYARA",
      "address": "India",
      "lat": 16.5918993,
      "lng": 80.7044566,
      "open_now": true
    },
    {
      "place_id": "ChIJB-r0PQHkNToRN69VwXHvEwg",
      "name": "IndianOil",
      "address": "SY No 389/6, Lock No T1/59, 60, DN 20, Surampalli",
      "lat": 16.6052701,
      "lng": 80.71769789999999,
      "open_now": true
    },
    {
      "place_id": "ChIJXT7cWQDjNToRBWAzjSUP4GI",
      "name": "Hindustan Petroleum Corporation Limited",
      "address": "Ground Floor, Western Bypass, Vedurupavuluru",
      "lat": 16.574099,
      "lng": 80.734445,
      "open_now": true
    },
    {
      "place_id": "ChIJX48IPADjNToRZNHOTWyZ8dk",
      "name": "Megha CNG Gas",
      "address": "HPFP+XF, Vedurupavuluru",
      "lat": 16.5749144,
      "lng": 80.73623479999999,
      "open_now": null
    },
    {
      "place_id": "ChIJ70EYMQTkNToRZns-LtonLs0",
      "name": "Bharat Petroleum",
      "address": "India",
      "lat": 16.6014567,
      "lng": 80.7149503,
      "open_now": null
    },
    {
      "place_id": "ChIJq_9dfS7hNToRQVrpjigaomw",
      "name": "Nri F/s Petrol Bunk",
      "address": "Adavinekkalam",
      "lat": 16.6261016,
      "lng": 80.7219427,
      "open_now": true
    },
    {
      "place_id": "ChIJI6Ml1SnjNToReUJOf3KoNEI",
      "name": "SV ENERGY PARK",
      "address": "11-2A-4, Sy.No.11, 2A-3, Vijayawada West Bypass Road, GANNAVARAM, Purushottapatnam",
      "lat": 16.5709441,
      "lng": 80.77977600000001,
      "open_now": null
    },
    {
      "place_id": "ChIJ-0lvwIniNToR208D2THZomY",
      "name": "Hindustan Petroleum Corporation Limited",
      "address": "Ground Floor, Agiripalli Road, Gannavaram",
      "lat": 16.5659375,
      "lng": 80.7919014,
      "open_now": true
    }
  ]
}