{
  "from": "Agra",
  "to": "Mumbai",
  "count": 841,
  "pumps": [
    {
      "place_id": "ChIJv_ax4uR2dDkR0NxOQ4fheJI",
      "name": "Modern Service Station",
      "lat": 27.1630784,
      "lng": 77.987471,
      "address": "5X7P+6XQ, Saraikhwaja, Arjun Nagar, Agra",
      "open_now": true
    },
    {
      "place_id": "ChIJq9NwfdB2dDkRebD8KcNEjS0",
      "name": "IndianOil",
      "lat": 27.1647817,
      "lng": 78.0088576,
      "address": "Mahatma Gandhi Road, Awantibai Crossing, Agra",
      "open_now": true
    },
    {
      "place_id": "ChIJiRO3k9d2dDkR6RZA5DG1xeQ",
      "name": "Bharat Petroleum",
      "lat": 27.17179639999999,
      "lng": 78.0092232,
      "address": "46, Mahatma Gandhi Road, Pratap Pura, Rakabganj, Agra",
      "open_now": true
    },
    {
      "place_id": "ChIJQYtortB2dDkRMFJ7M85NgL4",
      "name": "Hindustan Petroleum Corporation Limited",
      "lat": 27.168364,
      "lng": 78.00919200000001,
      "address": "Ground Floor, opposite Lauries Hotel, Mahatma Gandhi Road, Pratap Pura, Agra",
      "open_now": true
    },
    {
      "place_id": "ChIJgawtiEB3dDkRICJ0AnwqjTA",
      "name": "Bharat Petrol Pump",
      "lat": 27.1968255,
      "lng": 77.99959299999999,
      "address": "Delhi Gate, Professors Colony, Civil Lines, Agra",
      "open_now": true
    },
    {
      "place_id": "ChIJ2eqnj3hxdDkRGx0Jhia_vLc",
      "name": "Bharat Petroleum, Petrol Pump -Jainab Filling Station",
      "lat": 27.1983262,
      "lng": 78.0255213,
      "address": "Jeoni Mandi Post Office Street, Civil Lines, Agra",
      "open_now": true
    },
    {
      "place_id": "ChIJa9zcqz1xdDkRP9EPXLU5OI4",
      "name": "IndianOil",
      "lat": 27.161686,
      "lng": 78.039811,
      "address": "Ground Floor, beside Taj View Hotel, Fatehabad Road, Agra",
      "open_now": true
    },
    {
      "place_id": "ChIJN3hpNaZ3dDkRng88__lYGN4",
      "name": "Nayara Oil Shri Bankey Bihari Filling Station",
      "lat": 27.1831602,
      "lng": 77.9710243,
      "address": "5XMC+7C6, Maruti Estate Road, Manas Nagar, Badla Ki Sarai, Shahganj, Agra",
      "open_now": true
    },
    {
      "place_id": "ChIJS8Wr_6B3dDkRhTDSMxavN24",
      "name": "IndianOil",
      "lat": 27.1904183,
      "lng": 77.97117399999999,
      "address": "Bodla Road, Sulahkul Nagar, Lohamandi, Agra",
      "open_now": true
    },
    {
      "place_id": "ChIJP4EcRb5wdDkRFkeZaIUUMLg",
      "name": "IndianOil",
      "lat": 27.2029048,
      "lng": 78.0410157,
      "address": "Ground Floor, Rambagh Crossing, Agra",
      "open_now": true
    },
    {
      "place_id": "ChIJeUS8xnl3dDkRj8bOeNJLptk",
      "name": "CNG Filling Station",
      "lat": 27.2064772,
      "lng": 77.97782149999999,
      "address": "6X4H+H4W, Transport Colony, Agra",
      "open_now": true
    },
    {
      "place_id": "ChIJBWD9fEFxdDkRHNIxVLt6cek",
      "name": "IndianOil",
      "lat": 27.147229,
      "lng": 78.0386697,
      "address": "Rajpur, Chungi, Agra Shamshabad Raja Kherah Marg, Agra",
      "open_now": true
    },
    {
      "place_id": "ChIJ5WBQDjOEczkRGCCJtiTIGGU",
      "name": "Pratap Filling Station Bharat Petroleum",
      "lat": 27.2098228,
      "lng": 77.980892,
      "address": "Keetham, Agra, NH-19, Delhi, Road, Kitham",
      "open_now": true
    },
    {
      "place_id": "ChIJE5EWDL13dDkR7uSu3ETN3hs",
      "name": "Bharat Petroleum",
      "lat": 27.1906539,
      "lng": 77.9600432,
      "address": "5XR6+727, Sikandra-Bodla Road, Sector 1, Bodla, Lohamandi, Agra",
      "open_now": true
    },
    {
      "place_id": "ChIJ83o_EgB3dDkRu1hX3Klb5aE",
      "name": "Mahalxmi petrol pump",
      "lat": 27.1766701,
      "lng": 78.00807449999999,
      "address": "52G5+M68, Bikaner - Agra Road, dayarampura",
      "open_now": null
    },
    {
      "place_id": "ChIJQ406agB3dDkRjbEcY0n6YhU",
      "name": "BPCL- GAYATRI FILLING STATION",
      "lat": 27.1766701,
      "lng": 78.00807449999999,
      "address": "NH 19, agra delhi road, ajijpur kosikalan, mathura",
      "open_now": null
    },
    {
      "place_id": "ChIJKRJ5NgB3dDkRsK8bBhT0jhY",
      "name": "Mahi trader's",
      "lat": 27.175984,
      "lng": 78.01169,
      "address": "Bramon chipitola, muradnagor, cumilla, ramchandrapur",
      "open_now": null
    },
    {
      "place_id": "ChIJR4zAHd13dDkRSQF0HCh5ZSM",
      "name": "Vinod Filling Station",
      "lat": 27.17318969999999,
      "lng": 78.0070321,
      "address": "52F4+7RF, Agra",
      "open_now": null
    },
    {
      "place_id": "ChIJvdrL0SR3dDkR347tOgTMrug",
      "name": "Farid General Store",
      "lat": 27.1842631,
      "lng": 78.0046292,
      "address": "Nai ki Mandi, Mantola, Agra",
      "open_now": null
    },
    {
      "place_id": "ChIJ3eyns9B2dDkRgNXbT7JNyrI",
      "name": "Hindustan Petroleum Corporation Limited",
      "lat": 27.1670347,
      "lng": 78.00856139999999,
      "address": "Property No 33, 99, Mahatma Gandhi Road, Pratap Pura, Rakabganj, Agra",
      "open_now": true
    },
    {
      "place_id": "ChIJ42NzR9QKdDkR921ZOKa0xH4",
      "name": "IndianOil",
      "lat": 27.026825,
      "lng": 77.970261,
      "address": "Ground Floor Gwalior Road, NH 3, Bamrauli Katara",
      "open_now": true
    },
    {
      "place_id": "ChIJwyE8WVl0dDkRrfKUiin_PVY",
      "name": "Bharat Petrol Pump and CNG",
      "lat": 27.0823412,
      "lng": 77.9890921,
      "address": "Agra",
      "open_now": true
    },
    {
      "place_id": "ChIJ5a4zt9d0dDkRCr6BaPKcHNw",
      "name": "Jio-bp",
      "lat": 27.0409101,
      "lng": 77.975363,
      "address": "Ground Floor Mubarakpur, Kakua, Nh 3, 44 Near Chainage 15/957, Agra",
      "open_now": true
    },
    {
      "place_id": "ChIJTw_YzPp0dDkRey8ZNS2nE6s",
      "name": "IndianOil",
      "lat": 27.067078,
      "lng": 77.98322999999999,
      "address": "Ground Floor Gwalior Road, 509, Command, Kakua",
      "open_now": true
    },
    {
      "place_id": "ChIJUXbj0UR1dDkR0NuVKcoLi6Y",
      "name": "Maa Pitambara filling Station ( Bharat Petroleum Corporation Ltd)",
      "lat": 27.03744589999999,
      "lng": 77.9910616,
      "address": "2XPR+XC, Garhi Usara",
      "open_now": true
    },
    {
      "place_id": "ChIJcZXhh7R1dDkRrMVidAYt8fU",
      "name": "R G OILS",
      "lat": 27.031851,
      "lng": 77.972143,
      "address": "2XJC+PV, Gauharpur",
      "open_now": null
    },
    {
      "place_id": "ChIJy-sp0Qd1dDkRr5DlHfFrALw",
      "name": "Bharat Petroleum, Petrol Pump -Hukamchand Fakirchand(Kakua)",
      "lat": 27.0723474,
      "lng": 77.985421,
      "address": "KAKUA, Agra",
      "open_now": true
    },
    {
      "place_id": "ChIJwRnZMAB1dDkRSQ3rMBQi8yA",
      "name": "Pushpendra Singh jaat",
      "lat": 27.0737348,
      "lng": 77.9811971,
      "address": "3XFJ+FFW, Kakua",
      "open_now": null
    },
    {
      "place_id": "ChIJo4_ukrALdDkRxpDOu5TrBxk",
      "name": "Jio-bp",
      "lat": 27.025015,
      "lng": 77.968491,
      "address": "Khasra No 463, Sikandarpur, Khairagarh",
      "open_now": true
    },
    {
      "place_id": "ChIJY87vuMh1dDkRf6kzYAPjyh4",
      "name": "Shri Ram",
      "lat": 27.0798955,
      "lng": 77.946725,
      "address": "Mundhera",
      "open_now": true
    },
    {
      "place_id": "ChIJJe5QNQB1dDkRbJ-UPmo5v5s",
      "name": "Pradushan janch Kendra",
      "lat": 27.0871484,
      "lng": 77.9981155,
      "address": "Rampura",
      "open_now": null
    },
    {
      "place_id": "ChIJW6uLoFx0dDkRn0sF8CIkE58",
      "name": "सोनी ऑटो गैस",
      "lat": 27.0896782,
      "lng": 77.99107169999999,
      "address": "India",
      "open_now": null
    },
    {
      "place_id": "ChIJ95VenHELdDkRMqE98KireGE",
      "name": "Hindustan Petroleum Corporation Limited",
      "lat": 27.010608,
      "lng": 77.963864,
      "address": "Ground Floor, Gwalior Road, Tehra",
      "open_now": true
    },
    {
      "place_id": "ChIJb9GEtFx0dDkRM0ylNkrz6s0",
      "name": "IndianOil",
      "lat": 27.091125,
      "lng": 77.992081,
      "address": "Ground Floor Agra Gwalior Rd, NH 3, 509 Command, Rohta",
      "open_now": true
    },
    {
      "place_id": "ChIJL80w0NF1dDkRsnxaXZIompY",
      "name": "IndianOil",
      "lat": 27.0091678,
      "lng": 77.9630763,
      "address": "Gata No 1048, 1049/1 1054 & 1055/2, Gwalior Road, Agra",
      "open_now": true
    },
    {
      "place_id": "ChIJaxfuNJILdDkRf4ru5dEm9dk",
      "name": "YashR Fssr",
      "lat": 27.0129457,
      "lng": 77.95319549999999,
      "address": "944 Nagla Chhahari, Gwalior Road, Tehra",
      "open_now": null
    },
    {
      "place_id": "ChIJC8TFcgALdDkR4T454t2JP44",
      "name": "Rajput filling station and meterial stall",
      "lat": 26.9536939,
      "lng": 77.9453091,
      "address": "XW3W+F4F, Saiyan",
      "open_now": null
    },
    {
      "place_id": "ChIJJd2biw8KdDkR0vCC_InwoN0",
      "name": "IndianOil",
      "lat": 26.9476193,
      "lng": 77.9379903,
      "address": "Ground Floor, Saiyan NH 3, Road, Gwalior",
      "open_now": true
    },
    {
      "place_id": "ChIJxZ4ZaMp1dDkR583SMMezRgU",
      "name": "IndianOil",
      "lat": 26.9601354,
      "lng": 77.95091780000001,
      "address": "Ground Floor, Gwalior Rd, Agra",
      "open_now": true
    },
    {
      "place_id": "ChIJi6-4K4gLdDkRJQ_8RaCW7no",
      "name": "IndianOil",
      "lat": 26.950039,
      "lng": 77.9656107,
      "address": "Ground Floor Rajpura, Saiyan",
      "open_now": true
    },
    {
      "place_id": "ChIJN1xbMGz1czkRxrTUdk4Di48",
      "name": "IndianOil",
      "lat": 26.9435933,
      "lng": 77.91681679999999,
      "address": "Ground Floor Jajau, Kheragarh, Road, Saiyan",
      "open_now": true
    },
    {
      "place_id": "ChIJN1ucsb4LdDkRH3LiZ2ML5S4",
      "name": "Saithiya Filling Station BPCL",
      "lat": 26.9791142,
      "lng": 77.94962249999999,
      "address": "XWHX+JRX, Chennai - Delhi Highway, Birai",
      "open_now": true
    },
    {
      "place_id": "ChIJTY7bVwALdDkR65PyDRWryys",
      "name": "IndianOil",
      "lat": 26.98291649999999,
      "lng": 77.95212459999999,
      "address": "Shop No 12, Birai Choraya, Birai",
      "open_now": null
    },
    {
      "place_id": "ChIJhc2OJGt1dDkR4i9Ta3Wf07c",
      "name": "Bharat Petroleum, Petrol Pump -Prakash Automobiles (Kk Bagh)",
      "lat": 26.98333389999999,
      "lng": 77.9523825,
      "address": "NH-3, K.K.Bagh, Beerai, Saiyan Agra, Gwalior Road, Agra",
      "open_now": true
    },
    {
      "place_id": "ChIJId_8ZVcJdDkRBOneH_yjjjY",
      "name": "IndianOil",
      "lat": 26.9193148,
      "lng": 77.9314218,
      "address": "Khasra No 24432445 NH 3, Jajau, Kheragarh",
      "open_now": true
    },
    {
      "place_id": "ChIJxSfE4bkJdDkRfmhYE56A0TA",
      "name": "Hindustan Petroleum Corporation Limited",
      "lat": 26.9171948,
      "lng": 77.9312425,
      "address": "Ground Floor, Gwalior Road, Jajau",
      "open_now": true
    },
    {
      "place_id": "ChIJw0jAmpYJdDkRSxiIoHS19uc",
      "name": "Hindustan Petroleum Corporation Limited",
      "lat": 26.9171948,
      "lng": 77.9312425,
      "address": "Ground Floor, NH 44, Gwalior Road, Jajau",
      "open_now": true
    },
    {
      "place_id": "ChIJ_X9XK6MJdDkR0NDN2dV2Rtg",
      "name": "IndianOil",
      "lat": 26.9144742,
      "lng": 77.9299753,
      "address": "Gata No 2345 Betn Km 27 to Rajasthan, Border, Jajau",
      "open_now": true
    },
    {
      "place_id": "ChIJvwdgCcULdDkRt_se6lBLggc",
      "name": "Hindustan Petroleum Corporation Limited",
      "lat": 26.9541211,
      "lng": 77.9870723,
      "address": "Ground Floor, Iradat Ngr Rd, Kheragarh, Saiyan",
      "open_now": true
    },
    {
      "place_id": "ChIJaVHEp9QJdDkR0NphdPA0QEU",
      "name": "IndianOil",
      "lat": 26.9222306,
      "lng": 77.97415099999999,
      "address": "Ladukhera Kheragarh, Saiyan",
      "open_now": true
    },
    {
      "place_id": "ChIJSQNhsF_3czkRHVaHheCC9p8",
      "name": "J.S.BAGHEL FILLING STATION",
      "lat": 26.8194406,
      "lng": 77.918174,
      "address": "Bagcholi Khar",
      "open_now": true
    },
    {
      "place_id": "ChIJUauqWm74czkRmC_hrxsIYjk",
      "name": "Hindustan Petroleum Corporation Limited",
      "lat": 26.8095852,
      "lng": 77.91475319999999,
      "address": "Plot No 784/1, NH 3, Mania",
      "open_now": true
    },
    {
      "place_id": "ChIJHbWdq9H5czkRWEYSnCPxQ4Y",
      "name": "Shree Narayan fuel station",
      "lat": 26.8202763,
      "lng": 77.9119229,
      "address": "RW97+P3, Mania",
      "open_now": null
    },
    {
      "place_id": "ChIJlZNlshz5czkRFWbN52JqPLg",
      "name": "IndianOil",
      "lat": 26.8225276,
      "lng": 77.9261227,
      "address": "Ground Floor, Mangrol Road, Mania",
      "open_now": true
    },
    {
      "place_id": "ChIJ_x5GYtj5czkRNgRyHbl3cwA",
      "name": "Hindustan Petroleum Corporation Limited",
      "lat": 26.83346239999999,
      "lng": 77.9184154,
      "address": "Plot No 457/201 & 459/202, NH 3, Mania",
      "open_now": true
    },
    {
      "place_id": "ChIJe6EnfYn4czkRafyrtY8EI6k",
      "name": "IndianOil",
      "lat": 26.790111,
      "lng": 77.91110200000001,
      "address": "near Dandoli, NH 3, Mania, near Dandoli",
      "open_now": true
    },
    {
      "place_id": "ChIJ9dGM7Yv4czkR_XE5Y2LHXic",
      "name": "Hindustan Petroleum Corporation Limited",
      "lat": 26.78903099999999,
      "lng": 77.909871,
      "address": "Plot No 150 & 151, NH 3, Birodha",
      "open_now": true
    },
    {
      "place_id": "ChIJj_r_fyX3czkRqNySnTOmIRI",
      "name": "Bharat Petroleum Petrol Pump , PARSHWANATH FUEL STATION",
      "lat": 26.847085,
      "lng": 77.922096,
      "address": "MANIANH-3, Dholpur",
      "open_now": null
    },
    {
      "place_id": "ChIJW5_2wuP3czkRvQow12mkmaM",
      "name": "Hindustan Petroleum Corporation Limited",
      "lat": 26.858201,
      "lng": 77.92400099999999,
      "address": "Plot No 552, NH 3, Siypura",
      "open_now": true
    },
    {
      "place_id": "ChIJMwO5F6n_czkRANZNmPgSa8E",
      "name": "Hindustan Petroleum Corporation Limited",
      "lat": 26.695501,
      "lng": 77.89020099999999,
      "address": "Plot No 243 & 244 NH 3, Gulab Bagh, Dholpur",
      "open_now": true
    },
    {
      "place_id": "ChIJsSqipbD_czkRMUpGY6Wr2Ic",
      "name": "Hindustan Petroleum Corporation Limited",
      "lat": 26.68319099999999,
      "lng": 77.893351,
      "address": "480, Plot No 479, NH 3, Sagarpada, Dholpur",
      "open_now": true
    },
    {
      "place_id": "ChIJ9c9iYAX_czkRK6GPKjwrr4k",
      "name": "IndianOil",
      "lat": 26.7096017,
      "lng": 77.8935568,
      "address": "Ground Floor Giroli Gate, Agra, Road, Gwalior",
      "open_now": true
    },
    {
      "place_id": "ChIJS5HfbhD_czkRGVT8KTjEtfI",
      "name": "Gogna Petrol Pump",
      "lat": 26.713553,
      "lng": 77.894879,
      "address": "Agra - Mumbai Highway, Jiroly, Dholpur",
      "open_now": true
    },
    {
      "place_id": "ChIJsTQnLgD_czkR4hDhP3xcTvc",
      "name": "HPCL roshan service station Dholpur",
      "lat": 26.7092848,
      "lng": 77.8963242,
      "address": "HPCL rishabh, service station, GT Road, Dholpur",
      "open_now": null
    },
    {
      "place_id": "ChIJp5Bsowf_czkR4kaelDhUYno",
      "name": "Bharat Petroleum, Petrol Pump -Rattanchand & Sons",
      "lat": 26.7014562,
      "lng": 77.89166829999999,
      "address": "G.T. ROAD DHOLPUR",
      "open_now": true
    },
    {
      "place_id": "ChIJLbCqr6n_czkRG44KF_p5_uk",
      "name": "IndianOil",
      "lat": 26.6974001,
      "lng": 77.89060099999999,
      "address": "Ground Floor, Agra - Mumbai Highway, Basai Neem",
      "open_now": true
    },
    {
      "place_id": "ChIJ6e_OOgD_czkR8-SSx_OpmDE",
      "name": "Petrol pump",
      "lat": 26.6968324,
      "lng": 77.8915671,
      "address": "470, Station Rd, Nihal Ganj, Dholpur",
      "open_now": null
    },
    {
      "place_id": "ChIJGWncG_b_czkRpPd1YEZ3_yc",
      "name": "Gaurav Bohra Filling Station",
      "lat": 26.733576,
      "lng": 77.89053439999999,
      "address": "PVMR+C6M, Ladampur",
      "open_now": null
    },
    {
      "place_id": "ChIJjxbuCaD_czkRtjwxr8_Vv2E",
      "name": "A.S.Filling Station Dholpur",
      "lat": 26.6879043,
      "lng": 77.8911005,
      "address": "NH-44, Water Works Circle, Dholpur (Raj",
      "open_now": true
    },
    {
      "place_id": "ChIJXWpxUYf_czkRixoM-9DS0MU",
      "name": "Hindustan Petroleum Corporation Limited",
      "lat": 26.687379,
      "lng": 77.891271,
      "address": "Ground Floor, Gwalior Road, Kotla, Dholpur",
      "open_now": true
    },
    {
      "place_id": "ChIJIWnIE7D_czkRvG_j6nc1vNQ",
      "name": "IndianOil",
      "lat": 26.7352549,
      "lng": 77.89913179999999,
      "address": "Rico Industrial, Sadar Thana, Ground Floor NH 3, near RT Office, Dholpur",
      "open_now": true
    },
    {
      "place_id": "ChIJBTGqyR3_czkRTKP5Mc-BKLc",
      "name": "Hindustan Petroleum Corporation Limited",
      "lat": 26.7354801,
      "lng": 77.900301,
      "address": "opposite Sadar Police Station, Plot No 377/2, NH 3, Dariyapur",
      "open_now": true
    },
    {
      "place_id": "ChIJMwmMyFn-czkRM4qStXTmq8M",
      "name": "IndianOil",
      "lat": 26.6942578,
      "lng": 77.8698296,
      "address": "Ground Floor, NH 11B, Bari Road, Jhor, Dholpur",
      "open_now": true
    },
    {
      "place_id": "ChIJPQuVffL-czkRawxTZYCahbc",
      "name": "Hindustan Petroleum Corporation Limited",
      "lat": 26.7080901,
      "lng": 77.86231800000002,
      "address": "K No 3865/3611, Rundh, Nahila, Mahamadpur",
      "open_now": true
    },
    {
      "place_id": "ChIJizr_alP_czkR6b8oxt7PoDQ",
      "name": "Hindustan Petroleum Corporation Limited",
      "lat": 26.7080901,
      "lng": 77.86231800000002,
      "address": "K No 3865/3611, Rundh Nahila, Mahamadpur, Dholpur",
      "open_now": true
    },
    {
      "place_id": "ChIJb2wBQAD_czkRdj4JEquhl-g",
      "name": "Rinku crockery House dhaulpur",
      "lat": 26.6819744,
      "lng": 77.8963673,
      "address": "Rinku crockery House, Dholpur",
      "open_now": null
    },
    {
      "place_id": "ChIJhfaNZbf_czkRTFvYTbIUv20",
      "name": "Reliance Petrol Pump Dholpur Rjf110",
      "lat": 26.6806047,
      "lng": 77.8938579,
      "address": "Sagarpada, Dholpur",
      "open_now": true
    },
    {
      "place_id": "ChIJ6Vi-y7n_czkRcKlTJ-qs-Fg",
      "name": "Bharat Petroleum, Petrol Pump -Jai Baba Devpuri Filling Station",
      "lat": 26.6798731,
      "lng": 77.89489879999999,
      "address": "DEVPURI NH 3 DHOLPUR, Dholpur",
      "open_now": true
    },
    {
      "place_id": "ChIJLUC6NzT_czkRv5_VLIT8ia8",
      "name": "IndianOil",
      "lat": 26.7425001,
      "lng": 77.90177,
      "address": "Ground Floor, Ab Road NH 3, Bhagwatgarh, Maharajpura, Basai Neem",
      "open_now": true
    },
    {
      "place_id": "ChIJdZ3mVgCrdjkRhnWf-EM3EL0",
      "name": "Rajesh diesel Morena",
      "lat": 26.5757311,
      "lng": 77.9453497,
      "address": "HWGW+74X, Chennai - Delhi Highway, Jarah",
      "open_now": true
    },
    {
      "place_id": "ChIJR8P0PwCrdjkRsitIHIAF-Q0",
      "name": "Manish Diesel ⛽ Morena",
      "lat": 26.5759581,
      "lng": 77.9451244,
      "address": "HWGW+92Q, Chennai - Delhi Highway, Jarah",
      "open_now": null
    },
    {
      "place_id": "ChIJp0_dEQCrdjkR9-dqjfsWze0",
      "name": "Chhotu Diesel murena",
      "lat": 26.5784682,
      "lng": 77.94485,
      "address": "HWHV+9W, Jarah",
      "open_now": null
    },
    {
      "place_id": "ChIJ90nXVIKtdjkRIrzp7EFZuco",
      "name": "Rahul sharma",
      "lat": 26.5642666,
      "lng": 77.94810729999999,
      "address": "HW7X+P7FSrinagar, Srinagar - Kanyakumari Highway, Sikrauda",
      "open_now": null
    },
    {
      "place_id": "ChIJQfZw0L-rdjkRaxlsgl85xyA",
      "name": "Amit disel morena",
      "lat": 26.5640603,
      "lng": 77.9486826,
      "address": "Morena Madhya Pradesh NH3 AB road, NH-3, M.P, Sikrauda, Morena",
      "open_now": null
    },
    {
      "place_id": "ChIJYTSexYSrdjkRRymX8CGa07Q",
      "name": "NEBPL J.S. GURJAR FILLING STATION",
      "lat": 26.5857106,
      "lng": 77.9443134,
      "address": "HWPV+7P, Jarah",
      "open_now": null
    },
    {
      "place_id": "ChIJGXHlekKrdjkRCQ8QJ76xEzs",
      "name": "IndianOil",
      "lat": 26.5910591,
      "lng": 77.9427806,
      "address": "Shop No 437/1, Bandha",
      "open_now": true
    },
    {
      "place_id": "ChIJh9IbAhKrdjkRlNdQjeIqf7M",
      "name": "Shree balaji filling station",
      "lat": 26.6047874,
      "lng": 77.93753600000001,
      "address": "balaji work shop ke samne, near hetampur, Thana sharaychhola, Morena",
      "open_now": true
    },
    {
      "place_id": "ChIJ3ZMSeZytdjkRys130ikd6WE",
      "name": "Hindustan Petroleum Corporation Limited",
      "lat": 26.4899844,
      "lng": 77.9793358,
      "address": "Ground Floor, Agra - Mumbai Highway, Galetha, Morena",
      "open_now": true
    },
    {
      "place_id": "ChIJcYQp7hOtdjkR2bWUYpv3a90",
      "name": "R B FILLING center",
      "lat": 26.4931076,
      "lng": 77.979224,
      "address": "near k.s oil mill, naiagarh road, Housing Board Colony, Morena",
      "open_now": true
    },
    {
      "place_id": "ChIJvZdx7PqtdjkRItdh35ywYdg",
      "name": "MR DHEERAJ SHARMA",
      "lat": 26.4920967,
      "lng": 77.9868884,
      "address": "Chinnoni Chambal, Morena",
      "open_now": true
    },
    {
      "place_id": "ChIJebpyWr6tdjkRIIa7KdRAqhI",
      "name": "Hindustan Petroleum Corporation Limited",
      "lat": 26.486218,
      "lng": 77.9726471,
      "address": "Ground Floor, Amba Road, Galetha, Morena",
      "open_now": true
    },
    {
      "place_id": "ChIJI8vUIpGtdjkRAAGIb4IDFB8",
      "name": "Solanki Petrol Pump",
      "lat": 26.48613659999999,
      "lng": 77.9726221,
      "address": "Major District Road 2, Keshav Colony, Gopal Pura, Morena",
      "open_now": true
    },
    {
      "place_id": "ChIJpQ8nPZGtdjkRmijgVr2SV20",
      "name": "Bhagwan auto sales",
      "lat": 26.4919005,
      "lng": 77.9889118,
      "address": "Keshav Colony, Gopal Pura, Morena",
      "open_now": true
    },
    {
      "place_id": "ChIJvzFHKwCtdjkRBPx5jAs6PWc",
      "name": "Solanki petrol pump ke piche",
      "lat": 26.487527,
      "lng": 77.971696,
      "address": "FXQC+3MG, Kushwah Colony, Galetha, Morena",
      "open_now": null
    },
    {
      "place_id": "ChIJo3Z1S4qtdjkRWAbrsEASMx0",
      "name": "IndianOil",
      "lat": 26.478703,
      "lng": 77.992671,
      "address": "Lock No 1182, Near Comm 5th Division SAF Rtd 60 Kms, 219, Ambah Road, Bagachini, Morena",
      "open_now": true
    },
    {
      "place_id": "ChIJ7ZalBwCtdjkRacxrOz1q6l4",
      "name": "IndianOil",
      "lat": 26.4770438,
      "lng": 77.9935301,
      "address": "Shop No 1200, Joura Khurd",
      "open_now": true
    },
    {
      "place_id": "ChIJn_46BgCtdjkRa5Tg0tobKSc",
      "name": "Gangapur mandir",
      "lat": 26.4947172,
      "lng": 77.9940222,
      "address": "FXVV+VJJ, Morena",
      "open_now": null
    },
    {
      "place_id": "ChIJDSXVA1GtdjkRBo4ltHS5bK4",
      "name": "Hindustan Petroleum Corporation Limited",
      "lat": 26.496811,
      "lng": 77.99223099999999,
      "address": "Ground Floor, Nainagarh Road, Jiwaji Ganj, Morena",
      "open_now": true
    },
    {
      "place_id": "ChIJrxHNyJStdjkR7BgkSvUJbhM",
      "name": "IndianOil",
      "lat": 26.4955102,
      "lng": 77.9961108,
      "address": "Lock No 1238/219 Station Road, Road, Ambah",
      "open_now": true
    },
    {
      "place_id": "ChIJVyK3LOutdjkREZY-z1Xljsg",
      "name": "Modern Motors Petrol Pump IOCL Morena",
      "lat": 26.4963267,
      "lng": 77.99662479999999,
      "address": "near Nehru Park, 29/30, Morena-Sheopur Road, Jiwaji Ganj, Morena",
      "open_now": true
    },
    {
      "place_id": "ChIJLeE-7AKtdjkRC0SvTyaZVnU",
      "name": "Modicare",
      "lat": 26.4948969,
      "lng": 78.0016742,
      "address": "1, Anto Bai Road, Ganeshpura, Morena",
      "open_now": null
    },
    {
      "place_id": "ChIJEQqdSqWtdjkRE3VgyhdlYrw",
      "name": "Hindustan Petroleum Corporation Limited",
      "lat": 26.509387,
      "lng": 77.985315,
      "address": "Ground Floor, Ambha Bypass Road, Lalori Kalan, Morena",
      "open_now": true
    },
    {
      "place_id": "ChIJCay2msGtdjkRIU9h8RvyVqs",
      "name": "Dwarika Prasad",
      "lat": 26.5024067,
      "lng": 78.00175890000001,
      "address": "Station Road, Morena",
      "open_now": true
    },
    {
      "place_id": "ChIJNUphq2etdjkRE7nv9HAExpw",
      "name": "Hindustan Petroleum Corporation Limited",
      "lat": 26.4818087,
      "lng": 77.95392079999999,
      "address": "Ground Floor, Morena-Sheopur Road, Morenagaon",
      "open_now": true
    },
    {
      "place_id": "ChIJaTSX3w6ydjkRMBMCxw5SzGU",
      "name": "IndianOil",
      "lat": 26.47008499999999,
      "lng": 78.00519899999999,
      "address": "Lock No 1207/219, NH 3, Ambah Road, Joura Khurd",
      "open_now": true
    },
    {
      "place_id": "ChIJ66I22H6tdjkR_LYrzGX1pMo",
      "name": "Brajesh Singh",
      "lat": 26.5037497,
      "lng": 78.00371729999999,
      "address": "00, Jain Mandir Road, Morena",
      "open_now": null
    },
    {
      "place_id": "ChIJNawuLwCtdjkRHFbPcoahj94",
      "name": "siddhsthan",
      "lat": 26.5151309,
      "lng": 77.9838106,
      "address": "GX8M+3G3, Jauri",
      "open_now": null
    },
    {
      "place_id": "ChIJPVqAaAC3djkRcuqC8Uc9rco",
      "name": "SHRI BALAJI INDIAN OIL PUMP",
      "lat": 26.3789784,
      "lng": 78.08069449999999,
      "address": "Nh44, Seva",
      "open_now": true
    },
    {
      "place_id": "ChIJxdECbtOwdjkRhFXDEV-6XNU",
      "name": "Vishal Pure Oils",
      "lat": 26.387033,
      "lng": 78.0748934,
      "address": "AB Road, Tighara",
      "open_now": true
    },
    {
      "place_id": "ChIJewyPTGe3djkRb2lFe-xA2ks",
      "name": "BPCL M/s Mohar Singh Filling Center",
      "lat": 26.3586912,
      "lng": 78.0967237,
      "address": "Banmore",
      "open_now": true
    },
    {
      "place_id": "ChIJtZXZom-3djkROfoU_bc5cts",
      "name": "RAJAT OIL MIL",
      "lat": 26.3593127,
      "lng": 78.0978342,
      "address": "India",
      "open_now": null
    },
    {
      "place_id": "ChIJu6Qa9SCxdjkRzApPK4UsYhk",
      "name": "SS Mavai Highway fuels",
      "lat": 26.4117368,
      "lng": 78.0622178,
      "address": "AB Road, Nurabad",
      "open_now": true
    },
    {
      "place_id": "ChIJG8yr1yGxdjkRGAypLluimOI",
      "name": "Bharat Petroleum",
      "lat": 26.4120136,
      "lng": 78.061787,
      "address": "India",
      "open_now": null
    },
    {
      "place_id": "ChIJtXpAwPy3djkRVO5erSmbXp8",
      "name": "IndianOil",
      "lat": 26.3453651,
      "lng": 78.1013693,
      "address": "Ground Floor, Agra - Mumbai Highway, Banmore",
      "open_now": true
    },
    {
      "place_id": "ChIJL81qYxW3djkRZ9PkBCv6C0s",
      "name": "Hindustan Petroleum Corporation Limited",
      "lat": 26.343477,
      "lng": 78.1026701,
      "address": "Ground Floor, near Shri Ram Group of Colleges, NH 3, Agra - Mumbai Highway, Banmore",
      "open_now": true
    },
    {
      "place_id": "ChIJZbf1SkXGdjkR_LoWsEHSxBw",
      "name": "Bharat Petroleum",
      "lat": 26.2433477,
      "lng": 78.1448715,
      "address": "Sancheti Petrol Pump, Transport Nagar, Moti Jheel, Gwalior",
      "open_now": true
    },
    {
      "place_id": "ChIJI2Hsoge4djkR0rimuuUxoIc",
      "name": "Bharat Petroleum",
      "lat": 26.302342,
      "lng": 78.119979,
      "address": "Farm Asian Highway 47, Rairu",
      "open_now": true
    },
    {
      "place_id": "ChIJqRS9YQa4djkReE23-JjY9VU",
      "name": "Hindustan Petroleum Corporation Limited",
      "lat": 26.3053749,
      "lng": 78.1195096,
      "address": "Ground Floor, Agra - Mumbai Highway, Baraua Nurabad",
      "open_now": true
    },
    {
      "place_id": "ChIJp6MVxFzGdjkR7OI9hkZ5Y7c",
      "name": "IndianOil",
      "lat": 26.234481,
      "lng": 78.14059329999999,
      "address": "Lock No, 1177/219, Transport Nagar, Gwalior",
      "open_now": true
    },
    {
      "place_id": "ChIJoWgWEl3GdjkRqGkEiv32NCo",
      "name": "Bharat Petroleum Petrol Pump",
      "lat": 26.2345646,
      "lng": 78.1467373,
      "address": "64MW+RMH, Double Road, Transport Nagar, Anand Nagar, Gwalior",
      "open_now": true
    },
    {
      "place_id": "ChIJSSmwkAe4djkRYuyZO3tlpqs",
      "name": "IndianOil",
      "lat": 26.2321545,
      "lng": 78.1246809,
      "address": "Indar Nagar, Agra - Mumbai Highway, Rairu, Gwalior",
      "open_now": true
    },
    {
      "place_id": "ChIJfWjBSl3HdjkRW8zu5sYsFHI",
      "name": "IndianOil",
      "lat": 26.2705376,
      "lng": 78.1364449,
      "address": "S No 598, Gangapur",
      "open_now": true
    },
    {
      "place_id": "ChIJlRRazlDHdjkRn4VHT3-lvFM",
      "name": "IndianOil",
      "lat": 26.2705376,
      "lng": 78.1364449,
      "address": "S No 598, Gangapur",
      "open_now": true
    },
    {
      "place_id": "ChIJrQDghs_HdjkRvmkJdzz94eI",
      "name": "Shreejee Petrochem And Lubes",
      "lat": 26.2617699,
      "lng": 78.1352752,
      "address": "Purani Chhawani, Gwalior",
      "open_now": true
    },
    {
      "place_id": "ChIJI6ZYWUvGdjkRv0WB33U46nk",
      "name": "Jio-bp",
      "lat": 26.2547685,
      "lng": 78.13920519999999,
      "address": "Ground Floor, near Fruit Mandi, Ab Road, Moti Jheel, Gwalior",
      "open_now": true
    },
    {
      "place_id": "ChIJx5D0OgDHdjkR35sXfpIYzBQ",
      "name": "Motijheel Auto Service",
      "lat": 26.252364,
      "lng": 78.1415576,
      "address": "742R+WJV, Moti Jheel, Gwalior",
      "open_now": true
    },
    {
      "place_id": "ChIJtULKT0zGdjkRTsHnEgcLIrs",
      "name": "Hindustan Petroleum Corporation Limited",
      "lat": 26.252371,
      "lng": 78.141731,
      "address": "Ground Floor, Moti Jheel, Gwalior",
      "open_now": true
    },
    {
      "place_id": "ChIJfyd-gInHdjkReWzXbKwtGX0",
      "name": "IndianOil",
      "lat": 26.2482492,
      "lng": 78.1351007,
      "address": "No 143146/1/147 Munjapta, Defence Colony, Akbarpur",
      "open_now": true
    },
    {
      "place_id": "ChIJQ2wXHRbHdjkRERw_qJwFw4s",
      "name": "Indian Oil",
      "lat": 26.2481543,
      "lng": 78.1356278,
      "address": "64XP+776, Motijheel, Moti Jheel, Gwalior",
      "open_now": null
    },
    {
      "place_id": "ChIJg6EZdJfHdjkRNE1W-a9y_9I",
      "name": "Bharat Petroleum, Petrol Pump -Sonika Automobiles",
      "lat": 26.2594524,
      "lng": 78.1591301,
      "address": "JALALPUR CHOURAHA GWALIOR, National Highway 92, Gwalior",
      "open_now": true
    },
    {
      "place_id": "ChIJHSIopv3GdjkR5cN9HA2QHuI",
      "name": "IndianOil",
      "lat": 26.25587849999999,
      "lng": 78.16478359999999,
      "address": "Survey No 312, Manpur, Gird, near Gwalior Residency, Gwalior",
      "open_now": true
    },
    {
      "place_id": "ChIJM9iaMAC5djkRt50kxmoEkf8",
      "name": "Surindra Automobiles BPCL",
      "lat": 26.3024272,
      "lng": 78.1200728,
      "address": "842C+X2G, Inder Nager (rairoo, Agra - Mumbai Highway, Milawali",
      "open_now": null
    },
    {
      "place_id": "ChIJJZjNeKDHdjkRGkXW4bcSTeY",
      "name": "IndianOil",
      "lat": 26.249426,
      "lng": 78.1629792,
      "address": "Khasra No 558559560, Min1560/Min, Manpur, Badagaon, Gwalior",
      "open_now": true
    },
    {
      "place_id": "ChIJn6tzBdYtcTkR2nWqtUFlUHU",
      "name": "IndianOil",
      "lat": 26.249426,
      "lng": 78.1629792,
      "address": "Khasra No 558559560, Min1560/Min, Manpur, Badagaon, Gwalior",
      "open_now": true
    },
    {
      "place_id": "ChIJn38XfOPHdjkR4dX21NNSM2Y",
      "name": "Bharat petroleum- Urja filling Station",
      "lat": 26.23727,
      "lng": 78.1234316,
      "address": "64PF+W9, Gwalior West",
      "open_now": null
    },
    {
      "place_id": "ChIJGTwVGEC4djkRgPr5VSNJGJQ",
      "name": "NAYARA PETROL PUMP",
      "lat": 26.1901434,
      "lng": 78.1368956,
      "address": "54RP+3Q2, Baraua Nurabad",
      "open_now": true
    },
    {
      "place_id": "ChIJf5ZevYzPdjkRFoN3hxbcpEc",
      "name": "Reliance Petroleum",
      "lat": 26.13780019999999,
      "lng": 78.1050058,
      "address": "Ground Floor, Ki, Bawadi, Bela",
      "open_now": true
    },
    {
      "place_id": "ChIJtZ-zOV_EdjkRRgVZ5HauS84",
      "name": "Maa Pitambra Trading Company",
      "lat": 26.1749104,
      "lng": 78.144994,
      "address": "Vicky factory tiraha, Saroj fuel Petrol pump",
      "open_now": true
    },
    {
      "place_id": "ChIJn9xghmDPdjkRgycjzBIUtUQ",
      "name": "Hindustan Petroleum Corporation Limited",
      "lat": 26.17248099999999,
      "lng": 78.108083,
      "address": "Ground Floor, Agra - Mumbai Highway, Girvai, Gwalior",
      "open_now": true
    },
    {
      "place_id": "ChIJgwxOBtLFdjkRdEJg5DsyMg4",
      "name": "IndianOil",
      "lat": 26.1749373,
      "lng": 78.1090157,
      "address": "Ground Floor, Infront Mudgal Krishi Farms, Old, Agra - Mumbai Highway, Girwai, Ajaypur",
      "open_now": true
    },
    {
      "place_id": "ChIJBc4s-JLFdjkRHKVYGliAJgM",
      "name": "IndianOil",
      "lat": 26.1818946,
      "lng": 78.1243224,
      "address": "Ground Floor, near Aganbadi Kendra, Ajaypur Road, Veerpur, Gwalior",
      "open_now": true
    },
    {
      "place_id": "ChIJTcWjFnLFdjkRXURwbkRtR60",
      "name": "Petrol pump",
      "lat": 26.1821877,
      "lng": 78.1271026,
      "address": "54JG+VRH, Sikandar Kampoo Road, Sikandar Kampoo, Gwalior",
      "open_now": null
    },
    {
      "place_id": "ChIJ-ZX9mpXFdjkRBvuFfK_4RZ4",
      "name": "Hindustan Petroleum Corporation Limited",
      "lat": 26.1819505,
      "lng": 78.1327678,
      "address": "Ground Floor Saikandar Kampoo Road, Ke Pass, IMLI Naka, Gwalior",
      "open_now": true
    },
    {
      "place_id": "ChIJjaOODADFdjkRwtNPQI-ex6o",
      "name": "Bharat petroleum",
      "lat": 26.1910845,
      "lng": 78.1250396,
      "address": "AH 47, Main Road, Agra - Mumbai Highway, Girwai, Gwalior",
      "open_now": null
    },
    {
      "place_id": "ChIJsWXK1InFdjkR-aTCUK8q-1I",
      "name": "Kushwah ji ka Petrol pump",
      "lat": 26.18181599999999,
      "lng": 78.1329782,
      "address": "Sikandar Kampoo, Gwalior",
      "open_now": null
    },
    {
      "place_id": "ChIJASEhrunPdjkRALcGZy4D5S8",
      "name": "Bharat Petrol Pump",
      "lat": 26.1465248,
      "lng": 78.11017420000002,
      "address": "44W6+J33, Gwalior",
      "open_now": true
    },
    {
      "place_id": "ChIJKetKOwDFdjkRINC1FiiwMBk",
      "name": "Hindustan Petroleum Corporation Limited",
      "lat": 26.140903,
      "lng": 78.12312299999999,
      "address": "near Gwalior, Ground Floor NH 44, Neem chandoha, Shivpuri Link Road, near Gwalior, Jhansi Highway, Gwalior",
      "open_now": true
    },
    {
      "place_id": "ChIJK3IGR-_FdjkRDl3ZqpNa7B4",
      "name": "Shri Ram Fule",
      "lat": 26.198932,
      "lng": 78.1299789,
      "address": "Seetla Mata Rd, Shri Ram Colony, Gwalior",
      "open_now": null
    },
    {
      "place_id": "ChIJE1kK67jPdjkReWxwR0oAUP8",
      "name": "IndianOil",
      "lat": 26.1374409,
      "lng": 78.1032792,
      "address": "S No 113 Min 1, 1/2 & 13, Min 1/1, Bela",
      "open_now": true
    },
    {
      "place_id": "ChIJdVNfbv7FdjkR1XpNGxjm6fQ",
      "name": "Gupteshwar Petro Services",
      "lat": 26.2054228,
      "lng": 78.1156415,
      "address": "Survey No-902,905, Village Bara, SADA, Pragati Vihar, Gwalior",
      "open_now": true
    },
    {
      "place_id": "ChIJv_Z_-uPFdjkRypXoaMdrLp8",
      "name": "IndianOil",
      "lat": 26.141473,
      "lng": 78.126873,
      "address": "S No 166, 1165158/1, Neem Chandouha, Ajaypur",
      "open_now": true
    },
    {
      "place_id": "ChIJ45459Z7FdjkRqtNFUNeZu_Y",
      "name": "IndianOil",
      "lat": 26.1811574,
      "lng": 78.1464682,
      "address": "S No 592593, Gudha, Achalpura",
      "open_now": true
    },
    {
      "place_id": "ChIJb4PVZ67FdjkRsrI2OV0cf2g",
      "name": "IndianOil",
      "lat": 26.1729311,
      "lng": 78.1495125,
      "address": "Ground Floor Gudi, Darpan Colony, Gwalior",
      "open_now": true
    },
    {
      "place_id": "ChIJmWLXBDDHdjkRzGy6CHyFq3M",
      "name": "IndianOil",
      "lat": 26.21027100000001,
      "lng": 78.11709119999999,
      "address": "Lock No 1144/219, Bara Ph No 65, No 899902903904905, Baraua",
      "open_now": true
    },
    {
      "place_id": "ChIJA4Mfo53FdjkRlXg6hrC18VE",
      "name": "IndianOil",
      "lat": 26.181013,
      "lng": 78.1511575,
      "address": "Khasra No 255, Gudi, Ajaypur, near 14th Battalion, Gwalior",
      "open_now": true
    },
    {
      "place_id": "ChIJq1hwyR7OdjkRGjfPiqyzi54",
      "name": "Hindustan Petroleum",
      "lat": 26.1132,
      "lng": 78.03829999999999,
      "address": "Panihar, Gwalior, NH-3, Mumbai Agra Highway, AB Road, Gwalior, Gwalior",
      "open_now": true
    },
    {
      "place_id": "ChIJ951K0RzOdjkRQeD4fC1xIy8",
      "name": "IndianOil",
      "lat": 26.1104165,
      "lng": 78.03141029999999,
      "address": "Lock No 1035, near JA Hospital, 219, NH 3, Panihar",
      "open_now": true
    },
    {
      "place_id": "ChIJOV01Kx_OdjkRtA2pa9MUoZQ",
      "name": "HP PETROL PUMP - KARMA HIGHWAY SALES & SERVICE",
      "lat": 26.1137349,
      "lng": 78.0397799,
      "address": "Agra-mumbai Road Panihar Nayagaon Dist Gwalior, Bhopal",
      "open_now": true
    },
    {
      "place_id": "ChIJoZrtVkPPdjkRC_3XimHFYL4",
      "name": "Essar PETROL PUMP",
      "lat": 26.117106,
      "lng": 78.044983,
      "address": "428V+RXX, Agra - Mumbai Highway, Gwalior",
      "open_now": true
    },
    {
      "place_id": "ChIJK6VHQDrPdjkR8q_gf25bRWw",
      "name": "Manohar Singh Solanki Filling Station",
      "lat": 26.1171175,
      "lng": 78.045005,
      "address": "428V+RXX, Agra - Mumbai Highway, Gwalior",
      "open_now": true
    },
    {
      "place_id": "ChIJk6EIOJvPdjkRgQyoAndLwIY",
      "name": "Shivdev Fuels (BPCL)",
      "lat": 26.1173743,
      "lng": 78.0466933,
      "address": "Shivdev Fuels, opposite CRPF camps, Panihar",
      "open_now": true
    },
    {
      "place_id": "ChIJw7xdtXnPdjkRpLK2-scO_7s",
      "name": "Bharat Petroleum, Petrol Pump -Tikait Fuels & Highway Service",
      "lat": 26.11731899999999,
      "lng": 78.05222169999999,
      "address": "VILL PANIHAR, DIST GWALIOR, Gwalior",
      "open_now": true
    },
    {
      "place_id": "ChIJWzhFb0fPdjkRuvNNHH0hvdo",
      "name": "Laxmi Mukund Fuel station",
      "lat": 26.1172672,
      "lng": 78.06365319999999,
      "address": "National Highway 46, Nayagaon",
      "open_now": null
    },
    {
      "place_id": "ChIJBaOxCJDPdjkRmu_X4RpLoOQ",
      "name": "Jio-bp",
      "lat": 26.11701189999999,
      "lng": 78.06475170000002,
      "address": "Patwari Halka No 23, Ghatigaon",
      "open_now": true
    },
    {
      "place_id": "ChIJ604yt6XTdjkROXwG7lSMz0k",
      "name": "Hindustan Petroleum Corporation Limited",
      "lat": 26.052841,
      "lng": 77.941001,
      "address": "Ground Floor, NH 46, Agra - Mumbai Highway, Ghatigaon",
      "open_now": true
    },
    {
      "place_id": "ChIJCYJESXbTdjkRVT2EYyw-94M",
      "name": "Bharat Petroleum Petrol Pump , MARUTI FUELS",
      "lat": 26.0508907,
      "lng": 77.9321281,
      "address": "GHATIGAONNH3, M.P",
      "open_now": true
    },
    {
      "place_id": "ChIJoa9Rj6fTdjkRgQMz5CmhzZs",
      "name": "IndianOil",
      "lat": 26.053736,
      "lng": 77.94323899999999,
      "address": "Lock No 1243/219, NH3, AB Road, Ghatigaon",
      "open_now": true
    },
    {
      "place_id": "ChIJr9nCU33TdjkR-rzt5LQV9WA",
      "name": "raj filling centre",
      "lat": 26.0541919,
      "lng": 77.95466549999999,
      "address": "3X33+MVF, Agra - Mumbai Highway, Ghatigaon",
      "open_now": null
    },
    {
      "place_id": "ChIJZzxTiXMpcTkRK64oCtGHtoY",
      "name": "Bharat petroleum petrol pump- Om Shri Mahakal Enterprises",
      "lat": 25.9686646,
      "lng": 77.8243093,
      "address": "116,117, Mahakal Enterprises, Om Shri, Nh46, Charai, Rehnt, Gwalior",
      "open_now": true
    },
    {
      "place_id": "ChIJtTPj-h8rcTkR_BOcbeitVK8",
      "name": "CNG Shri Siddhi Jai Dauji Filling",
      "lat": 25.98619699999999,
      "lng": 77.845505,
      "address": "National Highway 46, Renhat",
      "open_now": true
    },
    {
      "place_id": "ChIJl4eVQAArcTkRInqSpyFO7VU",
      "name": "Cng pump mohna",
      "lat": 25.986321,
      "lng": 77.845523,
      "address": "XRPW+G6, Renhat",
      "open_now": null
    },
    {
      "place_id": "ChIJicf01eQrcTkRGN4iJtiPZ0I",
      "name": "Hindustan Petroleum Corporation Limited",
      "lat": 25.986961,
      "lng": 77.845466,
      "address": "Ground Floor, Ghatigaon",
      "open_now": true
    },
    {
      "place_id": "ChIJ_yaKTTLXcDkRoCircSXg1FE",
      "name": "Ashoka Filling Station Bharat Petroleum pump",
      "lat": 25.8903047,
      "lng": 77.76976859999999,
      "address": "VQRC+G4G, Rd, Mohana",
      "open_now": true
    },
    {
      "place_id": "ChIJjXEHlCYocTkRC33WEgQO7io",
      "name": "IndianOil",
      "lat": 25.9040854,
      "lng": 77.7755803,
      "address": "S Lock 1004 & 1058, 219, NH 3, Mohana",
      "open_now": true
    },
    {
      "place_id": "ChIJ52QvPCUocTkRlVPXZv4n62s",
      "name": "Hindustan Petroleum Corporation Limited",
      "lat": 25.9099939,
      "lng": 77.7777199,
      "address": "Ground Floor, Ghatigaon, Mohana",
      "open_now": true
    },
    {
      "place_id": "ChIJ6QNZDtTbcDkRrsHJbibIoCw",
      "name": "Nayara Energy Petrol Pump - Sadhana Filling Station",
      "lat": 25.7207203,
      "lng": 77.7338931,
      "address": "Churelkhera",
      "open_now": true
    },
    {
      "place_id": "ChIJxSuN4tHHcDkRba4M69ETpb4",
      "name": "Think Gas (CNG Gas Filling Station)",
      "lat": 25.5629915,
      "lng": 77.733936,
      "address": "India",
      "open_now": null
    },
    {
      "place_id": "ChIJd7U4_uPHcDkRQ6I7rwgjG_A",
      "name": "Hindustan Petroleum Corporation Limited",
      "lat": 25.562988,
      "lng": 77.733932,
      "address": "Ground Floor, NH 46, Shivpuri - Gwalior Road, Kankar, Shivpuri",
      "open_now": true
    },
    {
      "place_id": "ChIJqWKGw6vHcDkRAGU-UnZVoJo",
      "name": "H. P. Mahaveer Filling Station Satanwada AB road",
      "lat": 25.5618761,
      "lng": 77.7335202,
      "address": "A B, Road, Kankar",
      "open_now": true
    },
    {
      "place_id": "ChIJbSKZMXK4cDkRVHNKck72NQU",
      "name": "IndianOil",
      "lat": 25.512478,
      "lng": 77.71768999999999,
      "address": "Lock No 1181/219 AB Road, Satanwada, NH 3, Sadak, Barodi",
      "open_now": true
    },
    {
      "place_id": "ChIJ2aJ7Zd24cDkRUBTOcxkVwUQ",
      "name": "IndianOil",
      "lat": 25.4813697,
      "lng": 77.6756116,
      "address": "Lock No 1225/219 NH 3, Agra - Mumbai Highway, Chandanpur, Barodi",
      "open_now": true
    },
    {
      "place_id": "ChIJw0stWr-8cDkRDqKe3CjGQqc",
      "name": "IndianOil",
      "lat": 25.3465679,
      "lng": 77.6312808,
      "address": "Lock No 1168/219, NH 3, Ab Road, Bans Khedi",
      "open_now": true
    },
    {
      "place_id": "ChIJby76jMe8cDkRo41BLMrIcXw",
      "name": "Todarmal petrol pump Bharat Petroleum",
      "lat": 25.3412,
      "lng": 77.6302,
      "address": "Khedi, Bans khedi, NH-3, Mumbai Agra Highway, AB Road, Shivpuri",
      "open_now": true
    },
    {
      "place_id": "ChIJH-VPGHC8cDkR2Z83ZOdpEIU",
      "name": "IndianOil",
      "lat": 25.3884476,
      "lng": 77.6428103,
      "address": "Lock No 1073/219 Ab Road, NH E, Barodi, Sadak, Shivpuri",
      "open_now": true
    },
    {
      "place_id": "ChIJfe2bBLG8cDkRh1zr7RHf2lc",
      "name": "Bpshivpuri",
      "lat": 25.3370021,
      "lng": 77.6386948,
      "address": "nh3",
      "open_now": null
    },
    {
      "place_id": "ChIJwTEdOrW8cDkRsbdAZouKfRU",
      "name": "Jio-bp",
      "lat": 25.3288969,
      "lng": 77.63258859999999,
      "address": "near Sharda Solvent, Ground Floor Nh 3, Ab Road, near Sharda Solvent, Plant, Mudheni",
      "open_now": true
    },
    {
      "place_id": "ChIJG4ADsB-9cDkR-cnKs5gSHEY",
      "name": "IndianOil",
      "lat": 25.3775673,
      "lng": 77.6223157,
      "address": "Ground Floor Kakarwaya, NH 3, Sadak, Kakarwaya",
      "open_now": true
    },
    {
      "place_id": "ChIJnbTIYxGjcDkR14oClIkKrKo",
      "name": "IndianOil",
      "lat": 25.3085301,
      "lng": 77.6316701,
      "address": "Khasra No 1622/1 Barodi Sadak, Bujurg, Sesai Sadak",
      "open_now": true
    },
    {
      "place_id": "ChIJiRoMcSu9cDkRcuBpDJvN-Ps",
      "name": "Bharat Petroleum, Petrol Pump -Prem Automobiles",
      "lat": 25.3900742,
      "lng": 77.64370699999999,
      "address": "Barodi Industrial Area, National Highway 3, Shivpuri",
      "open_now": true
    },
    {
      "place_id": "ChIJywsFeQCjcDkRtBaPOkDkIUA",
      "name": "JioBP pump Laxmi Mukund fuel station Kolaras",
      "lat": 25.2503527,
      "lng": 77.61632480000002,
      "address": "6JX8+M9F, Asian Highway 47, Kumraua",
      "open_now": null
    },
    {
      "place_id": "ChIJR98dVyKjcDkRRn3B3v5AXbI",
      "name": "Hindustan Petroleum Corporation Limited",
      "lat": 25.248874,
      "lng": 77.616286,
      "address": "Survey No 1295, NH 46, Shivpuri Guna Rd, Kolaras, Kumraua",
      "open_now": true
    },
    {
      "place_id": "ChIJNwJXaqWjcDkR_Z2nnjlROh0",
      "name": "Bharat Petroleum, Petrol Pump -Bhartiya Petroleum Shivpuri",
      "lat": 25.2666697,
      "lng": 77.61935509999999,
      "address": "VILL PADORA, ON NH, Ramnagar",
      "open_now": true
    },
    {
      "place_id": "ChIJD39WtaNpDjkR-gOLoWEvHJs",
      "name": "IndianOil",
      "lat": 25.229347,
      "lng": 77.6108333,
      "address": "Ground Floor, NH 3, AB Road, Kolaras",
      "open_now": true
    },
    {
      "place_id": "ChIJpwDCKg-jcDkRt8caeCFCoLM",
      "name": "Shivhare Energy",
      "lat": 25.2870579,
      "lng": 77.6282872,
      "address": "Kolaras, Padora Sadak",
      "open_now": true
    },
    {
      "place_id": "ChIJgz5numgKejkRalRMbnbQo3Q",
      "name": "Hindustan Petroleum Corporation Limited",
      "lat": 25.1222308,
      "lng": 77.62029,
      "address": "Ground Floor SH 10, Kolaras, Ashok Nagar, Lukwasa",
      "open_now": true
    },
    {
      "place_id": "ChIJQ2xQcIeZcDkRZw2rLHJtYn0",
      "name": "IndianOil",
      "lat": 25.1524964,
      "lng": 77.6069198,
      "address": "Ground Floor, Shivpuri, Dehrada, Jagatpur",
      "open_now": true
    },
    {
      "place_id": "ChIJ9ZiT6lmhcDkRvlxCosemTMc",
      "name": "Gurudev Filling Station",
      "lat": 25.1546318,
      "lng": 77.606071,
      "address": "AH47, Deharda Sadak",
      "open_now": true
    },
    {
      "place_id": "ChIJ-76yO4kKejkRCQRiw5ZwmYo",
      "name": "Raghuwanshi Highway Service Petrol Pump",
      "lat": 25.12352030000001,
      "lng": 77.602957,
      "address": "4JF3+C54, Deharda Sadak",
      "open_now": true
    },
    {
      "place_id": "ChIJUQ2IDFG9cDkRM0g4mfz0D4M",
      "name": "Bhagawati Energy Station Indian Oil Petrol Pump",
      "lat": 25.1744982,
      "lng": 77.6051329,
      "address": "S No 138, 4, Attair Road, Shivpuri, Purankhedi, Ejwara",
      "open_now": true
    },
    {
      "place_id": "ChIJvasHP4kKejkR9r_px7F1NMo",
      "name": "IndianOil",
      "lat": 25.1232808,
      "lng": 77.6033011,
      "address": "Lock No 1190/219, AB Road, NH 3, Ashok Ngr, Deharda Crossing, Raosar Jagir, Ashok Nagar",
      "open_now": true
    },
    {
      "place_id": "ChIJYRzg4h4LejkRW20c5eTvyrA",
      "name": "Bharat Petroleum Petrol pump- Shiv Filling Station",
      "lat": 25.1105625,
      "lng": 77.6071875,
      "address": "4J64+6V, Lukwasa",
      "open_now": null
    },
    {
      "place_id": "ChIJuZ9r3aEMejkRtHBReJFjB_o",
      "name": "Nayara Energy Petrol Pump VPS Petroleum",
      "lat": 25.039871,
      "lng": 77.584257,
      "address": "2HQM+WPR, Agra - Mumbai Highway, Buda Dongar",
      "open_now": true
    },
    {
      "place_id": "ChIJx-tDYvQNejkR5DS-w0Nr95I",
      "name": "Hindustan Petroleum Corporation Limited",
      "lat": 25.026155,
      "lng": 77.578491,
      "address": "Survey No 1095/1/2, NH 46, Guna Shivpuri Road, Kolaras, Deegod",
      "open_now": true
    },
    {
      "place_id": "ChIJfYd4Vj8LejkRUD_vgeLLN5U",
      "name": "Hindustan Petroleum Corporation Limited",
      "lat": 25.088331,
      "lng": 77.596693,
      "address": "Survey No 1826/2, NH 46, Shivpuri Guna Road, Ashok Nagar, Kolaras",
      "open_now": true
    },
    {
      "place_id": "ChIJI2-43mcLejkRpsHD5_r5fT0",
      "name": "IndianOil",
      "lat": 25.0887691,
      "lng": 77.5956672,
      "address": "Ground Floor, NH 3, Agra - Mumbai Highway, Kolaras",
      "open_now": true
    },
    {
      "place_id": "ChIJ-wQAH00NejkRm7uqcFyy2fY",
      "name": "Hindustan Petroleum Corporation Limited",
      "lat": 24.9632485,
      "lng": 77.5633509,
      "address": "Ground Floor, Agra - Mumbai Highway, Badarwas",
      "open_now": true
    },
    {
      "place_id": "ChIJfy7vohVtejkR2vWkOXAc7PI",
      "name": "IndianOil",
      "lat": 24.9198138,
      "lng": 77.5377369,
      "address": "Ground Floor, AB Road NH 3, Ishwari, Barodi Sadak, Badarwas",
      "open_now": true
    },
    {
      "place_id": "ChIJqYUJaqtyejkRzeAg9gBOJE4",
      "name": "Raj Parsedia Fuel Center Bharat Petroleum",
      "lat": 24.9535,
      "lng": 77.56049999999999,
      "address": "Sumela, Shivpuri NH-3, Mumbai Agra Highway, Agra - Mumbai Highway, Shivpuri",
      "open_now": true
    },
    {
      "place_id": "ChIJeZMw3URzejkREatbw0mzr2Y",
      "name": "Bharat Petroleum, Petrol Pump -Parsediya Automobiles",
      "lat": 24.9574639,
      "lng": 77.5608905,
      "address": "BADARWAS 1",
      "open_now": true
    },
    {
      "place_id": "ChIJWyzcl0wNejkRokawScNUv4w",
      "name": "IndianOil",
      "lat": 24.9657927,
      "lng": 77.5633007,
      "address": "Lock No 1133/219, Badarwas AB Road, NH 3, Main Road, Raosar Jagir",
      "open_now": true
    },
    {
      "place_id": "ChIJcdgtXgBtejkR2FNOHOL7dSY",
      "name": "M/S DIVYANSH ENERGY CENTER ATALPUR pump ⛽ पेट्रोल पंप",
      "lat": 24.9038125,
      "lng": 77.5175625,
      "address": "गोलू बृजवासी रेस्टोरेंट के सामने, Atalpur",
      "open_now": true
    },
    {
      "place_id": "ChIJQ7ljfGZoejkRNrTnhlwHxD8",
      "name": "IndianOil",
      "lat": 24.7859622,
      "lng": 77.3959251,
      "address": "Lock No 1043/219, NH 3, Shivpuri Guna Rd, Barkheda Gird, Bhadaura",
      "open_now": true
    },
    {
      "place_id": "ChIJG7NkA-BpejkRmNkXyshnBm0",
      "name": "IndianOil",
      "lat": 24.8226307,
      "lng": 77.4273533,
      "address": "Shop No 113, min 3113, min 1, min 1, Dungasara",
      "open_now": true
    },
    {
      "place_id": "ChIJkRp3WUppejkRvP8It7C_uzk",
      "name": "IOCL PETROL PUMP HR ENERGY STATION",
      "lat": 24.8226542,
      "lng": 77.4273384,
      "address": "On, National Highway 46, Dungasara",
      "open_now": true
    },
    {
      "place_id": "ChIJd_cXJD9dejkRNeknSf7NGkQ",
      "name": "Hindustan Petroleum Corporation Limited",
      "lat": 24.7189201,
      "lng": 77.36049009999999,
      "address": "Ground Floor, NH 46, Shivpuri Guna Road, Bilabawadi",
      "open_now": true
    },
    {
      "place_id": "ChIJyajoXbRdejkRUAFchEjQffs",
      "name": "Jio BP reliance mobility",
      "lat": 24.7143423,
      "lng": 77.35571130000001,
      "address": "P974+P7P, Bilabawadi",
      "open_now": true
    },
    {
      "place_id": "ChIJe6bCZU5cejkR_m0DWPdfIfs",
      "name": "IndianOil",
      "lat": 24.6879028,
      "lng": 77.3188296,
      "address": "Lock No 1086/219 Piproda Khurd, Barkheda Gird",
      "open_now": true
    },
    {
      "place_id": "ChIJYzlkxEZdejkRLeJpbm8ipvk",
      "name": "BP GUNA",
      "lat": 24.7258382,
      "lng": 77.3621684,
      "address": "P9G6+8VM, Bilabawadi",
      "open_now": true
    },
    {
      "place_id": "ChIJwfutMbFdejkR61ze2Q_KCu4",
      "name": "Hindustan Petroleum Corporation Limited",
      "lat": 24.683139,
      "lng": 77.318955,
      "address": "Khasra No 55/3, Umri Road, Guna",
      "open_now": true
    },
    {
      "place_id": "ChIJhwwFDJddejkRRHBcA__LEzM",
      "name": "IndianOil",
      "lat": 24.664854,
      "lng": 77.32887629999999,
      "address": "Ground Floor, Nana Khedi, Barkheda Gird",
      "open_now": true
    },
    {
      "place_id": "ChIJYRyvXsBdejkRw4jxrvn500c",
      "name": "Hindustan Petroleum Corporation Limited",
      "lat": 24.662615,
      "lng": 77.327377,
      "address": "Ground Floor, AB Road, Nana Khedi, Guna",
      "open_now": true
    },
    {
      "place_id": "ChIJPyzLbKldejkRPgQNNJlg9-w",
      "name": "Reliance Petroleum",
      "lat": 24.6615898,
      "lng": 77.3261124,
      "address": "Ground Floor Ab Road, Nanakhedi, Guna Chwni, Umri",
      "open_now": true
    },
    {
      "place_id": "ChIJ74VB_uRZejkRMQcT3ilx-BY",
      "name": "IndianOil",
      "lat": 24.5949213,
      "lng": 77.2379183,
      "address": "Ground Floor, NH 3, Gader, Barkheda Gird",
      "open_now": true
    },
    {
      "place_id": "ChIJ_YYF1ShZejkR6SCx0eVVp9c",
      "name": "Bhagwati energies, prashant pal",
      "lat": 24.5720735,
      "lng": 77.23115510000001,
      "address": "NH43, Panj",
      "open_now": true
    },
    {
      "place_id": "ChIJ5XIy_adZejkRZaKDNJK7CSU",
      "name": "Jio Bp petrol pump",
      "lat": 24.602693,
      "lng": 77.2520862,
      "address": "J732+3RG, Asian Highway 47, Bamoribugurj",
      "open_now": true
    },
    {
      "place_id": "ChIJb9Ps3LZdejkRTYlxdM1sAXk",
      "name": "IndianOil",
      "lat": 24.6221799,
      "lng": 77.2636831,
      "address": "Ground Floor, AB Road, Guna",
      "open_now": true
    },
    {
      "place_id": "ChIJBX2r4tlZejkRYaDSUPErAMk",
      "name": "Bharat Petroleum, Petrol Pump -Pratapchand Prakashchand Jain",
      "lat": 24.6218857,
      "lng": 77.26422529999999,
      "address": "GUNA BUS STAND, Guna",
      "open_now": true
    },
    {
      "place_id": "ChIJO3_CUYlZejkRQgVwlRCrmPY",
      "name": "NAYARA",
      "lat": 24.5815426,
      "lng": 77.2811917,
      "address": "H7JJ+JF8, Madhya Pradesh State Highway 23, Hirapur",
      "open_now": null
    },
    {
      "place_id": "ChIJR56I2I74ejkRvzOoRrgVSnU",
      "name": "IndianOil",
      "lat": 24.489774,
      "lng": 77.18011899999999,
      "address": "Lock 1157, 219, AB Road, Dharnawada",
      "open_now": true
    },
    {
      "place_id": "ChIJRTPzPAD5ejkRvcI3wOrjMWs",
      "name": "GAIL LNG STN VIJAIPUR",
      "lat": 24.46240899999999,
      "lng": 77.170549,
      "address": "F56C+X6, Raghogarh -Vijaypur",
      "open_now": null
    },
    {
      "place_id": "ChIJUftug8D5ejkR5PuSDAmpVPM",
      "name": "IndianOil",
      "lat": 24.4633358,
      "lng": 77.1697705,
      "address": "main gate, Lock No 1173/219, AB Road, Gail Vijaipur, Kheria, Raghogarh -Vijaypur",
      "open_now": true
    },
    {
      "place_id": "ChIJmahgX1_5ejkRybpBVw_C054",
      "name": "Hindustan Petroleum Corporation Limited",
      "lat": 24.4641743,
      "lng": 77.1721737,
      "address": "Ground Floor, Infront of Gail, NH 46, Guna Biaora Road, Raghogarh",
      "open_now": true
    },
    {
      "place_id": "ChIJ1842Iw75ejkRBEN_EbbhkNk",
      "name": "Bharat Petroleum, Petrol Pump -S S Sales And Service",
      "lat": 24.46880329999999,
      "lng": 77.1710267,
      "address": "VIJAYPUR NEAR NFL, DIST GU, Guna",
      "open_now": true
    },
    {
      "place_id": "ChIJy-Ntv1P5ejkR-hHo8ae1DSk",
      "name": "Dudh Supply",
      "lat": 24.4575583,
      "lng": 77.18039739999999,
      "address": "Barkhedi Mewati F52H, VHP, Raghogarh -Vijaypur",
      "open_now": null
    },
    {
      "place_id": "ChIJp3rOOgD5ejkRsXcHaG_xFXk",
      "name": "Amar bhagwati filling station",
      "lat": 24.4515101,
      "lng": 77.1804813,
      "address": "F52J+J46, Raghogarh -Vijaypur",
      "open_now": true
    },
    {
      "place_id": "ChIJEzpi8qj_ejkRhqtfXxzCgaM",
      "name": "Hindustan Petroleum Corporation Limited",
      "lat": 24.443491,
      "lng": 77.16098099999999,
      "address": "No 26, Rampura, Raghogarh -Vijaypur",
      "open_now": true
    },
    {
      "place_id": "ChIJ720GxWz5ejkRQE-HTVMti1w",
      "name": "Govind Surya 360",
      "lat": 24.45374,
      "lng": 77.1482066,
      "address": "Govind Surya 360, Guna",
      "open_now": null
    },
    {
      "place_id": "ChIJowGTLEL5ejkRxBXw8H25IIs",
      "name": "IndianOil",
      "lat": 24.465581,
      "lng": 77.14534700000002,
      "address": "Ground Floor Dongar Road, Raghogarh, Chainpura, Awan",
      "open_now": true
    },
    {
      "place_id": "ChIJZZImGdX5ejkReThlUwpdcd4",
      "name": "Nayak Filling And Kisan Sewa Kendra",
      "lat": 24.4654463,
      "lng": 77.1448583,
      "address": "F48W+32J, Vijaipur",
      "open_now": null
    },
    {
      "place_id": "ChIJoaqqqvlVejkR4YTehdKxw00",
      "name": "Jyotirmaya Petrol Pump",
      "lat": 24.4524096,
      "lng": 77.1904909,
      "address": "Jyotirmaya Petrol Pump Near Rest House Barbat Pura Aron Road Raghogarh, Raghogarh",
      "open_now": true
    },
    {
      "place_id": "ChIJZbZ0gDb_ejkR_jDZrFFRBy4",
      "name": "JYOTIRMAYA PETROL PUMP",
      "lat": 24.4481321,
      "lng": 77.1926335,
      "address": "Barbat Pura Road, Raghogarh -Vijaypur",
      "open_now": null
    },
    {
      "place_id": "ChIJP27i1SL5ejkRrblJQ7LktDo",
      "name": "Shree Sai Fuels",
      "lat": 24.4960657,
      "lng": 77.183025,
      "address": "F5WM+C6C, Pagara, Raghogarh -Vijaypur, Guna",
      "open_now": true
    },
    {
      "place_id": "ChIJKToFJyL_ejkRnt00uqEQl2o",
      "name": "SHAHEED RAMBEER SINGH TOMAR FILLING STATION",
      "lat": 24.3764059,
      "lng": 77.1250383,
      "address": "front of sugar factory, Village:Sorampura , Near Janjali NH 46, AB ROAD, Raghogarh -Vijaypur",
      "open_now": true
    },
    {
      "place_id": "ChIJ1bQyiuv_ejkR8H9n9IiVzb4",
      "name": "Hindustan Petroleum Corporation Limited",
      "lat": 24.377646,
      "lng": 77.12521009999999,
      "address": "Ground Floor, NH 46, Tiraha, Sorampura, Janjali",
      "open_now": true
    },
    {
      "place_id": "ChIJW9QFgbkDezkRVvHAf4uiPgo",
      "name": "IndianOil",
      "lat": 24.323214,
      "lng": 77.092064,
      "address": "Ground Floor, Barod, Binaganj, Khatkiya, Barkheda",
      "open_now": true
    },
    {
      "place_id": "ChIJGTct3UP-ejkRcteT7hYu1Wc",
      "name": "Mahakal Petrol Pump",
      "lat": 24.3817742,
      "lng": 77.1299665,
      "address": "94JH+PX4, Bishanpura",
      "open_now": true
    },
    {
      "place_id": "ChIJbRTMF_b_ejkRDfCJSNxMqoo",
      "name": "Hindustan Petroleum Corporation Limited",
      "lat": 24.381905,
      "lng": 77.12983009999999,
      "address": "Ground Floor, NH 46, Guna Biaora Road, Hazratpur, Guna",
      "open_now": true
    },
    {
      "place_id": "ChIJL4QqYjX_ejkR8no0US5LqfY",
      "name": "Bharat petrolium corporation limited",
      "lat": 24.3895536,
      "lng": 77.1348426,
      "address": "94QM+RWG, Awan",
      "open_now": null
    },
    {
      "place_id": "ChIJ0xeX9k8FezkRr3B8e0R_mGA",
      "name": "Jamnalal Petroleum Essar Dealer",
      "lat": 24.2323181,
      "lng": 77.0505191,
      "address": "63J2+W6C, Khanpura",
      "open_now": true
    },
    {
      "place_id": "ChIJGZDKSpoFezkRw4jNIaTyf-4",
      "name": "Bhagwan Das Petro Point (BP binaganj) कम्पनी का पम्प",
      "lat": 24.2061872,
      "lng": 77.0420032,
      "address": "Nh 46, bypass, Binaganj",
      "open_now": true
    },
    {
      "place_id": "ChIJERWN6h4FezkR21K7mILvyDU",
      "name": "Hindustan Petroleum Corporation Limited",
      "lat": 24.202816,
      "lng": 77.038975,
      "address": "Ground Floor, Old, Agra - Mumbai Highway, Binaganj",
      "open_now": true
    },
    {
      "place_id": "ChIJEWHKYY8FezkR-dHI9uN9oB8",
      "name": "Bharat Petroleum, Petrol Pump -Bhagwan Das Petroleum",
      "lat": 24.1947288,
      "lng": 77.03489929999999,
      "address": "Agra - Mumbai Highway, Chachaura-Binaganj",
      "open_now": true
    },
    {
      "place_id": "ChIJMRoQ-4JsezkR0qFl-tZFpl0",
      "name": "Bharat Petroleum",
      "lat": 23.9231,
      "lng": 76.9206,
      "address": "Byoara, Rajgarh, SH-14, Maksudangarh Road, Rajgarh, Rajgarh",
      "open_now": true
    },
    {
      "place_id": "ChIJJZJu9OhsezkRNyNM9cpbe7U",
      "name": "IndianOil",
      "lat": 23.936365,
      "lng": 76.95103600000002,
      "address": "Survey No 435, 1/1 & 435/1/2/1, Aamliyahat, Biaora",
      "open_now": true
    },
    {
      "place_id": "ChIJn3TQXnlrezkRoaQk2RT0w4E",
      "name": "Reliance Petroleum",
      "lat": 23.9085475,
      "lng": 76.8899704,
      "address": "vill, mohnipura, bypass road, Biaora",
      "open_now": true
    },
    {
      "place_id": "ChIJq3ZhDflrezkReWwFnw1jEIU",
      "name": "Hindustan Petroleum Corporation Limited",
      "lat": 23.9378601,
      "lng": 76.9165801,
      "address": "Khasra No 180/1, National Highway 46, Binaganj, Aranya",
      "open_now": true
    },
    {
      "place_id": "ChIJextCeABrezkRavK3sEksELc",
      "name": "Think Gas CNG gas station",
      "lat": 23.9287502,
      "lng": 76.9142354,
      "address": "WWH7+GM5, Biaora Road, Biaora",
      "open_now": true
    },
    {
      "place_id": "ChIJZfy4dgBrezkRcJaNyX83o24",
      "name": "Cng pump",
      "lat": 23.9268127,
      "lng": 76.9135079,
      "address": "WWG7+PCC, krishna Puram Colony, Biaora",
      "open_now": null
    },
    {
      "place_id": "ChIJecbHmfFrezkRtpppj52g1is",
      "name": "Maa Bhawani Fuel Station",
      "lat": 23.9289554,
      "lng": 76.90407429999999,
      "address": "near Nihaldevi Cold Storage, Nh 46, Guna Road, Biaora",
      "open_now": null
    },
    {
      "place_id": "ChIJv_HaRuJrezkRs8449bLtcFw",
      "name": "Hindustan Petroleum Corporation Limited",
      "lat": 23.9252949,
      "lng": 76.9129366,
      "address": "Infront Of Bus Stand, Plot No 255/1/11 & 255/1, Apna Nagar, Biaora",
      "open_now": true
    },
    {
      "place_id": "ChIJixSud3trezkRlchmm6hVLsc",
      "name": "Hindustan Petroleum Corporation Limited",
      "lat": 23.9219801,
      "lng": 76.9115101,
      "address": "Plot No 264/1 & 267, Old AB Road, Biaora",
      "open_now": true
    },
    {
      "place_id": "ChIJ73iNg3prezkR-OAkKeKkZSo",
      "name": "IndianOil",
      "lat": 23.921716,
      "lng": 76.906926,
      "address": "Survey No 107/11294/106/1, 1294/106/9, Biaora",
      "open_now": true
    },
    {
      "place_id": "ChIJnQlF0XZrezkRFBoFr0xKpd4",
      "name": "Nayara petrol pump-Aakash fuels",
      "lat": 23.924735,
      "lng": 76.8971589,
      "address": "NH-52 khasra no-93 katariyakhedi, Biaora",
      "open_now": true
    },
    {
      "place_id": "ChIJUTbni3htezkRqfsKmCc3Eyw",
      "name": "IndianOil",
      "lat": 23.91689899999999,
      "lng": 76.9204944,
      "address": "Shop No 652, 1/2, Khasr, Biaora",
      "open_now": true
    },
    {
      "place_id": "ChIJX3B2mVoTezkRnOr_6rITZp0",
      "name": "IndianOil",
      "lat": 23.9729842,
      "lng": 76.9274159,
      "address": "Ground Floor, AB Road, Bioara, Chatha",
      "open_now": true
    },
    {
      "place_id": "ChIJvW0L0aBrezkRV4bWXlUjttY",
      "name": "Jio-bp",
      "lat": 23.9086557,
      "lng": 76.89030269999999,
      "address": "Ground Floor, near Nh 3, Bypass Rd, Mohanpura, Mohinipura",
      "open_now": true
    },
    {
      "place_id": "ChIJZwXBDUITezkREm9FnQWzU3M",
      "name": "Bharat Petroleum, Petrol Pump -Priyanka Automobiles",
      "lat": 23.9844489,
      "lng": 76.93389719999999,
      "address": "KASORKALA, BIAORA, RAJGARH",
      "open_now": true
    },
    {
      "place_id": "ChIJ_85E57hrezkRGIyGXpFV2Mc",
      "name": "Hindustan Petroleum Corporation Limited",
      "lat": 23.890261,
      "lng": 76.887817,
      "address": "Plot No 42 & 43, Shajapur Guna Highway, Rajgarh, Biaora",
      "open_now": true
    },
    {
      "place_id": "ChIJ26QlBQhrezkR1MRzf82jSdY",
      "name": "Bharat Petroleum,Patel Fuel",
      "lat": 23.8634035,
      "lng": 76.85965259999999,
      "address": "NH52, Parsuliya, Biaora",
      "open_now": true
    },
    {
      "place_id": "ChIJh6v3fAZrezkRmPDAGyGbyD0",
      "name": "HAKIMI PETROLEUM AND CNG STATION",
      "lat": 23.8653061,
      "lng": 76.8615628,
      "address": "NH 52, pachore road, GRAM, Parsuliya",
      "open_now": true
    },
    {
      "place_id": "ChIJdX05DwVrezkRXM_z8WUMhzA",
      "name": "IndianOil",
      "lat": 23.8861952,
      "lng": 76.8851897,
      "address": "Ground Floor, NH 52, Agra - Mumbai Highway, Biaora",
      "open_now": true
    },
    {
      "place_id": "ChIJjSzyrH9bezkRs4kD42_dnTg",
      "name": "Petrol Pump",
      "lat": 23.7133677,
      "lng": 76.7312623,
      "address": "PP7J+8GR, Old Bridge Road, Pachore",
      "open_now": true
    },
    {
      "place_id": "ChIJK2fg4QldezkR2Au_spoXxXQ",
      "name": "Bharat Petroleum, Petrol Pump -Jagdish Filling Center",
      "lat": 23.71931440000001,
      "lng": 76.736639,
      "address": "BHOJPURIA PACHORE, RAJGARH",
      "open_now": true
    },
    {
      "place_id": "ChIJjbO7El9FezkR6hRUMHS0UPQ",
      "name": "Hindustan Petroleum Corporation Limited",
      "lat": 23.767234,
      "lng": 76.714192,
      "address": "Ground Floor, Dhatoori",
      "open_now": true
    },
    {
      "place_id": "ChIJIZAGVgBbezkRIE32K-sv96g",
      "name": "VISHNU FUELS RELAINCE JIO BP",
      "lat": 23.6868169,
      "lng": 76.6537896,
      "address": "MMP3+PGF, National Highway 52, Pachore",
      "open_now": null
    },
    {
      "place_id": "ChIJhY5ah15VezkRUMIUM5mXRBM",
      "name": "Lodi energy station",
      "lat": 23.6051749,
      "lng": 76.5271863,
      "address": "NH 52, SARANGPUR, TEHSIL, Dhanora",
      "open_now": true
    },
    {
      "place_id": "ChIJ86UUmY1WezkRgPLp3t7F14U",
      "name": "IndianOil",
      "lat": 23.6134737,
      "lng": 76.5684809,
      "address": "Ground Floor, Padana Road, Mau",
      "open_now": true
    },
    {
      "place_id": "ChIJHfS-TXFVezkR4woU0VV5tRU",
      "name": "IndianOil",
      "lat": 23.59338049999999,
      "lng": 76.5103024,
      "address": "Ground Floor, National Highway 52, Biloda Purbia",
      "open_now": true
    },
    {
      "place_id": "ChIJXUB7SURVezkRPW-OCn6JsRY",
      "name": "Shriram petroleum",
      "lat": 23.5919902,
      "lng": 76.50962779999999,
      "address": "Ward 8, nagar",
      "open_now": true
    },
    {
      "place_id": "ChIJw8iWDjhVezkRv2lZP4hW6yY",
      "name": "Bharat Petroleum",
      "lat": 23.5714,
      "lng": 76.46889999999999,
      "address": "NH-3, Mumbai–Agra Highway, Rajgarh, Sarangpur",
      "open_now": true
    },
    {
      "place_id": "ChIJcWlNDACrZDkRp5oACZKbmzM",
      "name": "malviya fuels & energy station",
      "lat": 23.55423489999999,
      "lng": 76.455744,
      "address": "Bypass road, Gopalpura",
      "open_now": true
    },
    {
      "place_id": "ChIJhY0CsvdVYzkRzkTHEysclZI",
      "name": "IndianOil",
      "lat": 23.5420342,
      "lng": 76.4402739,
      "address": "Ground Floor Ukawata, Moman Badodia",
      "open_now": true
    },
    {
      "place_id": "ChIJEa-hu0lVezkRPBVraPhqxGY",
      "name": "Reliance Petroleum",
      "lat": 23.5687101,
      "lng": 76.46404009999999,
      "address": "Ground Floor, Bus Stand, near Radha Roadways, Sagar",
      "open_now": true
    },
    {
      "place_id": "ChIJE7VQi1VVezkRPi2xtZsl8OE",
      "name": "Manglaj",
      "lat": 23.5666697,
      "lng": 76.4720968,
      "address": "HF8C+MR9, Sarangpur",
      "open_now": null
    },
    {
      "place_id": "ChIJd_xwI19VezkRB-NJooPzQFk",
      "name": "S B AGROTECH",
      "lat": 23.5728914,
      "lng": 76.47367009999999,
      "address": "Shoukat bhai ki dukan, Anil petrol pump, Padhliya Raod, Sarangpur",
      "open_now": true
    },
    {
      "place_id": "ChIJJ6mCmD9VezkROFmTqFQkHIs",
      "name": "IndianOil",
      "lat": 23.572408,
      "lng": 76.47419699999999,
      "address": "Ground Floor, AB road, Sarangpur",
      "open_now": true
    },
    {
      "place_id": "ChIJn0yAEwBVezkRfuFxCgvTRr4",
      "name": "Petrol tank",
      "lat": 23.5731051,
      "lng": 76.4766362,
      "address": "HFFG+8M6, Sarangpur",
      "open_now": null
    },
    {
      "place_id": "ChIJPzseIw5VezkRDFCUPBYRmKQ",
      "name": "IndianOil",
      "lat": 23.5680136,
      "lng": 76.4839159,
      "address": "S No 509/1/1/1510/3/1513/3/1, Sarangpur",
      "open_now": true
    },
    {
      "place_id": "ChIJ2RU7-pZVezkRgHKRM3UPBaI",
      "name": "NAKSHATRA HOME DESIGN",
      "lat": 23.5706054,
      "lng": 76.4824582,
      "address": "Shope No 02 Krishimandi, Akodia Road, Shajapur",
      "open_now": null
    },
    {
      "place_id": "ChIJI5wHkgFVezkRkWG9yPihkJ4",
      "name": "Anil Transport Co.",
      "lat": 23.5879954,
      "lng": 76.4719784,
      "address": "Plot no.434/1 Sandawta Road, Tehsil, Balodi",
      "open_now": true
    },
    {
      "place_id": "ChIJF4zRvfpVezkR5hD-pLNQJqs",
      "name": "Hindustan Petroleum Corporation Limited",
      "lat": 23.589268,
      "lng": 76.471693,
      "address": "Plot No 434/1, Sarangpur Road, Balodi",
      "open_now": true
    },
    {
      "place_id": "ChIJa39R3hNVezkR7zubn95X6no",
      "name": "Bharat Petroleum, Petrol Pump -Gopal Krishna Petroleum Palace",
      "lat": 23.5781099,
      "lng": 76.48677169999999,
      "address": "TALENI, National Highway 3, RAJGARH",
      "open_now": true
    },
    {
      "place_id": "ChIJJYWnD4FXYzkRvn6um1DCGOE",
      "name": "IndianOil",
      "lat": 23.4708825,
      "lng": 76.35279990000001,
      "address": "Ground Floor, AB Road, Sunera",
      "open_now": true
    },
    {
      "place_id": "ChIJkwgzQzlXYzkRbzacgRSO8RA",
      "name": "Police Welfare Petrol Pump Sig",
      "lat": 23.4709171,
      "lng": 76.3532699,
      "address": "Panwadi",
      "open_now": null
    },
    {
      "place_id": "ChIJpZfA1OFXYzkRRqyQc2HaAWs",
      "name": "Bharat Petroleum, Petrol Pump -Sarju Petroleum",
      "lat": 23.4529334,
      "lng": 76.33017889999999,
      "address": "SHAJAPUR UPTO 10 KM, Shajapur",
      "open_now": true
    },
    {
      "place_id": "ChIJ0zTQiNZWYzkRh7lg4Kvez58",
      "name": "Hindustan Petroleum Corporation Limited",
      "lat": 23.4478476,
      "lng": 76.3206379,
      "address": "Plot No 53 & 54, Agra - Mumbai Highway, Majhaniya",
      "open_now": true
    },
    {
      "place_id": "ChIJxZs9TQBXYzkRNhanlAJGW8c",
      "name": "Malviya Fuel stationery",
      "lat": 23.4450726,
      "lng": 76.3170547,
      "address": "NH52, Agra - Mumbai Highway, goaplpurs, Sarangpur",
      "open_now": null
    },
    {
      "place_id": "ChIJNc6kT21bYzkRHNf8V5YsGEk",
      "name": "GiriKisan Seva Kendra",
      "lat": 23.4151308,
      "lng": 76.270252,
      "address": "near Ranthbore, Ranthbhore Road, Near, Bhilsami",
      "open_now": null
    },
    {
      "place_id": "ChIJp9JOIQBRYzkRtQ_u9Meq_Zs",
      "name": "HP petroleum",
      "lat": 23.4182229,
      "lng": 76.2735926,
      "address": "C79F+7CP, Agra - Mumbai Highway, Shajapur",
      "open_now": null
    },
    {
      "place_id": "ChIJ5xpQ56BQYzkRJgpaMWtvMCQ",
      "name": "IndianOil",
      "lat": 23.41794,
      "lng": 76.27369399999999,
      "address": "Ground Floor Magariya, Agra - Mumbai Highway, Abhypur",
      "open_now": true
    },
    {
      "place_id": "ChIJK8-8cwBRYzkRmYDL3_P2T4k",
      "name": "Vishal Parmar",
      "lat": 23.4286632,
      "lng": 76.27561419999999,
      "address": "C7HG+C6V, Shajapur",
      "open_now": null
    },
    {
      "place_id": "ChIJA5oSn7xQYzkRPFu4-6u1rGM",
      "name": "Radha Petrol Pump And CNG",
      "lat": 23.4203521,
      "lng": 76.28454339999999,
      "address": "plot no. 41, Agra - Mumbai Highway, Shajapur",
      "open_now": true
    },
    {
      "place_id": "ChIJheljfp1RYzkRWgWfuUORg2I",
      "name": "Reliance Petroleum",
      "lat": 23.421565,
      "lng": 76.28655499999999,
      "address": "Tanki Chouraha, No 149, Ab Road, Mahapura, Shajapur",
      "open_now": true
    },
    {
      "place_id": "ChIJk0qrvrtQYzkRF-ic3x44orQ",
      "name": "Bharat Petroleum, Petrol Pump -Navinchandra & Co",
      "lat": 23.4225144,
      "lng": 76.2866985,
      "address": "near COOPERATIVE BANK, NH3,, near COOPERATIVE BANK, Shajapur",
      "open_now": true
    },
    {
      "place_id": "ChIJ2YoVtVhaYzkRoFMzyVgLZOo",
      "name": "Bharat Petroleum, Petrol Pump -Garg Petroleum",
      "lat": 23.38934,
      "lng": 76.2416877,
      "address": "SUWARKOTA, UJJAIN",
      "open_now": true
    },
    {
      "place_id": "ChIJD3dw3qBRYzkR0ebNhW5OIRQ",
      "name": "Hindustan Petroleum Corporation Limited",
      "lat": 23.41730799999999,
      "lng": 76.28947699999999,
      "address": "S No 98/1 99/1 & 100/1, Irrigation Colony, Shajapur",
      "open_now": true
    },
    {
      "place_id": "ChIJo3TsYVVDYzkR5hgDeTbLO_Q",
      "name": "Hindustan Petroleum Corporation Limited",
      "lat": 23.333817,
      "lng": 76.17764199999999,
      "address": "Ground Floor, NH 3, Agra - Mumbai Highway, Tarana, Rojwas",
      "open_now": true
    },
    {
      "place_id": "ChIJI9AGcplDYzkR1KJoGkp6fFY",
      "name": "IndianOil",
      "lat": 23.3275201,
      "lng": 76.1730101,
      "address": "Survey No 182/2, Ph No 78 Kanasiya, Rojawas, Tarana",
      "open_now": true
    },
    {
      "place_id": "ChIJRXR-peBbYzkRP28UhcNeOQM",
      "name": "IndianOil",
      "lat": 23.348499,
      "lng": 76.19533700000001,
      "address": "Ground Floor Kanasia, NH 3, Agra - Mumbai Highway, Tarana, Banjari",
      "open_now": true
    },
    {
      "place_id": "ChIJE6x0oxF1YzkRLGq1NwM3HiM",
      "name": "IndianOil",
      "lat": 23.30460889999999,
      "lng": 76.1598831,
      "address": "near Km Stone 295, NH 52 A B Road, Kanasiya, Tarana, near Km Stone 295, Chopra, Maksi",
      "open_now": true
    },
    {
      "place_id": "ChIJFyLxNkFDYzkRnPsw1sagOF0",
      "name": "Jiobp petrol pump",
      "lat": 23.299988,
      "lng": 76.15793049999999,
      "address": "8525+25, Maksi",
      "open_now": true
    },
    {
      "place_id": "ChIJfYdlwdtDYzkRTqb5jAGILVg",
      "name": "Bharat Petroleum",
      "lat": 23.246145,
      "lng": 76.1480776,
      "address": "Bhekhakhedi, Shajapur, NH-3, Mumbai–Agra Highway, Dewas",
      "open_now": true
    },
    {
      "place_id": "ChIJ4-vNXaBDYzkR6hiM9-CHpkQ",
      "name": "IndianOil",
      "lat": 23.2845941,
      "lng": 76.1525975,
      "address": "Ground Floor, Agra - Mumbai Highway, Kanasiya",
      "open_now": true
    },
    {
      "place_id": "ChIJh0K21C9DYzkRUclFnwmYy-E",
      "name": "Hindustan Petroleum Corporation Limited",
      "lat": 23.2438201,
      "lng": 76.17522009999999,
      "address": "PH 62, Khasra 1228, 4/6/2, Maksi - Jhonker Road, Jhonkar",
      "open_now": true
    },
    {
      "place_id": "ChIJAVJBvcZDYzkRnLzKOv8NC3Y",
      "name": "Highway Point Petrol Pump BPCL Dealer",
      "lat": 23.2574277,
      "lng": 76.1479559,
      "address": "744X+X5G, NH 3, Maksi",
      "open_now": null
    },
    {
      "place_id": "ChIJFxAcYABDYzkRITLuNbbMTLw",
      "name": "Shree Balaji filling station",
      "lat": 23.2594292,
      "lng": 76.14649030000001,
      "address": "745W+QHH, Maksi",
      "open_now": null
    },
    {
      "place_id": "ChIJd4UxIaZBYzkRp57fYU7JFtI",
      "name": "Hindustan Petroleum Corporation Limited",
      "lat": 23.221361,
      "lng": 76.150138,
      "address": "Ground Floor, NH 3, Agra - Mumbai Highway, Alari",
      "open_now": true
    },
    {
      "place_id": "ChIJI5O4p7xDYzkR5w3UeBtlvCw",
      "name": "Hindustan Petroleum Corporation Limited",
      "lat": 23.27345010000001,
      "lng": 76.1495101,
      "address": "Plot No 555 & 556, Shajapur Road, Old, Maksi",
      "open_now": true
    },
    {
      "place_id": "ChIJwSdnVbtDYzkRqPS8hDiAPvU",
      "name": "Jio-bp",
      "lat": 23.2757851,
      "lng": 76.1500658,
      "address": "Survey No 541, 5 & 541/6, Ab Road, Gadroli",
      "open_now": true
    },
    {
      "place_id": "ChIJAefqKgBBYzkRdCDsLWVZAGc",
      "name": "Shree Bhagya Shree Fuel Station",
      "lat": 23.20444649999999,
      "lng": 76.1511232,
      "address": "6532+QCH, Pipalyasadak",
      "open_now": null
    },
    {
      "place_id": "ChIJ8bXI6mw_YzkR4bPUWQiUCYk",
      "name": "Hindustan Petroleum Corporation Limited",
      "lat": 23.12424440000001,
      "lng": 76.14778679999999,
      "address": "Ground Floor, Agra - Mumbai Highway, Bairwakhedi, Tonkkalan",
      "open_now": true
    },
    {
      "place_id": "ChIJl9cgx_xBYzkRTv4_CP1W828",
      "name": "Bharat Petroleum (B.P.C.L.)",
      "lat": 23.1526261,
      "lng": 76.1501881,
      "address": "5532+334, Dewas to Maksi on NH A.B. road, in front of swami vivekanand education academy Padliya",
      "open_now": true
    },
    {
      "place_id": "ChIJo2TRbiVBYzkRzx74B6EQZNQ",
      "name": "Aditya Bharat Gas",
      "lat": 23.16282499999999,
      "lng": 76.152323,
      "address": "5572+4WG, Agra - Mumbai Highway, Padlya",
      "open_now": null
    },
    {
      "place_id": "ChIJ_36LKzs9YzkRT2b8vjKkqTQ",
      "name": "Hindustan Petroleum",
      "lat": 22.9716972,
      "lng": 76.120137,
      "address": "National Highway 86, Khatamba",
      "open_now": true
    },
    {
      "place_id": "ChIJ24SaN6M9YzkRmwviK63Ssmo",
      "name": "Shiv Leela Fuels..Bilawli",
      "lat": 23.0109696,
      "lng": 76.1018091,
      "address": "बिलावली",
      "open_now": true
    },
    {
      "place_id": "ChIJC0qsVIM9YzkRHmHzS1Liw2s",
      "name": "Hindustan Petroleum Corporation Limited",
      "lat": 23.0071083,
      "lng": 76.097168,
      "address": "Ground Floor, Bilawali, Dewas",
      "open_now": true
    },
    {
      "place_id": "ChIJI2L73r09YzkRdb7udD5Lfbw",
      "name": "Ameer Brothers Hindustan Petroleum",
      "lat": 23.00691729999999,
      "lng": 76.0971555,
      "address": "234W+QV6, Agra - Mumbai Highway, Durgapura",
      "open_now": null
    },
    {
      "place_id": "ChIJQxdd0X09YzkRSqzdCwF3V-4",
      "name": "IndianOil - SWAGAT",
      "lat": 22.9942148,
      "lng": 76.08821089999999,
      "address": "Ground Floor Bilawali, AB Road, Agrod",
      "open_now": true
    },
    {
      "place_id": "ChIJ6c-c0w89YzkRt0YWM2aP_yc",
      "name": "Shekhar Patel Pump",
      "lat": 22.9942789,
      "lng": 76.088105,
      "address": "Shop No. 5 NH 3, Bilawali N H 3, Maksi Road, Bilawali, Dewas",
      "open_now": null
    },
    {
      "place_id": "ChIJP4xWj9o9YzkRECmxxSoS1nM",
      "name": "Hindustan Petroleum Corporation Limited",
      "lat": 23.0407531,
      "lng": 76.1193062,
      "address": "Ground Floor, NH 3, Dewas Maksi Road, Sia",
      "open_now": true
    },
    {
      "place_id": "ChIJ32dLlGI9YzkRH4hvDBw2VmI",
      "name": "Hindustan Petroleum Corporation Limited",
      "lat": 22.98712,
      "lng": 76.08693,
      "address": "Ground Floor, Dewas Bypass Road, Bilawali, Dewas",
      "open_now": true
    },
    {
      "place_id": "ChIJKY0bTKQXYzkRvzhKetc6Vf8",
      "name": "Hindustan Petroleum Corporation Limited",
      "lat": 23.013661,
      "lng": 76.070121,
      "address": "Ground Floor, Dewas Vijayganj, Mandi Road, Amlawati, Borkhedidhakad",
      "open_now": true
    },
    {
      "place_id": "ChIJWwdLk6MXYzkR3MSzrFLUIfQ",
      "name": "IndianOil",
      "lat": 23.030116,
      "lng": 76.06874100000002,
      "address": "Ground Floor, Nipania Vijayaganj Mandi to, 16, Dewas Road, Agrod",
      "open_now": true
    },
    {
      "place_id": "ChIJRZne6nYXYzkRGqdp79AxjfU",
      "name": "Nayara Petrol Pump- Ekadanta Fuel Station",
      "lat": 23.037411,
      "lng": 76.06967709999999,
      "address": "Mudka",
      "open_now": true
    },
    {
      "place_id": "ChIJXVEYMAA9YzkRfqjLZihIEC4",
      "name": "Rudraksh petrol pump",
      "lat": 22.9707313,
      "lng": 76.1094021,
      "address": "X4C5+7QR, Dewas",
      "open_now": null
    },
    {
      "place_id": "ChIJHzBDcy49YzkRtNjqsRhscK4",
      "name": "Jio Bp Petrol Pump",
      "lat": 22.9703022,
      "lng": 76.1079634,
      "address": "X4C5+C6, Khatamba",
      "open_now": null
    },
    {
      "place_id": "ChIJu9VsA5I9YzkRSFFzsVTe2uU",
      "name": "IndianOil",
      "lat": 22.9700972,
      "lng": 76.1093621,
      "address": "Ground Floor, SH 18, Jetpura, Agrod",
      "open_now": true
    },
    {
      "place_id": "ChIJHeDbMTo9YzkRGDxpP8zIreI",
      "name": "Jain Petroleum",
      "lat": 22.9703921,
      "lng": 76.1151095,
      "address": "Indore - Bhopal Road, Indore",
      "open_now": true
    },
    {
      "place_id": "ChIJbU7aTNcZYzkR9hRkumJvwSc",
      "name": "IndianOil",
      "lat": 22.9423765,
      "lng": 76.028658,
      "address": "Ground Floor, Industrial Area, near Police Station, Agra - Mumbai Highway, Dewas",
      "open_now": true
    },
    {
      "place_id": "ChIJjUWza9YZYzkR3Eq_4zlmATE",
      "name": "Shriram and Sons, Bharat Petroleum",
      "lat": 22.9472351,
      "lng": 76.0321222,
      "address": "W2WJ+VRX, AB Road, Vikas Nagar, Ganga Nagar, Dewas",
      "open_now": null
    },
    {
      "place_id": "ChIJJ9z9JH4XYzkRvV4wNqzfeVU",
      "name": "Hindustan Petroleum Corporation Limited",
      "lat": 22.949871,
      "lng": 76.03544099999999,
      "address": "No 3 Stadium Road, AB Road, Dewas",
      "open_now": true
    },
    {
      "place_id": "ChIJvUpYTYwZYzkReYX70VXlCt8",
      "name": "Hindustan Petroleum Corporation Limited",
      "lat": 22.9192201,
      "lng": 76.00142009999999,
      "address": "Ground Floor, Agra - Mumbai Highway, Lohar Pipalya",
      "open_now": true
    },
    {
      "place_id": "ChIJ9WwZMAoZYzkRxQv0Hfr0bhE",
      "name": "Hindustan Petroleum Corporation Limited",
      "lat": 22.923143,
      "lng": 76.035079,
      "address": "Ground Floor, NH 3, Dewas Bypass Road, Palnagar",
      "open_now": true
    },
    {
      "place_id": "ChIJ5-tZY2MZYzkRTJBtTAOLlzQ",
      "name": "Katare Filling Station",
      "lat": 22.9233865,
      "lng": 76.0351458,
      "address": "65/2/1 Bhopal bye pass road, Industrial Area No.2, Dewas",
      "open_now": true
    },
    {
      "place_id": "ChIJ30MOCAAZYzkRR0SNg4U10YY",
      "name": "G D Gautam Energy Station",
      "lat": 22.9320457,
      "lng": 76.051653,
      "address": "W3J2+RM6, Indore - Bhopal Road, Dewas",
      "open_now": null
    },
    {
      "place_id": "ChIJx6KLhY0ZYzkRL4wDjUSZxxQ",
      "name": "Jio-bp",
      "lat": 22.9194689,
      "lng": 76.00378359999999,
      "address": "Ground Floor, opposite Gulmohar Dhaba, Nh 3, AB Road, Lohar Pipalya",
      "open_now": true
    },
    {
      "place_id": "ChIJL6HaRDwYYzkRDMweeD0Os-Q",
      "name": "IndianOil",
      "lat": 22.9359342,
      "lng": 76.05892779999999,
      "address": "Survey No 417, Ph No 57 1/1/2 & 445/1/2, Shankargarh, Agrod",
      "open_now": true
    },
    {
      "place_id": "ChIJLdHNSX8XYzkRv3pGFxlLtjw",
      "name": "IndianOil",
      "lat": 22.955357,
      "lng": 76.039563,
      "address": "Survey No 640, 641 645/3, Dewas Junior, Agrod",
      "open_now": true
    },
    {
      "place_id": "ChIJ1XeI_l0ZYzkRyKcgKb7ZVyg",
      "name": "Nayara petroleum - Lucky fuel station",
      "lat": 22.9432854,
      "lng": 76.063847,
      "address": "Dewas byy pass Village sankar gard",
      "open_now": true
    },
    {
      "place_id": "ChIJMxQ_4ocZYzkRu4umzbjL-oI",
      "name": "IndianOil",
      "lat": 22.9105201,
      "lng": 75.9938301,
      "address": "Ground Floor, Agra - Mumbai Highway, Kshipra",
      "open_now": true
    },
    {
      "place_id": "ChIJ7UWyehkYYzkRdVBVkbP-Hzs",
      "name": "BPCL Petrol Pump",
      "lat": 22.9440643,
      "lng": 76.0675275,
      "address": "Dewas",
      "open_now": null
    },
    {
      "place_id": "ChIJdZQFgicXYzkRH5PrZQVbugw",
      "name": "IndianOil",
      "lat": 22.963618,
      "lng": 76.02741999999999,
      "address": "Ground Floor Mendki, Chak, Agrod",
      "open_now": true
    },
    {
      "place_id": "ChIJXXcb5JIcYzkRozT7-a07cnM",
      "name": "IndianOil",
      "lat": 22.8252836,
      "lng": 75.93208709999999,
      "address": "Lock No 29/2, Agra - Mumbai Highway, Manglaya Sadak, Ratlam",
      "open_now": true
    },
    {
      "place_id": "ChIJfWkFkukdYzkReR4C8B_zU_A",
      "name": "Jio-bp",
      "lat": 22.8417857,
      "lng": 75.9435397,
      "address": "opposite Hpc Bottling Plant, Ground Floor Nh 3, Ab Road, Sanwer, Lasudia Parmar, opposite Hpc Bottling Plant, Indore",
      "open_now": true
    },
    {
      "place_id": "ChIJXzp2wJYbYzkRLBesEKZZDGA",
      "name": "IndianOil",
      "lat": 22.77674,
      "lng": 75.93634709999999,
      "address": "CGO Complex Bypass Road, NH 3, Mayakhedi, Indore",
      "open_now": true
    },
    {
      "place_id": "ChIJMdOViHIdYzkRbH9ksBCyJ44",
      "name": "Essar-Nayara Petrol Pump",
      "lat": 22.7744181,
      "lng": 75.93528169999999,
      "address": "QWFP+Q47, Bypass Rd, Omaxe City 1, Nipania, Indore",
      "open_now": true
    },
    {
      "place_id": "ChIJTS3lITIdYzkRaKWCsDy0Xr4",
      "name": "Nayara Petrol Pump",
      "lat": 22.7845221,
      "lng": 75.9053577,
      "address": "QWM4+R45, AB Road, Sda Compound, Lasudia Mori, Indore",
      "open_now": true
    },
    {
      "place_id": "ChIJ11z9i0odYzkRY489KAbjbq8",
      "name": "IndianOil",
      "lat": 22.7820778,
      "lng": 75.9053392,
      "address": "Ground Floor, AB Road, Lasudia Mori, Barlai Jagir",
      "open_now": true
    },
    {
      "place_id": "ChIJ30cIbM8DYzkRQsnn0dJV1HQ",
      "name": "IndianOil",
      "lat": 22.8129164,
      "lng": 75.93711739999999,
      "address": "Ground Floor, near Regenta Hotel, NH 3, Manglaya Sadak, sanwer",
      "open_now": true
    },
    {
      "place_id": "ChIJawDm1wUdYzkRa4l8-ma5pQ8",
      "name": "Sharanya Mobilities",
      "lat": 22.8200172,
      "lng": 75.9383757,
      "address": "282/4, Indore",
      "open_now": true
    },
    {
      "place_id": "ChIJSW52Wk0dYzkRqa27yDYb9Po",
      "name": "Reva Kishan sewa kendra",
      "lat": 22.8182455,
      "lng": 75.9437674,
      "address": "Sula Khedi Road, Manglaya Sadak, Indore",
      "open_now": true
    },
    {
      "place_id": "ChIJl9e3qUkdYzkRqlZmX6hJPBw",
      "name": "IndianOil",
      "lat": 22.8185001,
      "lng": 75.94380009999999,
      "address": "Survey No 12/3, Ph, No 60, Sanwer, Sullakhedi, Barlai Jagir",
      "open_now": true
    },
    {
      "place_id": "ChIJbc1_ecIcYzkRIMk0sBX7vCs",
      "name": "BPCL Manglia Depot",
      "lat": 22.8143491,
      "lng": 75.9227378,
      "address": "Manglaya Sadak, Indore",
      "open_now": null
    },
    {
      "place_id": "ChIJHYgGSwAdYzkRgTNBd-8UDr0",
      "name": "HPCL T.T driver room",
      "lat": 22.8187495,
      "lng": 75.92223419999999,
      "address": "RW9C+FVX, Manglaya Sadak, Indore",
      "open_now": null
    },
    {
      "place_id": "ChIJOdc3HAAdYzkRre_RGx_8tLc",
      "name": "S R KUMAWAT FUELS (BPCL)",
      "lat": 22.79178,
      "lng": 75.937046,
      "address": "QWRQ+J3W, Manglaya Sadak, Indore",
      "open_now": true
    },
    {
      "place_id": "ChIJwYuiA4YcYzkRu5qaBkqs8Wg",
      "name": "IndianOil",
      "lat": 22.836144,
      "lng": 75.940902,
      "address": "KM Stone, Ground Floor NH 3, Raukhedi,Badayala Mata, near No 591/2, Ratlam",
      "open_now": true
    },
    {
      "place_id": "ChIJP_ykAvsdYzkRELCO0GgG8Ac",
      "name": "IndianOil",
      "lat": 22.8270845,
      "lng": 75.9164632,
      "address": "Ground Floor Sanwer, Gari Pipliya, Barlai Jagir",
      "open_now": true
    },
    {
      "place_id": "ChIJqYvy6-YdYzkRG7DjoLXDcw8",
      "name": "IndianOil",
      "lat": 22.8017902,
      "lng": 75.91411880000001,
      "address": "11 AB Road, Talawali Chanda Lane, Manglaya Sadak, Indore",
      "open_now": true
    },
    {
      "place_id": "ChIJq8RhMgAdYzkRvnyrFavxKcE",
      "name": "HP petrol and CNG pump",
      "lat": 22.8305516,
      "lng": 75.9143867,
      "address": "RWJ7+6QC, Gari Pipalya",
      "open_now": null
    },
    {
      "place_id": "ChIJlfnK4DgdYzkRfmF7ux4qXgM",
      "name": "Bharat Petroleum Petrol Pump , SHREE SAI FILLING CENTER",
      "lat": 22.7980169,
      "lng": 75.9124435,
      "address": "AB Road, ROADMANGALIYA, Indore",
      "open_now": true
    },
    {
      "place_id": "ChIJISxrKgAdYzkRi9dEBU0sYIU",
      "name": "Office DLS INFRAMAKER",
      "lat": 22.813066,
      "lng": 75.906305,
      "address": "Singapore British Park, near Dewas Naka, 157-B, Indore",
      "open_now": true
    },
    {
      "place_id": "ChIJK6iqwjEdYzkRh4nu_0qJtSI",
      "name": "Aavantika Gas Limited CNG Station",
      "lat": 22.8420203,
      "lng": 75.9437829,
      "address": "India",
      "open_now": null
    },
    {
      "place_id": "ChIJX6NupTjjYjkRLiuI6mYbrW0",
      "name": "IndianOil",
      "lat": 22.6838604,
      "lng": 75.9144657,
      "address": "HSD Site No 376, Nemawar Road, Musakhedi, Datoda",
      "open_now": true
    },
    {
      "place_id": "ChIJvbmMLy3jYjkRFBVH4oAY1aE",
      "name": "IndianOil",
      "lat": 22.6872796,
      "lng": 75.9014641,
      "address": "CGO Complex, 37, Nemawar Road, Udhyog Nagar, Musakhedi, Indore",
      "open_now": true
    },
    {
      "place_id": "ChIJ7TINFjfjYjkRmZufJdC8-Xs",
      "name": "Bharat Petroleum - Kumudini Enterprises",
      "lat": 22.6857564,
      "lng": 75.90933729999999,
      "address": "MWP5+8P4, Nemawar Road, Udhyog Nagar, Palda, Indore",
      "open_now": true
    },
    {
      "place_id": "ChIJ34zFynHjYjkRUp04ie3yyvQ",
      "name": "Bharat Petroleum",
      "lat": 22.675118,
      "lng": 75.93607209999999,
      "address": "Near Punjab Dhaba, Crescent Road,AB Road, Dudhia, Indore",
      "open_now": null
    },
    {
      "place_id": "ChIJu21bis_8YjkRy0yVv3APKqg",
      "name": "Maharaja Agrasen Petroleum",
      "lat": 22.6895623,
      "lng": 75.888369,
      "address": "Babulal Nagar, Dev Nagar, 180, Eastern Ring Road, Babulal Nagar, Khati Mohalla, Musakhedi, Indore",
      "open_now": null
    },
    {
      "place_id": "ChIJrTHVYMX8YjkRIRP75vY7UwQ",
      "name": "Hindustan Petroleum Corporation Limited",
      "lat": 22.6896485,
      "lng": 75.8879963,
      "address": "Scheme No 94H, No 22A & 23B, Ring Road, Vijay Udyog Nagar, Udhyog Nagar, Indore",
      "open_now": true
    },
    {
      "place_id": "ChIJO-f1B8D8YjkRf85XGeNgJH8",
      "name": "Bharat Petroleum, Petrol Pump -H.S. Road Carriers",
      "lat": 22.6785507,
      "lng": 75.8781407,
      "address": "PALDA VILLAGE,NEAR GURUDRA, Indore",
      "open_now": true
    },
    {
      "place_id": "ChIJe-exWE_7YjkRzJUfaVLyfmw",
      "name": "IndianOil",
      "lat": 22.64004300000001,
      "lng": 75.88798299999999,
      "address": "Ground Floor, Khandwa Road Kelod Kartal, Datoda, Kasturba Nagar, Indore",
      "open_now": true
    },
    {
      "place_id": "ChIJw3qjx6fjYjkRp8tEdwEMj7s",
      "name": "IndianOil",
      "lat": 22.6710891,
      "lng": 75.917621,
      "address": "Ground Floor, Dev Guradia Road, Dosdar, Nayta Mundla, Datoda",
      "open_now": null
    },
    {
      "place_id": "ChIJBTKWtuPjYjkRXGJct6XI0zE",
      "name": "BIO CNG PLANT INDORE",
      "lat": 22.6763184,
      "lng": 75.9273079,
      "address": "MWGG+GWF, Nemawar Road, Indore",
      "open_now": true
    },
    {
      "place_id": "ChIJc-7gV0fjYjkRANkmfXoWG4E",
      "name": "Hindustan Petroleum Corporation Limited",
      "lat": 22.6821811,
      "lng": 75.9167764,
      "address": "Ground Floor, Patthar Mundla, Nemawar Road, Palda, Indore",
      "open_now": true
    },
    {
      "place_id": "ChIJ91PyOiXjYjkRFmbYWYTL60c",
      "name": "Hindustan Petroleum Corporation Limited",
      "lat": 22.675091,
      "lng": 75.90357399999999,
      "address": "Ground Floor, Palda, Rto Road, Udhyog Nagar, Pathar Mundla, Indore",
      "open_now": true
    },
    {
      "place_id": "ChIJUfrcEATjYjkR3GEim--_oVM",
      "name": "RK FUELS",
      "lat": 22.6750161,
      "lng": 75.9035335,
      "address": "MWG3+2C3, Dev Guradia Road, Udhyog Nagar, Nayta Mundla, Indore",
      "open_now": true
    },
    {
      "place_id": "ChIJK0NJgjfjYjkRLjaLwrW_A5w",
      "name": "Bharat Petroleum, Petrol Pump -Patel Malhar Fuels",
      "lat": 22.6842771,
      "lng": 75.911016,
      "address": "PALDA NEMAWAR ROAD,INDORE, Indore",
      "open_now": true
    },
    {
      "place_id": "ChIJY8XAN-bjYjkR4qBMU7Cn_5I",
      "name": "IndianOil",
      "lat": 22.685101,
      "lng": 75.911537,
      "address": "Ground Floor, Nemawar Road, Musakhedi, Indore",
      "open_now": true
    },
    {
      "place_id": "ChIJM6QpRkv9YjkRDUOcqHd8ZV8",
      "name": "Gaurav Petrol Pump",
      "lat": 22.6810238,
      "lng": 75.8969109,
      "address": "Sanjay Gandhi Nager, 6, New RTO Road, Dinesh Nagar, Palda, Indore",
      "open_now": null
    },
    {
      "place_id": "ChIJc7UZgjTjYjkR2D_MlRbDKX8",
      "name": "Reliance Petrol Pump",
      "lat": 22.6867721,
      "lng": 75.9016077,
      "address": "Dinesh Nagar, Palda, Indore",
      "open_now": true
    },
    {
      "place_id": "ChIJgZBGldn9YjkRuTrSmD8w0cM",
      "name": "IndianOil",
      "lat": 22.6872858,
      "lng": 75.8988984,
      "address": "Khasra No 326/1, Palda, Indore",
      "open_now": true
    },
    {
      "place_id": "ChIJ1dX8b8LjYjkRjdb59qZJr1M",
      "name": "Hindustan Petroleum Corporation Limited",
      "lat": 22.6940005,
      "lng": 75.9250425,
      "address": "Gut No 148/2/3, NH 52, AB Road, Bicholi Mardana, Indore",
      "open_now": true
    },
    {
      "place_id": "ChIJKe9PLhjjYjkRo1eDdh0SORI",
      "name": "Sampat Fuels",
      "lat": 22.6952393,
      "lng": 75.92554919999999,
      "address": "Sampat Hills, Bicholi Mardana, Indore",
      "open_now": true
    },
    {
      "place_id": "ChIJQcqI1vf7YjkRV4igN8Q_5bQ",
      "name": "IndianOil",
      "lat": 22.6500876,
      "lng": 75.8209072,
      "address": "Emerald school, Ground Floor Ab Road, Rau, Pigdamber Infront of, Indore",
      "open_now": true
    },
    {
      "place_id": "ChIJjdornF_5YjkRz1sFuwQA6tw",
      "name": "IndianOil",
      "lat": 22.628418,
      "lng": 75.80560299999999,
      "address": "CGO Complex, Rau Square, AB Road, Indore",
      "open_now": true
    },
    {
      "place_id": "ChIJ8TzRaJP7YjkRAbIwR6c5NOo",
      "name": "IndianOil",
      "lat": 22.6346429,
      "lng": 75.8318331,
      "address": "Ground Floor, Indore Bypass Road, Pigdamber, Indore",
      "open_now": true
    },
    {
      "place_id": "ChIJvYG-WPf7YjkRvVrjtptkKyo",
      "name": "Bharat Petroleum",
      "lat": 22.6452,
      "lng": 75.8186,
      "address": "Shramik Colony, Rau, Raumhow, Rdindor, NH-3, Agra Bombay Road, Ab Road, Indore",
      "open_now": true
    },
    {
      "place_id": "ChIJZzedYV_5YjkRj2Bi1HRky8Y",
      "name": "HP Petrol Pump",
      "lat": 22.6296914,
      "lng": 75.80673329999999,
      "address": "Mega City Circle, Rau, Indore",
      "open_now": null
    },
    {
      "place_id": "ChIJ18PaGgn8YjkR6mXkgUJlWhc",
      "name": "Bharat Petroleum, Petrol Pump -Nimar Auto Centre",
      "lat": 22.6541723,
      "lng": 75.821929,
      "address": "HUKUMAKHEDI,RAJENDRA NGR P, Indore",
      "open_now": true
    },
    {
      "place_id": "ChIJbZ7ibWT5YjkRMW8BpE6W-FM",
      "name": "Bharat Petroleum - Granth Petro/CNG Filling Station",
      "lat": 22.6155355,
      "lng": 75.7990192,
      "address": "Pigdambar",
      "open_now": true
    },
    {
      "place_id": "ChIJ-d0UaQD7YjkR5PDeKh2odko",
      "name": "Hindustan Petroleum Corporation Limited",
      "lat": 22.630991,
      "lng": 75.818147,
      "address": "1244/2, 1244/1/2, Survey No 950/2, AB Road, Rau, Indore",
      "open_now": true
    },
    {
      "place_id": "ChIJuxdHLwD7YjkRN3qvF1s1PXQ",
      "name": "A one petroleum",
      "lat": 22.630871,
      "lng": 75.8181464,
      "address": "Ashok Vatika, 553/2/1, Rau, Indore",
      "open_now": true
    },
    {
      "place_id": "ChIJa345NPf7YjkRCYhLv2HCtOQ",
      "name": "IndianOil",
      "lat": 22.6381003,
      "lng": 75.813851,
      "address": "Ground Floor, AB Road, Rau, Indore",
      "open_now": true
    },
    {
      "place_id": "ChIJFabWfcH7YjkRIugtCGA64Ro",
      "name": "TRIVENDRA KA GHAR",
      "lat": 22.6329859,
      "lng": 75.8104335,
      "address": "JRM6+55V, Rau, Indore",
      "open_now": null
    },
    {
      "place_id": "ChIJW9N9HAz5YjkRhwAB0BYKatI",
      "name": "Hindustan Petroleum Corporation Limited",
      "lat": 22.6303307,
      "lng": 75.80697599999999,
      "address": "Ground Floor, AB Road, Rau, Indore",
      "open_now": true
    },
    {
      "place_id": "ChIJu4xZHe77YjkRYuhT_nyJkw0",
      "name": "Bharat Petroleum, Petrol Pump -Ramsingh & Sons",
      "lat": 22.63938,
      "lng": 75.84980270000001,
      "address": "NIHALPURMUNDI,NH-3 BY-PASS, Indore",
      "open_now": true
    },
    {
      "place_id": "ChIJg5idOOL7YjkRA7SwNwLstaY",
      "name": "Shell Printpack Pvt Ltd",
      "lat": 22.653026,
      "lng": 75.8211002,
      "address": "No 475, AB Road, Rajendra Nagar, Indore",
      "open_now": null
    },
    {
      "place_id": "ChIJ95GC8lf5YjkRZCcg1J9W7PA",
      "name": "Nayara petrol pump",
      "lat": 22.6381193,
      "lng": 75.8056845,
      "address": "JRQ4+67V, CAT Road, Rau, Indore",
      "open_now": null
    },
    {
      "place_id": "ChIJJcCejuv9YjkRo4UEpOcchqA",
      "name": "Motiram fuels",
      "lat": 22.6644369,
      "lng": 75.8338356,
      "address": "near pani ki tanki, Silicon City road, near pani ki tanki, Main Road Bijalpur, Bijalpur, Indore",
      "open_now": true
    },
    {
      "place_id": "ChIJu6YVyIv5YjkRYqXwKvFRiWQ",
      "name": "IndianOil",
      "lat": 22.6322139,
      "lng": 75.7939359,
      "address": "Ground Floor Pigdamber, near Iim Indore Gate, to, Cat Sq Road, Indore",
      "open_now": true
    },
    {
      "place_id": "ChIJFxn3BlL5YjkRY6ifu5orS90",
      "name": "IndianOil",
      "lat": 22.6426406,
      "lng": 75.7954977,
      "address": "Survey No. 640/2 Village Rangwasa, Rangwasa Road, Rau, Indore",
      "open_now": true
    },
    {
      "place_id": "ChIJOX5oOwD5YjkR_5R_AQL7h0I",
      "name": "Jirati Fuel Station",
      "lat": 22.616329,
      "lng": 75.7985807,
      "address": "JQ8X+GCP, Pigdambar, Indore",
      "open_now": null
    },
    {
      "place_id": "ChIJ3X9--5n9YjkRPnl7qTNV3cA",
      "name": "Bharat Petroleum, Petrol Pump -Ratankamal Automobiles",
      "lat": 22.6657039,
      "lng": 75.827803,
      "address": "INDORE RD, RAU, MHOW",
      "open_now": true
    },
    {
      "place_id": "ChIJP1IBzsxXYjkRJpr_PwrcZ6M",
      "name": "Bharat Petroleum Petrol Pump",
      "lat": 22.5923731,
      "lng": 75.6989435,
      "address": "HMRX+WHW, Indrapuri Colony Main Rd, Pithampur Industrial Area, Indore",
      "open_now": true
    },
    {
      "place_id": "ChIJAQVvGpX4YjkRJKUYNAG41qQ",
      "name": "IndianOil",
      "lat": 22.6168749,
      "lng": 75.7353964,
      "address": "Ground Floor, Amjhera",
      "open_now": true
    },