{
  "city": "Bhavnagar",
  "state": "Gujarat",
  "count": 72,
  "center": {
    "lat": 21.7675,
    "lng": 72.1397
  },
  "pumps": [
    {
      "place_id": "ChIJRzCQgGlRXzkRuIxUiSYqMkY",
      "name": "IndianOil",
      "address": "Ground Floor Vartej, Gujarat State Highway 25, Bhikhda, Bhavnagar",
      "lat": 21.741899,
      "lng": 72.06454,
      "open_now": true
    },
    {
      "place_id": "ChIJY21E42pRXzkRp2uNkwuTBCg",
      "name": "Hindustan Petroleum Corporation Limited",
      "address": "S No 111, Plot No 34, Bhavnagar Rajkot Highway, Vartej",
      "lat": 21.742291,
      "lng": 72.068271,
      "open_now": true
    },
    {
      "place_id": "ChIJNYjsm2ZRXzkR99B97lSWomQ",
      "name": "Jio-bp",
      "address": "Survey No 18 Sh 25, Bhavnagar, Highway, Rajkot",
      "lat": 21.7434967,
      "lng": 72.05467180000001,
      "open_now": true
    },
    {
      "place_id": "ChIJ2WkER_tQXzkRPB7JDV4yxM4",
      "name": "Bharat Petroleum CNG Gas Station",
      "address": "Q442+9JR, Bhavnagar - Rajkot Road, Chitra, Bhavnagar",
      "lat": 21.7559845,
      "lng": 72.10151379999999,
      "open_now": true
    },
    {
      "place_id": "ChIJuWQOE51XXzkR84gfGlc5Zps",
      "name": "Ambika petro company",
      "address": "Sidsar to, Road, Sidsar, Valukad",
      "lat": 21.7025929,
      "lng": 72.1119514,
      "open_now": true
    },
    {
      "place_id": "ChIJN4SqZj9RXzkRfy6VUXZECSU",
      "name": "IndianOil",
      "address": "Survey No 191/Paiki 2, Bhikhda,Sidsar, Shampara",
      "lat": 21.7253107,
      "lng": 72.1021513,
      "open_now": true
    },
    {
      "place_id": "ChIJr3VP3zpXXzkRKIqGNIeYXck",
      "name": "Shivshakti petroleum",
      "address": "Road, Sidsar, Valukad",
      "lat": 21.6852407,
      "lng": 72.1136867,
      "open_now": true
    },
    {
      "place_id": "ChIJt79rtTZXXzkRD-TblibprUI",
      "name": "Hindustan Petroleum Corporation Limited",
      "address": "Survey No 164 & 165P1 SH 36, Vartej, Bhavnagar - Sidsar Road, Budhel",
      "lat": 21.7144638,
      "lng": 72.1123159,
      "open_now": true
    },
    {
      "place_id": "ChIJ0aiduEFRXzkRhLYoO2-1REE",
      "name": "Bharat Petroleum, Petrol Pump - Shah Petroleum (Vartej)",
      "address": "Vartej",
      "lat": 21.7405438,
      "lng": 72.0630984,
      "open_now": null
    },
    {
      "place_id": "ChIJz_vDEABXXzkRn30uQiSl5vU",
      "name": "H. V. S. Farm",
      "address": "M4C4+GWM, Valukad",
      "lat": 21.6713419,
      "lng": 72.107295,
      "open_now": null
    },
    {
      "place_id": "ChIJU4E1bQBRXzkRubfrdw3n2vo",
      "name": "CNG gas",
      "address": "P3R9+VPC, opp. INDIANOIL, NR SIDSAR ROAD, CHOWKDI, Vartej",
      "lat": 21.7421831,
      "lng": 72.06926709999999,
      "open_now": null
    },
    {
      "place_id": "ChIJT68PrgZRXzkRX_pkajwmCTw",
      "name": "IndianOil",
      "address": "Ground Floor, SH 25, Vartej",
      "lat": 21.7422838,
      "lng": 72.0694097,
      "open_now": true
    },
    {
      "place_id": "ChIJ-ROprGtRXzkRCUz65CFtVqc",
      "name": "R.K.Petroleum",
      "address": "P3R8+XW8, Vartej",
      "lat": 21.74241469999999,
      "lng": 72.0673216,
      "open_now": null
    },
    {
      "place_id": "ChIJDUKMZcRlujsRSuTsTrofUSo",
      "name": "IndianOil",
      "address": "Survey No 404 Paiki 1, Chavdigate, Vartej",
      "lat": 21.7406071,
      "lng": 72.0449308,
      "open_now": true
    },
    {
      "place_id": "ChIJPaxOYxBRXzkRiI1ANNIJk4c",
      "name": "IndianOil",
      "address": "Lock No 21016/2 A Site, Vartej, Bhavnagar Chavdigate, Bhavnagar",
      "lat": 21.750097,
      "lng": 72.0817048,
      "open_now": true
    },
    {
      "place_id": "ChIJo2Rh0TNRXzkR4CJNdy5BTW4",
      "name": "Shell Petrol Pump",
      "address": "Marutinadan Township, Chitra, Bhavnagar",
      "lat": 21.749339,
      "lng": 72.08717899999999,
      "open_now": true
    },
    {
      "place_id": "ChIJla45Vu1TXzkR1d7dfAelUFk",
      "name": "IndianOil",
      "address": "Aawadkrupa\" survey no-131-A, Bhavnagar - Rajkot Road, highway, Navagam",
      "lat": 21.7319459,
      "lng": 72.0232686,
      "open_now": true
    },
    {
      "place_id": "ChIJeezQYgBXXzkR9C0NgBErlzI",
      "name": "Bharat Petroleum - Shree Gurukrupa Petroleum",
      "address": "opposite Naimisharanya School, Bhavnagar - Sidsar Road, Bhavnagar",
      "lat": 21.7208546,
      "lng": 72.1265864,
      "open_now": null
    },
    {
      "place_id": "ChIJASo5kg9RXzkRsfhdWFO06Mw",
      "name": "BPCL Shiv Petroleum & CNG",
      "address": "Survey no. 183/3,plot no.2,bhavnagar-dholera road,near nari chowkdi,vartej, National Highway 751, Chitra Gujarat Industrial Development Corporation, Bhavnagar",
      "lat": 21.7543265,
      "lng": 72.0815836,
      "open_now": true
    },
    {
      "place_id": "ChIJ6UDnU6ZRXzkRv9MHMK5zh8o",
      "name": "Patanjali Petroleum Patnjali Diesel",
      "address": "Q34J+CXP, Chitra Gujarat Industrial Development Corporation, Bhavnagar",
      "lat": 21.7560769,
      "lng": 72.0824505,
      "open_now": null
    },
    {
      "place_id": "ChIJcX8rQ9BTXzkRAo-YCIuqY_U",
      "name": "IndianOil",
      "address": "Ground Floor Transportnagar, Monpar, near Old Ahmedabad, Road, Kardej",
      "lat": 21.749449,
      "lng": 72.03716700000001,
      "open_now": true
    },
    {
      "place_id": "ChIJaXjgTABRXzkRIFIhJRfDNZM",
      "name": "Shree ramdsv automobiles",
      "address": "Q442+9JJ, near Mastrambapa Temple, Chitra, Bhavnagar",
      "lat": 21.7560392,
      "lng": 72.1014902,
      "open_now": null
    },
    {
      "place_id": "ChIJ5__3fqdRXzkRNE4WcC7e5CY",
      "name": "Reliance Petroleum",
      "address": "Survey No 185, near Milestone No 167, Paiki, Gujarat State Highway 6, Nari",
      "lat": 21.7640973,
      "lng": 72.0793123,
      "open_now": true
    },
    {
      "place_id": "ChIJkfIALehTXzkRmMXw-ZnVa0o",
      "name": "Hindustan Petroleum Corporation Limited",
      "address": "Ground Floor, Kardej",
      "lat": 21.754142,
      "lng": 72.024141,
      "open_now": true
    },
    {
      "place_id": "ChIJgTv_cQBZXzkRBXu91PB_RlM",
      "name": "Hanumant Petroleum",
      "address": "HANUMANT CHOWKDI, Budhel",
      "lat": 21.6944674,
      "lng": 72.1464457,
      "open_now": true
    },
    {
      "place_id": "ChIJS-hCIwBZXzkR2bS8yrqFwKY",
      "name": "Petrol pump IOCL",
      "address": "M4VW+PJ8, Budhel",
      "lat": 21.6942852,
      "lng": 72.1465885,
      "open_now": null
    },
    {
      "place_id": "ChIJx530TS1YXzkRAnJeqQ4u280",
      "name": "IndianOil",
      "address": "S No 135, Lakadiya, near Budhel, Bhavnagar",
      "lat": 21.679767,
      "lng": 72.15268999999999,
      "open_now": true
    },
    {
      "place_id": "ChIJo6WLgw5aXzkRVL59koVaJkg",
      "name": "Swastik Auto Service and CNG Station",
      "address": "P5R2+V3Q, Dukhi Shyam Bapa Circle, Kaminiyanagar, Bhavnagar",
      "lat": 21.742345,
      "lng": 72.1499855,
      "open_now": true
    },
    {
      "place_id": "ChIJj4ljQgxaXzkRF9_4t8tuFbM",
      "name": "Hindustan Petroleum Corporation Limited",
      "address": "opposite Ram Mantra Mandir, Plot No 2557, Talaja Road, Bhavnagar",
      "lat": 21.7449701,
      "lng": 72.14903699999999,
      "open_now": true
    },
    {
      "place_id": "ChIJ70Rg5_1YXzkRa7yFjVBLeL8",
      "name": "Hindustan Petroleum Corporation Limited",
      "address": "Survey No 46, P1/p2 SH 36, Ghogha Rd, Ghogha, Budhel",
      "lat": 21.683292,
      "lng": 72.1953442,
      "open_now": true
    },
    {
      "place_id": "ChIJXRzdWTpaXzkRCTpKrMBqkjM",
      "name": "Hindustan Petroleum Corporation Limited",
      "address": "PN 5, Sy No 90/1P, FP No 2, TPS No 12 Shivaji Circle, Ghogha Road, Tarsimiya Part",
      "lat": 21.75374399999999,
      "lng": 72.16284519999999,
      "open_now": true
    },
    {
      "place_id": "ChIJ9_410YdQXzkRywT_qHn-WRg",
      "name": "Jio-bp",
      "address": "Survey No 5684/P, Plot No 7 & 8, Nilambaug, Bhavnagar",
      "lat": 21.767189,
      "lng": 72.130347,
      "open_now": true
    },
    {
      "place_id": "ChIJqz-N2odQXzkRBC9oQiPP10I",
      "name": "IndianOil",
      "address": "Ground Floor, Nilambaug Circle Road, Bhavnagar",
      "lat": 21.767546,
      "lng": 72.130341,
      "open_now": true
    },
    {
      "place_id": "ChIJp0Y2LNpZXzkRuD5OXadGpSA",
      "name": "Chandarana Petrol Pump",
      "address": "Gujarat State Highway 36, Budhel",
      "lat": 21.6936329,
      "lng": 72.1480692,
      "open_now": null
    },
    {
      "place_id": "ChIJ96aAaChYXzkRQI7kJFLBA5Y",
      "name": "Gujarat Gas CNG Station",
      "address": "M49V+FFC, Nesvad",
      "lat": 21.6686806,
      "lng": 72.14362899999999,
      "open_now": true
    },
    {
      "place_id": "ChIJLTp9aChYXzkR34wC31gl6xE",
      "name": "IndianOil",
      "address": "S No 167/172/P, Mamsa, Neswad Bhavnagar Talaja Road, National Highway 8E, Lakadiya",
      "lat": 21.668674,
      "lng": 72.143885,
      "open_now": true
    },
    {
      "place_id": "ChIJuYJAkWBZXzkRu6eB67vcK38",
      "name": "RAJ CHAMUNDA ESSAR OIL PETROLEUM",
      "address": "Avani Impax, Survey Number 74, Tagadi, Budhel, 3, Gujarat State Highway 36, Tagdi",
      "lat": 21.68240279999999,
      "lng": 72.17880339999999,
      "open_now": null
    },
    {
      "place_id": "ChIJbyC7RE9bXzkRq3_jsA-t0O0",
      "name": "Sainath Petroleum",
      "address": "Leela Circle, Bhavnagar",
      "lat": 21.7379575,
      "lng": 72.147916,
      "open_now": true
    },
    {
      "place_id": "ChIJaW3m0GRbXzkRZNmqjewOLnM",
      "name": "ANJANI PETROLEUM NAYARA",
      "address": "150 Ft, Ring Road, Bhavnagar",
      "lat": 21.7378402,
      "lng": 72.1606413,
      "open_now": null
    },
    {
      "place_id": "ChIJ1wTO2dhbXzkRMbt1Y1nLCZ0",
      "name": "Gujarat Gas CNG Station",
      "address": "P5R2+V3Q, Kaminiyanagar, Bhavnagar",
      "lat": 21.7422789,
      "lng": 72.1500865,
      "open_now": true
    },
    {
      "place_id": "ChIJQ6vWu55RXzkRqwIL4NhwjaA",
      "name": "Shell",
      "address": "Victoria Park Road, Vidhyanagar, Bhavnagar",
      "lat": 21.748448,
      "lng": 72.137891,
      "open_now": true
    },
    {
      "place_id": "ChIJMbRkBJlQXzkRCDIDw9h25Ik",
      "name": "Planet Petroleum",
      "address": "ISCON Mega City, Vidhyanagar, isconmega",
      "lat": 21.7502142,
      "lng": 72.13325460000001,
      "open_now": true
    },
    {
      "place_id": "ChIJpQv0V0xbXzkR5bwbUf1Wx3Q",
      "name": "Hindustan Petroleum Corporation Limited",
      "address": "Survey No 116P, Plot No 4 & 5, SH 37, Ghogha Road, Bhavnagar",
      "lat": 21.743017,
      "lng": 72.175141,
      "open_now": true
    },
    {
      "place_id": "ChIJ_4GOWDpaXzkRo07_fGxkh0Y",
      "name": "SB Petroleum",
      "address": "Gujarat State Highway37, HadaNagar, Bhavnagar",
      "lat": 21.7431931,
      "lng": 72.1753763,
      "open_now": null
    },
    {
      "place_id": "ChIJoyfCYL9bXzkR1n256yS60wc",
      "name": "KRISHIV PETROLEUM",
      "address": "ESSAR patrol pump, Akwada",
      "lat": 21.7364588,
      "lng": 72.1882542,
      "open_now": true
    },
    {
      "place_id": "ChIJfcIZHMpbXzkRgXfhNETxDM8",
      "name": "Bharat Petroleum,Petrol Pump -Bhavnagar ભારત પેટ્રોલીયમ, પેટ્રોલ પંપ -ભાવનગર સહકારી પેટ્રોલ પંપ",
      "address": "Nirma Circle, near Bahucharaji Temple, Old, Shivaji Circle, Ghogha Jakatnaka Lakhawad, Bhavnagar",
      "lat": 21.7546427,
      "lng": 72.16080269999999,
      "open_now": true
    },
    {
      "place_id": "ChIJmSTSUNRbXzkR-a5oJk00Yp0",
      "name": "ESSAR Petrol Pump",
      "address": "P5MR+HW9, Akwada",
      "lat": 21.7339167,
      "lng": 72.1923523,
      "open_now": null
    },
    {
      "place_id": "ChIJ6fLaF3ZbXzkR5ebX_hz0Kxk",
      "name": "Shell Petrol Pump",
      "address": "Shifa Tower, near Mokhadaji Circle, Ghogha Road, Bhavnagar",
      "lat": 21.75785399999999,
      "lng": 72.158536,
      "open_now": true
    },
    {
      "place_id": "ChIJK2nMAblbXzkRjXvEp6DAFYY",
      "name": "AARADHANA FUELS",
      "address": "150 feet, Ring Road, Bhavnagar",
      "lat": 21.7546904,
      "lng": 72.1720476,
      "open_now": true
    },
    {
      "place_id": "ChIJB5Bj1ntaXzkR5gN8eE2_UYY",
      "name": "Jio-bp",
      "address": "near Vihar Complex, Plot No 2107/B, Hill Drive, Bhavnagar",
      "lat": 21.7633093,
      "lng": 72.14765799999999,
      "open_now": true
    },
    {
      "place_id": "ChIJLQAvcnlaXzkR4gA027zvImw",
      "name": "Krishna Gas Agency",
      "address": "Shree Gijubhai Badheka Road near maltiben na saval gana pase Tirth raj complex, Takhteshwar, Vidhyanagar, Bhavnagar",
      "lat": 21.765072,
      "lng": 72.1448087,
      "open_now": null
    },
    {
      "place_id": "ChIJmdriFXtaXzkRpUKcefV_Ukg",
      "name": "Kamdar K H Sales",
      "address": "Kantawalo Delo ; Bhavnagar, Undi Vakhar, Undi Vakhar, Bhavnagar",
      "lat": 21.7644725,
      "lng": 72.15193040000001,
      "open_now": null
    },
    {
      "place_id": "ChIJe29HC2VRXzkRmWzCnzu5khE",
      "name": "IndianOil",
      "address": "Ground Floor, Desai Nagar, Bhavnagar Para, Bhavnagar",
      "lat": 21.760414,
      "lng": 72.11192299999999,
      "open_now": true
    },
    {
      "place_id": "ChIJax-fzu1bXzkRgORXnV4_C40",
      "name": "GUJARAT PETROLUEM",
      "address": "opp. Kabrastan, Plot No.1144-A, Ghogha Circle, Bhavnagar",
      "lat": 21.76479029999999,
      "lng": 72.1532493,
      "open_now": true
    },
    {
      "place_id": "ChIJ84zA98VRXzkR-OBjvPdMwIM",
      "name": "JK PETROLEUM",
      "address": "Navagam Dhal Kanpar",
      "lat": 21.7678032,
      "lng": 72.1304983,
      "open_now": null
    },
    {
      "place_id": "ChIJhe6dNvVZXzkRNBPDTkb5NgQ",
      "name": "Matoshri Petroleum",
      "address": "Survey . No. 122, Pipaliya pool, 4/1, to, Bhuteshwar",
      "lat": 21.6861609,
      "lng": 72.2229148,
      "open_now": true
    },
    {
      "place_id": "ChIJyVivPtNYXzkRzR07zD7xSyg",
      "name": "IndianOil",
      "address": "Ground Floor, near Piplya Bridge, SH 37, Hathab Road, Bhumbhli",
      "lat": 21.6816799,
      "lng": 72.2356052,
      "open_now": true
    },
    {
      "place_id": "ChIJXckNJdpfXzkRxKwuILYhOn4",
      "name": "Bharat Petroleum Petrol Pump , YOGESHWARI TRADING SERVICES",
      "address": "SURVEY NO. 34 / 2BHAVNAGAR - KOLIYAK, ROAD, Bhavnagar",
      "lat": 21.676993,
      "lng": 72.23960699999999,
      "open_now": null
    },
    {
      "place_id": "ChIJC0qGu4BaXzkRkI6egD4dp38",
      "name": "IndianOil",
      "address": "Ground Floor, Shilpi Nagar, Bhavnagar",
      "lat": 21.773958,
      "lng": 72.14563799999999,
      "open_now": true
    },
    {
      "place_id": "ChIJe-CHL_pRXzkRIjxn9E-cx0c",
      "name": "Bharat Petroleum, Petrol Pump - Kathiawar Motor Sales & Service",
      "address": "RO OPP-ST BUS STAND, BHAVNAGAR, Bhavnagar",
      "lat": 21.7703585,
      "lng": 72.1363023,
      "open_now": true
    },
    {
      "place_id": "ChIJgagtvYJaXzkR-ta-7C3n0vA",
      "name": "Honest Petroleum",
      "address": "Q4JR+FW9, Opposite Satkaar Guest House, Railway Station Road, Bhavnagar",
      "lat": 21.7811715,
      "lng": 72.142359,
      "open_now": null
    },
    {
      "place_id": "ChIJ008mcJ1aXzkRtAEu4SbR--4",
      "name": "IndianOil",
      "address": "Ward No 1, Moti Talav Road, Bhavnagar",
      "lat": 21.784453,
      "lng": 72.14255519999999,
      "open_now": true
    },
    {
      "place_id": "ChIJjQot4IJaXzkRxEXwwRl7ifM",
      "name": "Bhavanagar Sahkari Petrol Pump Li.",
      "address": "near Railway Station, Sakar Bazar Road, Sutarwad, Bhavnagar",
      "lat": 21.7810921,
      "lng": 72.14453519999999,
      "open_now": null
    },
    {
      "place_id": "ChIJfdsTs0dbXzkR4OS4nJLDlhA",
      "name": "IndianOil",
      "address": "Ground Floor, opposite Municipal Corporation, Kalanala, Panwadi, Bhavnagar",
      "lat": 21.771601,
      "lng": 72.146301,
      "open_now": true
    },
    {
      "place_id": "ChIJOZjDpIBaXzkRfXXC0N3Vxeg",
      "name": "Hindustan Petroleum Corporation Limited",
      "address": "Survey No, 21, Mangal Sinhji Road, Kalanala, Bhavnagar",
      "lat": 21.772075,
      "lng": 72.14641499999999,
      "open_now": true
    },
    {
      "place_id": "ChIJiwoh3fpbXzkRb4GhyqIrPGk",
      "name": "Bharat Petroleum, Petrol Pump - Natwarlal & Sons",
      "address": "COLLECTOR OFFICE, BHAVNAGA, Bhavnagar",
      "lat": 21.7725418,
      "lng": 72.14648199999999,
      "open_now": null
    },
    {
      "place_id": "ChIJ6VWUH6NaXzkRclQf1lIIrQY",
      "name": "Bharat Petroleum",
      "address": "Q5X2+5QR, Juna Bandar, Bhavnagar",
      "lat": 21.7979999,
      "lng": 72.1519,
      "open_now": null
    },
    {
      "place_id": "ChIJXQx0nPdbXzkR7qLusHIHTBY",
      "name": "IndianOil",
      "address": "Ground Floor, Old Port Road, Bhavnagar",
      "lat": 21.788685,
      "lng": 72.147903,
      "open_now": true
    },
    {
      "place_id": "ChIJ056kUQdbXzkRSLTTvzgesc4",
      "name": "Shree pitru ashish petroleum",
      "address": "New essar pump,beside kal bhairavnath mandir,lakadiya, pool, Juna Bandar, Bhavnagar",
      "lat": 21.7977525,
      "lng": 72.1461126,
      "open_now": true
    },
    {
      "place_id": "ChIJ8RKjixlPXzkR6hZGkXeXtOQ",
      "name": "RAJ SHAKTI PETROLEUM",
      "address": "RAJ SHAKTI PETROLEUM, AHEMDABAD HIGHWAY, Nava Madhiya",
      "lat": 21.8785966,
      "lng": 72.0666589,
      "open_now": true
    },
    {
      "place_id": "ChIJGzbzHbVOXzkRQj7Kk3oHokg",
      "name": "Hindustan Petroleum Corporation Limited",
      "address": "Survey No 125, SH 6, Bhavnagar Dholera Road, Sanes",
      "lat": 21.898921,
      "lng": 72.068341,
      "open_now": true
    },
    {
      "place_id": "ChIJn9jUfEpJXzkRCNk9hKG_5EY",
      "name": "IndianOil",
      "address": "Ground Floor, Nirma Chowkdi, Sanesh, Monpur",
      "lat": 21.9039245,
      "lng": 72.0699475,
      "open_now": true
    }
  ]
}