{
  "city": "Vadodara",
  "state": "Gujarat",
  "count": 261,
  "center": {
    "lat": 22.3072,
    "lng": 73.1812
  },
  "pumps": [
    {
      "place_id": "ChIJ_6gQNEjGXzkRY_jwXxbG8CU",
      "name": "Essar Petrol Pump",
      "address": "74FW+788, Atladara, Vadodara",
      "lat": 22.2731676,
      "lng": 73.1458284,
      "open_now": true
    },
    {
      "place_id": "ChIJu_BkvyrGXzkR7NhCSNBn6RA",
      "name": "OM PETROLEUM (NAYARA RO)",
      "address": "BRIGHT CBSE SCHOOL, Vasna - Bhayli Main Road, OPPOSITE, Vadodara",
      "lat": 22.2906482,
      "lng": 73.1315731,
      "open_now": true
    },
    {
      "place_id": "ChIJbw0USyTBXzkRBMF2SPn2RFs",
      "name": "Bhagwati Petroleum",
      "address": "Block No. 1406/B, Bill-Chansad-Itola Road, Village Chansad, Ta. Padra, Vadodara",
      "lat": 22.184067,
      "lng": 73.1432915,
      "open_now": true
    },
    {
      "place_id": "ChIJT1eYtBXGXzkRAKfMDVduu-E",
      "name": "IndianOil",
      "address": "RS No 632, near Kalali, Phatak, Atladara, Vadodara",
      "lat": 22.277617,
      "lng": 73.161369,
      "open_now": true
    },
    {
      "place_id": "ChIJT0W8_8LIXzkRFB27jHoJVn8",
      "name": "Shell",
      "address": "Old Padra Road, Vadodara",
      "lat": 22.283883,
      "lng": 73.164582,
      "open_now": true
    },
    {
      "place_id": "ChIJcSgAV2HHXzkR_rx96QSaW1M",
      "name": "Shell Petrol Pump VP Road",
      "address": "Bageshree Enterprise, Padra Road, Vadodara",
      "lat": 22.2592811,
      "lng": 73.11392169999999,
      "open_now": true
    },
    {
      "place_id": "ChIJCZCDi4XHXzkR8jKL8HKcH2Q",
      "name": "Hindustan Petroleum Corporation Limited",
      "address": "733W+W97, Survey No 432 SH 6, Radra Road, Padra, Vadodara",
      "lat": 22.25460799999999,
      "lng": 73.095467,
      "open_now": true
    },
    {
      "place_id": "ChIJB3gLfn_HXzkRrj6ZKNjQbV4",
      "name": "Milestone petroleum",
      "address": "Sangma, Padra",
      "lat": 22.2544046,
      "lng": 73.0946852,
      "open_now": true
    },
    {
      "place_id": "ChIJYbCHIM65XzkRLISaPpbsuGk",
      "name": "Harekrishna Petroleum",
      "address": "Survey No. 186, Padra, karjan, road, Padra",
      "lat": 22.2284333,
      "lng": 73.0857297,
      "open_now": true
    },
    {
      "place_id": "ChIJpVeoiBa5XzkRdsvMRFxpbcU",
      "name": "Khodiyar Petroleum(BPCL)With CNG Station & PUC CENTER",
      "address": "beside MAMA party plot, opposite Western India Ceramics Ltd, Padra",
      "lat": 22.2487721,
      "lng": 73.0867712,
      "open_now": true
    },
    {
      "place_id": "ChIJR0qbWX64XzkRbNLoHtHMGRM",
      "name": "Hindustan Petroleum Corporation Limited",
      "address": "Ground Floor, Padra",
      "lat": 22.2448301,
      "lng": 73.0840501,
      "open_now": true
    },
    {
      "place_id": "ChIJf-bv6X64XzkRGg3dzSYaY1E",
      "name": "M/s. F. Patel & Co. Petrol Pump with CNG Station",
      "address": "Voda Colony, Padra",
      "lat": 22.2464958,
      "lng": 73.0837493,
      "open_now": true
    },
    {
      "place_id": "ChIJ09XfwAC5XzkRoPE_HSR_iGg",
      "name": "Bharat Petroleum, Petrol Pump -Nandi Petroleum",
      "address": "Jambusar - Padra Road, Laxmi Nagar, Vadodara",
      "lat": 22.2416098,
      "lng": 73.08036799999999,
      "open_now": true
    },
    {
      "place_id": "ChIJa1-YdADHXzkRk95qih6zIwo",
      "name": "SHIVAM ENERGY",
      "address": "B-73, Bill Road, Atladara, Vadodara",
      "lat": 22.258039,
      "lng": 73.134005,
      "open_now": null
    },
    {
      "place_id": "ChIJ57_4OBzHXzkRZIb5rqdWBbE",
      "name": "maa petroleum nayara petrol pump gokalpura western by pass road",
      "address": "7495+5R, Vadodara",
      "lat": 22.267964,
      "lng": 73.1094585,
      "open_now": true
    },
    {
      "place_id": "ChIJR08pOQDHXzkR_s2mX_O0W0E",
      "name": "BP- GORIYAD",
      "address": "6442+QV, Sareja",
      "lat": 22.2066721,
      "lng": 73.1025033,
      "open_now": true
    },
    {
      "place_id": "ChIJkb4UzBW5XzkRAkmO6EHK-ak",
      "name": "Bharat Petroleum Petrol Pump , MAA PETROLEUM",
      "address": "PADRA JAMBUSAR HIGHWAYAT & PO PADRA, Vadodara",
      "lat": 22.239984,
      "lng": 73.0707359,
      "open_now": true
    },
    {
      "place_id": "ChIJh_QZM9nHXzkReuz1xlaDNro",
      "name": "Nayara Petrol Pump - Akshar Petroleum",
      "address": "opp. Pramukh Swami Sabha Gruh, Survey Num-1872,Bhimpura-Samiyala, opp. Pramukh Swami Sabha Gruh, State Highway, Chansad",
      "lat": 22.20432680000001,
      "lng": 73.1336839,
      "open_now": true
    },
    {
      "place_id": "ChIJtQfAk7jHXzkRb-B9t1W4QRg",
      "name": "BHARAT PETROLEUM PARSHWA ENTERPRISE",
      "address": "Opp. Broadway commercial hub, IIRA International School Road, Vadodara",
      "lat": 22.2745916,
      "lng": 73.13060229999999,
      "open_now": true
    },
    {
      "place_id": "ChIJ1yd7rzjHXzkRRfWJUam0wI8",
      "name": "SHRIHARI PHARMACHEM, ANALYTICAL CONSULTANT",
      "address": "Broadway business hub, opp. to bharat petroleum, 27, Sun Pharma Road, Bhayli, Vadodara",
      "lat": 22.27434559999999,
      "lng": 73.1313394,
      "open_now": true
    },
    {
      "place_id": "ChIJZ_khewDHXzkRt5iwSQQiSZw",
      "name": "Pramukh Swami petroleum",
      "address": "74CV+6MJ, Atladara, Vadodara",
      "lat": 22.2704721,
      "lng": 73.14418420000001,
      "open_now": null
    },
    {
      "place_id": "ChIJf4I0CQDHXzkRIE78IjDHI38",
      "name": "Hindustan Petroleum Corporation Limited",
      "address": "Survey No 254, A1 Vadoda, Yogi Road, Kalali, Vadodara",
      "lat": 22.2665993,
      "lng": 73.14915549999999,
      "open_now": true
    },
    {
      "place_id": "ChIJr0XNXADHXzkRq7cNKTVj3DM",
      "name": "BHARAT PETROLEUM (SHASTRIJI PETROLEUM)",
      "address": "748X+VF8, opp. Dip's Party Plot, Akshar Char Rasta, Jalaram Nagar, Atladara, Vadodara",
      "lat": 22.2671711,
      "lng": 73.1487178,
      "open_now": true
    },
    {
      "place_id": "ChIJbe_SGQDBXzkRTwqa_otEx1w",
      "name": "BP-SARASWANI",
      "address": "53VX+23, Vadodara",
      "lat": 22.1925625,
      "lng": 73.09768749999999,
      "open_now": true
    },
    {
      "place_id": "ChIJ5bXEg_W4XzkReLD0OqM883E",
      "name": "H P Petrolpump",
      "address": "63Q6+P9W, Gujarat State Highway 160, Suvarnapuri, Padra",
      "lat": 22.2393731,
      "lng": 73.0609401,
      "open_now": null
    },
    {
      "place_id": "ChIJF8BRLwDBXzkRZJw89-kOJlk",
      "name": "Bharat Petrol Pump - Petrol - Diesel",
      "address": "53RX+R7, Madapur",
      "lat": 22.192106,
      "lng": 73.09817,
      "open_now": true
    },
    {
      "place_id": "ChIJOYxRGW7HXzkRGpbkh7ZhjoI",
      "name": "Vadodara Gas Limited CNG Station",
      "address": "near LG Petroleum, Raypura Road, Moti Bhagol, Bhayli, Vadodara",
      "lat": 22.2843148,
      "lng": 73.118222,
      "open_now": true
    },
    {
      "place_id": "ChIJR39gvdvHXzkRcJCyIz4IH14",
      "name": "Hindustan Petroleum Corporation Limited",
      "address": "Block No 1171, Road, Bhayli, Raipura",
      "lat": 22.28442699999999,
      "lng": 73.11817599999999,
      "open_now": true
    },
    {
      "place_id": "ChIJE_7Alnm5XzkRMbWRB6ZZ23o",
      "name": "Hindustan Petroleum Corporation Limited",
      "address": "Survey No 503, P1, Jambusar - Padra Road, Vadodara",
      "lat": 22.2407783,
      "lng": 73.0590617,
      "open_now": true
    },
    {
      "place_id": "ChIJ____r2jGXzkRU2_kTnZQ58w",
      "name": "Alfa Petroleum",
      "address": "623, Nt Kalali Fatak, Atladara, Vadodara",
      "lat": 22.2629871,
      "lng": 73.1637253,
      "open_now": null
    },
    {
      "place_id": "ChIJE8GhtW_PXzkRWNlfgaS-QBM",
      "name": "FAITH PETROLEUM",
      "address": "above Saffron Galaxy Appartment, Kismat Chokdi, Vadodara",
      "lat": 22.2852815,
      "lng": 73.1426871,
      "open_now": true
    },
    {
      "place_id": "ChIJ__wqKgDHXzkR2WbjXs7rSns",
      "name": "Hindustan Petroleum Corporation Limited",
      "address": "Survey No 189, Vasna - Bhayli Main Road, Vadodara",
      "lat": 22.2856837,
      "lng": 73.1423429,
      "open_now": true
    },
    {
      "place_id": "ChIJOZ3CdDnHXzkR47DFMmVira8",
      "name": "Bharat Petroleum, Petrol Pump -Premshanti Petroleum",
      "address": "CITY SURVEY NO. 1125 AND 1126, Atladara, Vadodara",
      "lat": 22.2802975,
      "lng": 73.1530904,
      "open_now": true
    },
    {
      "place_id": "ChIJA0yZMgDHXzkRYZ_4taR_aUY",
      "name": "Hindustan Petroleum Corporation Limited",
      "address": "Survey No 428, Susen - Tarsali Ring Road, Kalali, Vadodara",
      "lat": 22.26657380000001,
      "lng": 73.1668315,
      "open_now": true
    },
    {
      "place_id": "ChIJ9_UyAlvHXzkRPiv3BY1lsyQ",
      "name": "NAYARA ENERGY Petrol Station",
      "address": "Survey No. 428, Nayara Petrol Pump, near DPS School, Ring Rd, Vadsar, Kalali, Vadodara",
      "lat": 22.2661727,
      "lng": 73.1672099,
      "open_now": true
    },
    {
      "place_id": "ChIJj5SkFgDHXzkRcFV53-Fh9Pk",
      "name": "Bharat Petroleum BPCL Fuel Station",
      "address": "7598+CCG, opposite Delhi Public School, Ring Rd, Vadsar, Muj Mahuda, Khalali",
      "lat": 22.268563,
      "lng": 73.166074,
      "open_now": true
    },
    {
      "place_id": "ChIJgy6WNQDHXzkRJ2K6ZzZsBTQ",
      "name": "Vadodara gas ltd cng station",
      "address": "Mayfair Atrium, opposite Delhi Public School, Ring Rd, Kalali, Vadodara",
      "lat": 22.2684218,
      "lng": 73.1662343,
      "open_now": true
    },
    {
      "place_id": "ChIJQ9jYKubHXzkRuoDpBAI8MSI",
      "name": "Shell Petrol Pump",
      "address": "Taluka And District, 63, Susen - Tarsali Ring Road, Manjalpur, Vadodara",
      "lat": 22.267326,
      "lng": 73.167209,
      "open_now": true
    },
    {
      "place_id": "ChIJqepZI53JXzkROqum1wSezOE",
      "name": "Shell Select",
      "address": "near Priya Cinema, Opposite Anand Kiran Residency, near Priya Cinema, Sevasi - Canal Road, Bhayli, Vadodara",
      "lat": 22.29775,
      "lng": 73.127056,
      "open_now": true
    },
    {
      "place_id": "ChIJZ8gLJbnHXzkRyeZljNjuX58",
      "name": "Madhavmani petroleum",
      "address": "61, Sun Pharma Road, Atladara, Vadodara",
      "lat": 22.2805699,
      "lng": 73.1597537,
      "open_now": true
    },
    {
      "place_id": "ChIJ244pUXrGXzkRhlOB1756XtI",
      "name": "Ameesh Enterprises, BPCL Petrol Pump",
      "address": "Susen - Tarsali Ring Road, Vadsar, Kalali, Vadodara",
      "lat": 22.2610248,
      "lng": 73.1737275,
      "open_now": true
    },
    {
      "place_id": "ChIJ238PEFrHXzkR_KpfulL9BTc",
      "name": "Jamil Ahmed Iqbal Sindhi",
      "address": "Nh8 VGL Station Satkar Hotel Valan, Vadodara",
      "lat": 22.2865594,
      "lng": 73.15283629999999,
      "open_now": null
    },
    {
      "place_id": "ChIJlT0zv_DBXzkRQAnBI29quLo",
      "name": "IndianOil",
      "address": "Survey No 1302, Husepur, Padra, Sarar",
      "lat": 22.1763914,
      "lng": 73.0905835,
      "open_now": true
    },
    {
      "place_id": "ChIJVZUeW-DHXzkRA0yfuBRhsus",
      "name": "IndianOil",
      "address": "T P No 22, near Patrakar Chauraha, F P No107, Tandalja Road, Ahmed Nagar, Vadodara",
      "lat": 22.289929,
      "lng": 73.152458,
      "open_now": true
    },
    {
      "place_id": "ChIJZ8z0n27HXzkRa0I5Z2s37FM",
      "name": "petrolium",
      "address": "75, Santoshnagar, Vadodara",
      "lat": 22.285016,
      "lng": 73.159896,
      "open_now": null
    },
    {
      "place_id": "ChIJ2aWLruG5XzkRRPWyZoD12C8",
      "name": "ESSAR PETROL PUMP",
      "address": "62VR+Q2G, Vadodara",
      "lat": 22.2444364,
      "lng": 73.0400782,
      "open_now": null
    },
    {
      "place_id": "ChIJGZNuHqTJXzkRoO6UERI2bWw",
      "name": "Hindustan Petroleum Corporation Limited",
      "address": "Survey No 1575/2, near Nilamber Circle, Plot No 140, Vasna Road, TP 16, Vadodara",
      "lat": 22.29907499999999,
      "lng": 73.139353,
      "open_now": true
    },
    {
      "place_id": "ChIJt6GMkSPJXzkRCI-im2S7XlQ",
      "name": "TATA DEF STATION यूरिया पंप",
      "address": "TATA DEF STATION, near BHARAT PETROLEUM, Vadodara",
      "lat": 22.3036567,
      "lng": 73.12644329999999,
      "open_now": true
    },
    {
      "place_id": "ChIJVSJUlNTHXzkRNDT7g3I6UGc",
      "name": "Hindustan Petroleum Corporation Limited",
      "address": "near D Mart, Plot No 166, Vasna Road, Vasna, Vadodara",
      "lat": 22.2950577,
      "lng": 73.1525512,
      "open_now": true
    },
    {
      "place_id": "ChIJU_iI-7DHXzkR2IrfUK2t0A4",
      "name": "HP Petrol pump",
      "address": "75M8+HX4, Vadodara",
      "lat": 22.2838814,
      "lng": 73.1674597,
      "open_now": true
    },
    {
      "place_id": "ChIJ02-_yIHFXzkR25PJ4aKwjlM",
      "name": "Hindustan Petroleum Corporation Limited",
      "address": "S No 436/437, Pune Laxmi Road, Nana Peth, Nanapeth, Pune",
      "lat": 22.2592334,
      "lng": 73.18332079999999,
      "open_now": true
    },
    {
      "place_id": "ChIJq6qqarHIXzkRl4N4MxY9fxM",
      "name": "Perfect Gas",
      "address": "36, Shiv darshan Complex, Near Ruturaj Complex, Vasna Road, Kalyan Nagar, Tandalja, Vadodara",
      "lat": 22.2948497,
      "lng": 73.15536660000001,
      "open_now": true
    },
    {
      "place_id": "ChIJN8m8ZBDGXzkR2tYN8d5qR3k",
      "name": "N M Shamsuddin BPCL Petrol Pump, Mujmahuda",
      "address": "22, Akota - Mujmahuda Road, Muj Mahuda, Vadodara",
      "lat": 22.2850064,
      "lng": 73.1678295,
      "open_now": true
    },
    {
      "place_id": "ChIJTy-_GwDHXzkR1dpAgO1UHks",
      "name": "Bharat Petrol pump",
      "address": "75M9+X6M, Bhayli, Vadodara",
      "lat": 22.28495239999999,
      "lng": 73.16805320000002,
      "open_now": null
    },
    {
      "place_id": "ChIJoSgpiGTFXzkRz2HqhUzvhQE",
      "name": "Reliance gas agency",
      "address": "117, Makarpura Road, Maneja Crossing, Makarpura GIDC, Makarpura, Vadodara",
      "lat": 22.2385737,
      "lng": 73.1885764,
      "open_now": true
    },
    {
      "place_id": "ChIJkx_VlkvFXzkRmrsELJtS-U4",
      "name": "Bharat petroleum Petroleum (Adani Gas)",
      "address": "Shree Ram Nagar, Himmat Nagar, Makarpura, Vadodara",
      "lat": 22.2344363,
      "lng": 73.1886324,
      "open_now": true
    },
    {
      "place_id": "ChIJVbDOjjHEXzkRI5BjI3kS5zs",
      "name": "IndianOil",
      "address": "NH No 8, Makarpura, Vadodara",
      "lat": 22.2451785,
      "lng": 73.19238310000001,
      "open_now": true
    },
    {
      "place_id": "ChIJsTGNLRnEXzkRSGc1wLMMLnk",
      "name": "IndianOil",
      "address": "Ground Floor, Nh8, Jambuva",
      "lat": 22.2264859,
      "lng": 73.1882834,
      "open_now": true
    },
    {
      "place_id": "ChIJRRhd3-nFXzkR02sF9EazcBM",
      "name": "IndianOil",
      "address": "TP No 19, Fp No 312, Atithi Gruh, near Manjalpur, Manjalpur, Vadodara",
      "lat": 22.271898,
      "lng": 73.19085299999999,
      "open_now": true
    },
    {
      "place_id": "ChIJhVaFarXFXzkRO-UthomC2Jg",
      "name": "Nayara Gas Station",
      "address": "RS No, 237/A, Susen - Tarsali Ring Road, Vadodara",
      "lat": 22.2567812,
      "lng": 73.2071319,
      "open_now": true
    },
    {
      "place_id": "ChIJUwgCn8jFXzkRezb24Pq_9c8",
      "name": "Shell",
      "address": "Makarpura Road, Tarsali, Vadodara",
      "lat": 22.266064,
      "lng": 73.20152,
      "open_now": true
    },
    {
      "place_id": "ChIJRf2xtunFXzkRN_faSqE113w",
      "name": "IndianOil",
      "address": "near Dawat Restaurant, Lalbagh Road, Manjalpur, Vadodara",
      "lat": 22.2792,
      "lng": 73.1972,
      "open_now": true
    },
    {
      "place_id": "ChIJQdBeSavFXzkR0DjPPBru_Vs",
      "name": "Hindustan Petroleum Corporation Limited",
      "address": "RS No 563, NH 48, Surat NH, Tarsali, Vadodara",
      "lat": 22.257656,
      "lng": 73.224622,
      "open_now": true
    },
    {
      "place_id": "ChIJDfCcnJPFXzkRZeH_gu1Vv5s",
      "name": "Nayara Petrol Pump, Shreeji Associates",
      "address": "opp. Apsara Cinema, Pratapnagar, opp. Apsara Cinema, Pratap Nagar Road, Pratapnagar, Vadodara",
      "lat": 22.2875329,
      "lng": 73.2096809,
      "open_now": true
    },
    {
      "place_id": "ChIJLa0Y9Y3FXzkRzkZvoZ1Q1lU",
      "name": "IndianOil",
      "address": "near Geeta Mandir, Pratap Nagar, Wadi, Vadodara",
      "lat": 22.291251,
      "lng": 73.210481,
      "open_now": true
    },
    {
      "place_id": "ChIJxaBoFiDGXzkRw4li5_zalJI",
      "name": "IndianOil",
      "address": "Survey No113/P, Block, 109, Gotri - Vasna Road, saiyad Road, Vadodara",
      "lat": 22.2950671,
      "lng": 73.15755270000001,
      "open_now": true
    },
    {
      "place_id": "ChIJg5LtD6zFXzkRAK-VRIFE6aM",
      "name": "SUBH PETROL PUMP",
      "address": "Royal Garden, E8, Makarpura, Vadodara",
      "lat": 22.237392,
      "lng": 73.199732,
      "open_now": null
    },
    {
      "place_id": "ChIJ93Otk1XFXzkR_erVtEWWgIw",
      "name": "Bharat Petroleum, Petrol Pump -Paras Service Station",
      "address": "Opposite Panasonic Batteries (Novino Battery, Makarpura Road, Priydarsini Nagar, Anand Baug Society, Vadodara",
      "lat": 22.2528225,
      "lng": 73.1978075,
      "open_now": true
    },
    {
      "place_id": "ChIJM4PlpILFXzkRPXWDP8roCRM",
      "name": "DEF PUMP UREA PUMP",
      "address": "66P5+RJR, Susen - Tarsali Ring Road, Vijay Nagar, Tarsali, Vadodara",
      "lat": 22.2371151,
      "lng": 73.2090262,
      "open_now": null
    },
    {
      "place_id": "ChIJ8xzbPADFXzkRC9xgn29sL6c",
      "name": "Bharat pump",
      "address": "66R6+9VH, Vadodara",
      "lat": 22.2406777,
      "lng": 73.2122593,
      "open_now": null
    },
    {
      "place_id": "ChIJM5pkFXDFXzkR3m6iGWG9vG4",
      "name": "IndianOil",
      "address": "Ground Floor, opposite SRP Group 9, Makarpura Road, Vadodara",
      "lat": 22.2604982,
      "lng": 73.1998062,
      "open_now": true
    },
    {
      "place_id": "ChIJl1_znlPEXzkR5jar3GHUiBM",
      "name": "Balaji Petroleum",
      "address": "NH-8, By-pass, Tarsali, Vadodara",
      "lat": 22.2406823,
      "lng": 73.2122948,
      "open_now": true
    },
    {
      "place_id": "ChIJ2S7MMgzFXzkRTOWFsntBlv0",
      "name": "Shell Petrol Pump",
      "address": "Ahmedabad - Mumbai Highway Village Jambua, Nh 48, Vadodara",
      "lat": 22.207486,
      "lng": 73.19203399999999,
      "open_now": true
    },
    {
      "place_id": "ChIJ9T2DtinFXzkRtdMoLbfZa_0",
      "name": "Hindustan Petroleum Corporation Limited",
      "address": "Shop No 1504, K/2, Tarsali, Vadodara",
      "lat": 22.2549681,
      "lng": 73.21147040000001,
      "open_now": true
    },
    {
      "place_id": "ChIJN9q39m_FXzkRr8b9pZ_1woQ",
      "name": "Gas office",
      "address": "8, Manjalpur, Vadodara",
      "lat": 22.2711503,
      "lng": 73.188397,
      "open_now": null
    },
    {
      "place_id": "ChIJze2NwPnDXzkRhVyLNeKUPfQ",
      "name": "Hindustan Petroleum Corporation Limited",
      "address": "Ground Floor NH 8, Jambuva, Alamgir",
      "lat": 22.2034501,
      "lng": 73.1925601,
      "open_now": true
    },
    {
      "place_id": "ChIJo4bhkHLDXzkR3g3pupK4NEs",
      "name": "Vadodara Gas Limited CNG Station",
      "address": "653R+8WP, National Highway 48, Alamgir",
      "lat": 22.203326,
      "lng": 73.1923351,
      "open_now": null
    },
    {
      "place_id": "ChIJn_llH6fFXzkRbCXAH-94lzQ",
      "name": "Hassan Dairy Circle",
      "address": "Abhishek House, Kubereshwar Mahadev Marg, Pranav Society, Krupal Society, Manjalpur, Vadodara",
      "lat": 22.270334,
      "lng": 73.19717059999999,
      "open_now": null
    },
    {
      "place_id": "ChIJD-fp3lXFXzkRwkmfdoRoJj4",
      "name": "Nayara Petrol pump",
      "address": "opp. Eva Mall, Manjalpur, Vadodara",
      "lat": 22.2730154,
      "lng": 73.1875503,
      "open_now": true
    },
    {
      "place_id": "ChIJV9BB4_jDXzkRnCDn9deRbFo",
      "name": "IndianOil",
      "address": "Ground Floor, Damor, Nh No 8, Sundepur, Alamgir",
      "lat": 22.1986814,
      "lng": 73.1918124,
      "open_now": true
    },
    {
      "place_id": "ChIJpyt2c-7DXzkRgQh1KklMNaw",
      "name": "IndianOil",
      "address": "Ground Floor, NH 8, Alamgir, Sunderpura, Danteshwar, Vadodara",
      "lat": 22.197197,
      "lng": 73.19196,
      "open_now": true
    },
    {
      "place_id": "ChIJV43u0NjDXzkRK8jrEXVJB-U",
      "name": "Jio-bp",
      "address": "55VR+MR, Survey No 204A, 205 & 215A, Varnama, Alamgir",
      "lat": 22.19504719999999,
      "lng": 73.1913074,
      "open_now": true
    },
    {
      "place_id": "ChIJ4Q1zpZjFXzkRlRBnzYdg34E",
      "name": "INDIAN OIL PETROL PUMP",
      "address": "Tarsali, Vadodara",
      "lat": 22.26383389999999,
      "lng": 73.2210182,
      "open_now": true
    },
    {
      "place_id": "ChIJ6_O40onEXzkRw0wAqROKA-4",
      "name": "IndianOil",
      "address": "Ground Floor, Chikhodara",
      "lat": 22.226017,
      "lng": 73.23001,
      "open_now": true
    },
    {
      "place_id": "ChIJR0h1Qg_GXzkRHLPZYnPSmNY",
      "name": "Vaidehi Petroleum, BPCL Petrol Pump",
      "address": "Vishwamitry Township Wing A, Vishwamitri, Vadodara",
      "lat": 22.285589,
      "lng": 73.17474159999999,
      "open_now": null
    },
    {
      "place_id": "ChIJs6wR2t_FXzkRochI2G8PuxU",
      "name": "Garage for 4 Wheeler by Sherubhai",
      "address": "17, shantipark society, Lalbaug, Manjalpur, Vadodara",
      "lat": 22.2809245,
      "lng": 73.2060946,
      "open_now": null
    },
    {
      "place_id": "ChIJ8RyhpxrGXzkRm8wzVCg-EhE",
      "name": "Shree vasudev Transport Bharat Petroleum",
      "address": "75P9+CQP, Vishwamitri Road, Pratham Avenue, Muj Mahuda, Vadodara",
      "lat": 22.2860802,
      "lng": 73.1694533,
      "open_now": true
    },
    {
      "place_id": "ChIJ2VHQcwDFXzkRuQmTq9UREEE",
      "name": "Sonu enterprises",
      "address": "66HM+4VP, Tarsali - Vadadla Road, Adarsh Nagar, Tarsali, Vadodara",
      "lat": 22.2278465,
      "lng": 73.2347131,
      "open_now": null
    },
    {
      "place_id": "ChIJpxXz23fFXzkR7IrDaMbPkTE",
      "name": "Bharat Petroleum Petrol Pump, PRISIONER WELFARE FUND PETROL STN.",
      "address": "SURVEY NO.96DANTESHWAR WADI CENTRAL JAIL",
      "lat": 22.2713802,
      "lng": 73.2251376,
      "open_now": true
    },
    {
      "place_id": "ChIJ9-zn0C3FXzkRRS1oGauvUUo",
      "name": "Bharat Petroleum Petrol Pump - Balaji Petroleum",
      "address": "Bakrawadi, Navapura, Vadodara",
      "lat": 22.2844337,
      "lng": 73.2080556,
      "open_now": true
    },
    {
      "place_id": "ChIJO92hY3rFXzkRx4cr83mziW0",
      "name": "Nayara petrol pump (AMIT CORPORATION)",
      "address": "A-13, Ring Rd Pangat Park, Waghodia Vadodara, Gujarat 390019, A-13, Ring Road, Pangat Park, Waghodia, Vadodara",
      "lat": 22.29418459999999,
      "lng": 73.2380098,
      "open_now": true
    },
    {
      "place_id": "ChIJ5VV0YYDFXzkRnChPagmyhzU",
      "name": "IndianOil",
      "address": "FP No 5, TP No 4, Ajwa Road, Satyam Park Society, Vadodara",
      "lat": 22.302443,
      "lng": 73.22657099999999,
      "open_now": true
    },
    {
      "place_id": "ChIJ_UU2qyPFXzkR1T7Ke3i542A",
      "name": "SACHIN PETROLEUM",
      "address": "Gujarat State Highway 11, Waghodia",
      "lat": 22.24880919999999,
      "lng": 73.2630791,
      "open_now": null
    },
    {
      "place_id": "ChIJC9y1-RTFXzkRpoh5wYXZOTI",
      "name": "Essar petrol pump",
      "address": "67X6+XWC, Gujarat State Highway 11, Ratanpur",
      "lat": 22.24992809999999,
      "lng": 73.2622703,
      "open_now": null
    },
    {
      "place_id": "ChIJvz1_mgzFXzkRXQXaseK1R-0",
      "name": "Nayara petrol pump",
      "address": "67X7+GG6, Navapura",
      "lat": 22.2487936,
      "lng": 73.263751,
      "open_now": null
    },
    {
      "place_id": "ChIJK_5T2ADFXzkR6fBVmXFqvVg",
      "name": "Bharat Petroleum and CNG Pump",
      "address": "7735+M28, Gujarat State Highway 11, Ratanpur",
      "lat": 22.2541699,
      "lng": 73.2575668,
      "open_now": null
    },
    {
      "place_id": "ChIJ9cl6HgDFXzkRxg7W099Qp7s",
      "name": "TATA DEF STATION",
      "address": "Kelanpur",
      "lat": 22.2547888,
      "lng": 73.2573104,
      "open_now": true
    },
    {
      "place_id": "ChIJT1ffRADFXzkRIBGOU4qb2aQ",
      "name": "Alakh Petroleum (IOCL)",
      "address": "Ratanpur",
      "lat": 22.2597634,
      "lng": 73.2531348,
      "open_now": true
    },
    {
      "place_id": "ChIJrYrM4E3bXzkR_gNaz_eSzIE",
      "name": "IndianOil",
      "address": "Ground Floor Kelanpur, D Cabin, Hetampura",
      "lat": 22.229865,
      "lng": 73.28203599999999,
      "open_now": true
    },
    {
      "place_id": "ChIJTTOyVQjDXzkRpuaxPw54I1Y",
      "name": "IndianOil",
      "address": "TARSHALI TO KAYAVAROHAN ROAD, Vadodara",
      "lat": 22.2013958,
      "lng": 73.23813679999999,
      "open_now": true
    },
    {
      "place_id": "ChIJLcpO7UTFXzkRayjcVHSmEXE",
      "name": "Bharat petroleum ભારત પેટ્રોલિયમ",
      "address": "Kanha Icon, Chokadi, Dabhoi Road, Kapurai Village, Vadodara",
      "lat": 22.2770461,
      "lng": 73.2411876,
      "open_now": true
    },
    {
      "place_id": "ChIJ30wePnnFXzkRa5fKhNpos1I",
      "name": "Radha petroleum With CNG Gas Station",
      "address": "Kanha Icon, Chokadi, Dabhoi Road, Kapurai Village, Vadodara",
      "lat": 22.2774206,
      "lng": 73.2410216,
      "open_now": true
    },
    {
      "place_id": "ChIJnRdf1kTFXzkR7UibDR4ZoXA",
      "name": "IndianOil",
      "address": "Ground Floor Danteshwar, Kapurai Village, Vadodara",
      "lat": 22.279417,
      "lng": 73.24397499999999,
      "open_now": true
    },
    {
      "place_id": "ChIJ8RPGT4PFXzkRSKw0VGgO1Q4",
      "name": "Indian gas agency",
      "address": "76GH+PQ, Vadodara",
      "lat": 22.2767745,
      "lng": 73.2294168,
      "open_now": null
    },
    {
      "place_id": "ChIJv4pxPgrFXzkRnfinj0k6Ys8",
      "name": "Nayara petrol pump with cng",
      "address": "76JJ+74J, Mahesh Nagar, Suryanagar, Vadodara",
      "lat": 22.2806508,
      "lng": 73.2302692,
      "open_now": null
    },
    {
      "place_id": "ChIJaw4qPXXFXzkResT31dX5GKk",
      "name": "Bharat Petroleum",
      "address": "Ring Road, Waghodia, Vadodara",
      "lat": 22.2819424,
      "lng": 73.2316708,
      "open_now": true
    },
    {
      "place_id": "ChIJizsgpefFXzkRL4cm2RnYMEw",
      "name": "Hemant Puc Center",
      "address": "beside Bharat Petrol Pump, Soma Talav, Vadodara",
      "lat": 22.2831496,
      "lng": 73.23243049999999,
      "open_now": null
    },
    {
      "place_id": "ChIJKU4iQwDFXzkRyXUr1t6Osvg",
      "name": "Mahesh nagar",
      "address": "76JF+4WF, Dabhoi Road, Vadodara",
      "lat": 22.2803019,
      "lng": 73.22479609999999,
      "open_now": null
    },
    {
      "place_id": "ChIJMyOiopjFXzkRTKnS0Jb8FjI",
      "name": "Hindustan Petroleum Corporation Limited",
      "address": "Ground Floor, near Old Octori Naka, Dabhoi Road, Vadodara",
      "lat": 22.2806308,
      "lng": 73.22200699999999,
      "open_now": true
    },
    {
      "place_id": "ChIJ6cM9S4DFXzkRNylDnfGILmg",
      "name": "Bharat Petroleum",
      "address": "77V9+924, Gujarat State Highway 158, Khatamba",
      "lat": 22.2933756,
      "lng": 73.26756809999999,
      "open_now": true
    },
    {
      "place_id": "ChIJOQCMg-LFXzkReYOm-5o7wNE",
      "name": "Raja Ranchhod Petroleum",
      "address": "Waghodia Road, Ratilalpark Society, Vadodara",
      "lat": 22.2939849,
      "lng": 73.22861739999999,
      "open_now": true
    },
    {
      "place_id": "ChIJa0iMBpHFXzkRfL4SCy8d7u8",
      "name": "VMC Gas Station",
      "address": "C-14/20/63, Yamuna Mill Road, Bhatia Chawl, Moghul Wada, Vadodara",
      "lat": 22.2875041,
      "lng": 73.21410089999999,
      "open_now": true
    },
    {
      "place_id": "ChIJxXMFVZDFXzkRKbADydwBvA8",
      "name": "WADODARA GAS LIMITED",
      "address": "India",
      "lat": 22.2880292,
      "lng": 73.21475560000002,
      "open_now": null
    },
    {
      "place_id": "ChIJJ47zTs3bXzkRlGKHjn8Gbr4",
      "name": "Hindustan Petroleum Corporation Limited",
      "address": "Survey No 170, 2/2 SH 158, Waghodia Road, Waghodia, Amodar",
      "lat": 22.2918108,
      "lng": 73.2826307,
      "open_now": true
    },
    {
      "place_id": "ChIJoacDP0zdXzkRBq4S3wQch14",
      "name": "Hindustan Petroleum Corporation Limited",
      "address": "Survey No 853, SH 11, Dabhoi Road, Palaswada, Dabhoi",
      "lat": 22.204603,
      "lng": 73.308983,
      "open_now": true
    },
    {
      "place_id": "ChIJV_BuTUDFXzkR0OwJca09xjo",
      "name": "VENU PETROLEUM",
      "address": "Ghutanvad Dungarvat Road, Vadodara",
      "lat": 22.2985831,
      "lng": 73.23098379999999,
      "open_now": null
    },
    {
      "place_id": "ChIJcU0DvFfFXzkRarwLkWFDwKM",
      "name": "Bharat Petroleum Petrol Pump",
      "address": "175, Ring Road, Vrundavan, Waghodia, Vadodara",
      "lat": 22.3022693,
      "lng": 73.2386346,
      "open_now": null
    },
    {
      "place_id": "ChIJ9fAE7X7FXzkR9ieBt4MX7Mc",
      "name": "Mega Petroleum",
      "address": "near Old Bapod, L/20, Waghodia Road, Jakat Naka, Sapan Nagar Society, Vadodara",
      "lat": 22.3007419,
      "lng": 73.22959929999999,
      "open_now": null
    },
    {
      "place_id": "ChIJY1EFOADFXzkRzep6GwdHbwQ",
      "name": "Petrol pump",
      "address": "Near, Ayurvedic 3 Rasta, Relief Colony, Satyam Park Society, Vadodara",
      "lat": 22.2981008,
      "lng": 73.22198279999999,
      "open_now": null
    },
    {
      "place_id": "ChIJ37kgxgPJXzkRtjXvI_LIe9o",
      "name": "IndianOil",
      "address": "Ground Floor, opposite IPCL Corporate Office, Gorwa Road, Vadodara",
      "lat": 22.344536,
      "lng": 73.14210500000002,
      "open_now": true
    },
    {
      "place_id": "ChIJ81sWxo3IXzkR26l8EtO7VSI",
      "name": "Shell",
      "address": "Gotri Road, Vadodara",
      "lat": 22.313375,
      "lng": 73.14461,
      "open_now": true
    },
    {
      "place_id": "ChIJX0CQtZvIXzkRkBujhHb04rA",
      "name": "J.P. Petroleum (Nayara Petrol Pump)",
      "address": "FP 138, Shakti Nagar Society, Saiyed Vasna, Vadodara",
      "lat": 22.3037423,
      "lng": 73.150533,
      "open_now": true
    },
    {
      "place_id": "ChIJfZzPwZPIXzkRfnDLpa_Zepg",
      "name": "Hindustan Petroleum Corporation Limited",
      "address": "65 Plot No 28, RS No, TP Scheme 2, Gotri, Vadodara",
      "lat": 22.314123,
      "lng": 73.151223,
      "open_now": true
    },
    {
      "place_id": "ChIJN3P8w8PIXzkRJ8WNxYed7Kw",
      "name": "Hindustan Petroleum Corporation Limited",
      "address": "Revenue Survey No, Plot No 1, near Bhailal Hospital, 1060/1, Gorwa, Vadodara",
      "lat": 22.3268311,
      "lng": 73.1626309,
      "open_now": true
    },
    {
      "place_id": "ChIJF8caBevIXzkRm1ofhxKbXo8",
      "name": "IndianOil",
      "address": "City, High Tension Road, Subhanpura, Vadodara",
      "lat": 22.3212259,
      "lng": 73.15472849999999,
      "open_now": true
    },
    {
      "place_id": "ChIJud17SrDIXzkRdl2saiiVGoU",
      "name": "Bharat Petroleum, Petrol Pump -Alkapuri Automobiles",
      "address": "opp. BOB, RC Dutt Road, Sampatrao Colony, Alkapuri, Vadodara",
      "lat": 22.3107277,
      "lng": 73.1714951,
      "open_now": true
    },
    {
      "place_id": "ChIJ90e3C8fIXzkRl5Ar5S9Mr1U",
      "name": "Bharat Petroleum-J.C.Chokshi Co.Ltd",
      "address": "85C8+RWV, Opposite Alembic Vidhyalay School, Gorwa-Refinery Rd, Gorwa, Vadodara",
      "lat": 22.322111,
      "lng": 73.16729339999999,
      "open_now": true
    },
    {
      "place_id": "ChIJmS8FhxvJXzkRfjnk1RfyZmY",
      "name": "Harsidhhi petrolium",
      "address": "SR NO 232 Gorwa, To, Karodiya Road, Karodiya, Vadodara",
      "lat": 22.3476428,
      "lng": 73.15009839999999,
      "open_now": true
    },
    {
      "place_id": "ChIJ2WzcVrjJXzkRJ3wG_M1YXHw",
      "name": "Bharat Petroleum, Petrol Pump -Swagat Fuels",
      "address": "wadi vadi, beside Vadodara Central Mall, Near, Genda Circle, Alkapuri, Vadodara",
      "lat": 22.3167941,
      "lng": 73.1689636,
      "open_now": true
    },
    {
      "place_id": "ChIJN90X2bLIXzkRV3iz36PZtRA",
      "name": "Hindustan Petroleum Corporation Limited",
      "address": "Ground Floor, near ST Depot, Chhani Road, Vadodara",
      "lat": 22.313047,
      "lng": 73.181139,
      "open_now": true
    },
    {
      "place_id": "ChIJQ7LNJ83IXzkR0BhqHv5CMHU",
      "name": "IndianOil",
      "address": "opposite Tapovan Society, NH 8, Nizampura Road, Vadodara",
      "lat": 22.33060679999999,
      "lng": 73.1813956,
      "open_now": true
    },
    {
      "place_id": "ChIJOwwvtzTPXzkRk-L7_7LxpQY",
      "name": "IndianOil",
      "address": "Ground Floor, Nizampura, Vadodara",
      "lat": 22.3266474,
      "lng": 73.1828369,
      "open_now": true
    },
    {
      "place_id": "ChIJvTDaT9TIXzkRuRx1J93heWM",
      "name": "Hindustan Petroleum Corporation Limited",
      "address": "Plot No 79, Guru Gobindsinhji Marg, TP/12, Nizampura, Vadodara",
      "lat": 22.340676,
      "lng": 73.178221,
      "open_now": true
    },
    {
      "place_id": "ChIJhRCvLiXJXzkRK-jBf9Y4u0w",
      "name": "Shell",
      "address": "opp. Ramaka Mandir, Guru Gobindsinhji Marg, opp. Ramaka Mandir, Rd, Chhani, Vadodara",
      "lat": 22.35472,
      "lng": 73.16744,
      "open_now": true
    },
    {
      "place_id": "ChIJETpGSNTIXzkRyriMdQkAx9s",
      "name": "Vadodara Gas Limited CNG Station",
      "address": "85RH+C6J, Rukshmani Nagar, New Sama, Vadodara",
      "lat": 22.3410904,
      "lng": 73.17802089999999,
      "open_now": true
    },
    {
      "place_id": "ChIJ1f2fTrnIXzkRxK1Xrl1irjU",
      "name": "Vadodara Gas Limited CNG Station",
      "address": "Green Field Station, near Adani CNG, Plot No. 128/1/2/3 & 129, Race Course Road, Subhanpura, Vadodara",
      "lat": 22.31534389999999,
      "lng": 73.16485589999999,
      "open_now": true
    },
    {
      "place_id": "ChIJg2y8AefJXzkREvLw0BlQ9bE",
      "name": "PATEL FUELS Nayara Petrol Station नायरा पेट्रोल पंप",
      "address": "848G+XG7, Besides Shaishav, Gotri - Sevasi Road, Gotri, Vadodara",
      "lat": 22.3173647,
      "lng": 73.1263317,
      "open_now": true
    },
    {
      "place_id": "ChIJjbk1UADJXzkRqHGS5a3UNz4",
      "name": "Bharat petroleum, Maa Petroleum Gotri",
      "address": "848J+J45, opp. OSIA MALL, nr. SATYANARAYAN PARTY PLOT, Gotri - Sevasi Road, Laxmipura, Khanpur",
      "lat": 22.3165685,
      "lng": 73.1303346,
      "open_now": true
    },
    {
      "place_id": "ChIJVdGdfCbIXzkRcEt2LshHZng",
      "name": "Hindustan Petroleum Corporation Limited",
      "address": "RS No 513/2/P/1, Sevasi - Sindhrot Road, Gotri, Sherkhi",
      "lat": 22.321501,
      "lng": 73.0930301,
      "open_now": true
    },
    {
      "place_id": "ChIJr_i7F2zGXzkR7FW4KmJEuhg",
      "name": "Hindustan Petroleum Corporation Limited",
      "address": "Survey No 640, 1 & 640/2, Atladra, Vadodara",
      "lat": 22.3123985,
      "lng": 73.14106869999999,
      "open_now": true
    },
    {
      "place_id": "ChIJ79VoabjJXzkRBnxbqI0lFW0",
      "name": "N P Petroleum - IndianOil",
      "address": "Prajapati School, opp. Sona Party Plot, C.K, Laxmipura Road, Gorwa, Vadodara",
      "lat": 22.3320893,
      "lng": 73.1415475,
      "open_now": true
    },
    {
      "place_id": "ChIJTwRHHNbJXzkRKJp_pDh6lEY",
      "name": "IndianOil",
      "address": "No 313/315/2, Survey, Akota, Sherkhi",
      "lat": 22.341949,
      "lng": 73.087721,
      "open_now": true
    },
    {
      "place_id": "ChIJWaEyyvG3XzkRjCZGE_2iEU8",
      "name": "Varshaa Petroleum",
      "address": "313/Paiki/1, near Suncity Club & Resort, 315/2/B, Sherkhi",
      "lat": 22.3419788,
      "lng": 73.0876269,
      "open_now": true
    },
    {
      "place_id": "ChIJa6HEMADJXzkR6V_8XDkTnnk",
      "name": "PUNITA PUC",
      "address": "85C4+H2C, Subhanpura, Vadodara",
      "lat": 22.3214268,
      "lng": 73.1550025,
      "open_now": true
    },
    {
      "place_id": "ChIJiY2UAuvIXzkRf6IKxcrUO24",
      "name": "Reliance Petrol Pump",
      "address": "near atithigruh, 23, sanmilan Soc reliance/ioc petrol pump, near atithigruh, Subhanpura, Vadodara",
      "lat": 22.3215367,
      "lng": 73.1554445,
      "open_now": true
    },
    {
      "place_id": "ChIJsapvFiDGXzkROQZGOHY613E",
      "name": "Kayval Krupa Petrol Pump",
      "address": "B/6, Vasna Road, Janta Nagar, Vadodara",
      "lat": 22.2961095,
      "lng": 73.1570615,
      "open_now": null
    },
    {
      "place_id": "ChIJo3flo9zJXzkRWiD2O5c3nN0",
      "name": "Bharat Petroleum, Petrol Pump -Sarthak Petroleum",
      "address": "Natubhai Circle, Vadodara",
      "lat": 22.3105095,
      "lng": 73.158823,
      "open_now": true
    },
    {
      "place_id": "ChIJc89C6WbJXzkRD3TNCGwKaMw",
      "name": "Bharat Petroleum, Petrol Pump -J.C Chokshi & Co",
      "address": "Genda Circle, Subhanpura, Vadodara",
      "lat": 22.3220922,
      "lng": 73.156545,
      "open_now": true
    },
    {
      "place_id": "ChIJlyNmRcvJXzkRtJhq7Q-1_Lc",
      "name": "IndianOil",
      "address": "Block No 284, RS No 123/7 Baranpura, Sherkhi",
      "lat": 22.3497638,
      "lng": 73.0961276,
      "open_now": true
    },
    {
      "place_id": "ChIJA67Xo4TJXzkR98mGiBSDgG8",
      "name": "Nayara Petrol Pump",
      "address": "10, New IPCL Road, Gorwa, Vadodara",
      "lat": 22.3292254,
      "lng": 73.1543293,
      "open_now": true
    },
    {
      "place_id": "ChIJqwBNMV_JXzkR6PYoybHPPzY",
      "name": "Nayara Petrol Pump - Nand Petroleum",
      "address": "opp. SAI PARTY PLOT, R.S.NO:611, opp. SAI PARTY PLOT, Undera- Koyali Road, Undera, Vadodara",
      "lat": 22.3520944,
      "lng": 73.12442519999999,
      "open_now": true
    },
    {
      "place_id": "ChIJjRD03TnJXzkR6y0ZCSe9-_g",
      "name": "SHREE GAYATRIKRUPA PETROLEUM",
      "address": "Jivabhai Park 2, G67, Eshanya Marg, Jalaram Nagar, Undera, Vadodara",
      "lat": 22.3445834,
      "lng": 73.1421326,
      "open_now": null
    },
    {
      "place_id": "ChIJ6aCUuwPJXzkRWW1IaeaHcpI",
      "name": "Jio-bp",
      "address": "Survey No 306/P, 311, P & 312/P, Gujarat Refinery Road, Gorwa, Vadodara",
      "lat": 22.3448196,
      "lng": 73.1427994,
      "open_now": true
    },
    {
      "place_id": "ChIJ____z-fIXzkR33iTnTYy2f0",
      "name": "IndianOil",
      "address": "S No 624/625P Alembik Refi, Road, Gorwa, Vadodara",
      "lat": 22.335613,
      "lng": 73.153244,
      "open_now": true
    },
    {
      "place_id": "ChIJvVU8HBTJXzkRFDoh-OLGK9I",
      "name": "Baroda Puc Mubin Shaikh",
      "address": "Trident Shopping Complex, Ner, opp, reskors, Vadodara",
      "lat": 22.3145435,
      "lng": 73.1644166,
      "open_now": null
    },
    {
      "place_id": "ChIJob4TsbDJXzkR08ntbsYwNL4",
      "name": "Shell petroleum",
      "address": "Gorwa Rd, Gujarat Refinery Road, Vadodara",
      "lat": 22.328539,
      "lng": 73.16139,
      "open_now": true
    },
    {
      "place_id": "ChIJD2tEt0HPXzkRfT9va_L-K-k",
      "name": "HP COMCO",
      "address": "Tp Scheme 9, Plt.226, Karelibaug, Vadodara",
      "lat": 22.3207029,
      "lng": 73.203923,
      "open_now": true
    },
    {
      "place_id": "ChIJdXxyh17PXzkRlnXhKSKUZ4M",
      "name": "IndianOil",
      "address": "Juni Rangshala Ni Chali, Bhutdi Zampa, Karelibagh, Vadodara",
      "lat": 22.30938099999999,
      "lng": 73.204926,
      "open_now": true
    },
    {
      "place_id": "ChIJe65_qGjPXzkRUi8HKxTNL8A",
      "name": "Shell",
      "address": "Harni Rd Plot No 5, Tp No 7, Mouje, Vadodara",
      "lat": 22.31365,
      "lng": 73.21092999999999,
      "open_now": true
    },
    {
      "place_id": "ChIJb_DRqmjPXzkRgkzqAiXlu6Q",
      "name": "IndianOil",
      "address": "Plot No 13, Tps 7, Harni Road, Tulsiwadi, Vadodara",
      "lat": 22.31370099999999,
      "lng": 73.211801,
      "open_now": true
    },
    {
      "place_id": "ChIJ94ZUltTPXzkR5mwYfsd14M0",
      "name": "Bharat Petroleum, Petrol Pump -Parul Transport Company",
      "address": "opp. sama, talav",
      "lat": 22.3434222,
      "lng": 73.2030435,
      "open_now": true
    },
    {
      "place_id": "ChIJOQRjSQLPXzkRHLXCQfJOfNQ",
      "name": "IndianOil",
      "address": "Ground Floor, opposite Saw Mills, Chokdi Road, Golden, Harni, Vadodara",
      "lat": 22.3467503,
      "lng": 73.2216138,
      "open_now": true
    },
    {
      "place_id": "ChIJsTbhcdvOXzkRjqB1DZmoS20",
      "name": "IndianOil",
      "address": "SAMA -SAVLI ROAD, ROAD, New Sama, Vadodara",
      "lat": 22.3562307,
      "lng": 73.1987961,
      "open_now": true
    },
    {
      "place_id": "ChIJTeGuy4XPXzkRmqeDjP2CLgU",
      "name": "BPCL CNG Pump",
      "address": "866Q+MC9, Sardar Estate, opp. Din dayal upadhyay town hall, Ajwa Road, Sayaji Park Society, Vadodara",
      "lat": 22.3117692,
      "lng": 73.2384534,
      "open_now": true
    },
    {
      "place_id": "ChIJVVVVVTrJXzkRBUDzZbCeU7g",
      "name": "Hindustan Petroleum Corporation Limited",
      "address": "Ground Floor, Chhani, Vadodara",
      "lat": 22.3598208,
      "lng": 73.1663243,
      "open_now": true
    },
    {
      "place_id": "ChIJ9ZbqaAjPXzkRjWXRht8-15U",
      "name": "IndianOil",
      "address": "Harni Golden Chokdi Air-road, Harni Road, Harni, Vadodara",
      "lat": 22.34683099999999,
      "lng": 73.221592,
      "open_now": null
    },
    {
      "place_id": "ChIJYzjCoMXOXzkRBhtzDz21Ios",
      "name": "Essar Petrol Pump",
      "address": "333, Sama-Savli Road, Vemali, Vadodara",
      "lat": 22.3610808,
      "lng": 73.1957205,
      "open_now": null
    },
    {
      "place_id": "ChIJOZvyaDnJXzkRzWqwgJx0p_Q",
      "name": "Chhani Petrol Pump, BPCL",
      "address": "Chhani, Vadodara",
      "lat": 22.3616,
      "lng": 73.1663739,
      "open_now": true
    },
    {
      "place_id": "ChIJFapUJsrOXzkR7p2z_iagPGY",
      "name": "IndianOil",
      "address": "Ground Floor, NH 8, Dumad Road, Tejgadh, Vadodara",
      "lat": 22.3667981,
      "lng": 73.1876994,
      "open_now": true
    },
    {
      "place_id": "ChIJJVZmxXfPXzkRAaz5iU04EQ4",
      "name": "IndianOil",
      "address": "Ground Floor, VIP Road, Vadodara",
      "lat": 22.317446,
      "lng": 73.22849300000001,
      "open_now": true
    },
    {
      "place_id": "ChIJ3UF8VADJXzkRXDXbp7LWa_Y",
      "name": "NAKUL’S PRTROLEUM",
      "address": "854J+VF8, Vadodara",
      "lat": 22.3071588,
      "lng": 73.1812187,
      "open_now": true
    },
    {
      "place_id": "ChIJWam-OxrPXzkRPgZIaMhTWTc",
      "name": "Bharat Petroleum, Petrol Pump -National Service Station",
      "address": "Vadodara",
      "lat": 22.3079032,
      "lng": 73.1896888,
      "open_now": true
    },
    {
      "place_id": "ChIJ48_iSVfPXzkR3GN60k2KcKU",
      "name": "Hindustan Petroleum Corporation Limited",
      "address": "Ground Floor, Phulbari Naka, opposite SSG Hospitalo, Phulbari, Anandpura, Vadodara",
      "lat": 22.305339,
      "lng": 73.192495,
      "open_now": true
    },
    {
      "place_id": "ChIJdYd4g0PJXzkRSjRN163MAXk",
      "name": "IndianOil",
      "address": "401, RC Dutt Road, Aradhana Society, Vishwas Colony, Alkapuri, Vadodara",
      "lat": 22.3101995,
      "lng": 73.16870329999999,
      "open_now": true
    },
    {
      "place_id": "ChIJW2QZ8FnPXzkR_O_-eEXv39I",
      "name": "hele પ્રોવિઝન સ્ટોર",
      "address": "854V+4W6, Kothi Salatwada Road, Kasar falia, Jambubet, Vadodara",
      "lat": 22.3052971,
      "lng": 73.1947696,
      "open_now": null
    },
    {
      "place_id": "ChIJvzZH-f7HXzkRzExW_hifAkw",
      "name": "Shell Petrol Pump",
      "address": "Padra Road City Survey No.68/a, Tp Scheme No. 1",
      "lat": 22.293838,
      "lng": 73.17512599999999,
      "open_now": true
    },
    {
      "place_id": "ChIJHSK1LijPXzkRSozjZK2bTd4",
      "name": "Bharat Petroleum, Petrol Pump -Shree Maruti Petroleum",
      "address": "Bahucharaji Road, Laxmi Estate, Vadodara",
      "lat": 22.3103576,
      "lng": 73.1979625,
      "open_now": true
    },
    {
      "place_id": "ChIJyzr1aeXHXzkRxURBU-oGNEY",
      "name": "Nayara petrol station",
      "address": "NEAR RC PATEL ESTATE, Mujmahuda Road, Vadodara",
      "lat": 22.2917584,
      "lng": 73.1729509,
      "open_now": true
    },
    {
      "place_id": "ChIJL38-DDbPXzkRo7z5gnt2N7w",
      "name": "IndianOil",
      "address": "Ground Floor, Fatehgunj, Ahmedabad",
      "lat": 22.323841,
      "lng": 73.188553,
      "open_now": true
    },
    {
      "place_id": "ChIJ05M2nTjPXzkRi2-EECNExIo",
      "name": "IndianOil",
      "address": "Ground Floor, Karelibagh, Vadodara",
      "lat": 22.323821,
      "lng": 73.197617,
      "open_now": true
    },
    {
      "place_id": "ChIJkRvjNgDJXzkRG6AaFD6qtIY",
      "name": "Puc center",
      "address": "85JH+4MP, Nizampura, Vadodara",
      "lat": 22.3303291,
      "lng": 73.17921249999999,
      "open_now": null
    },
    {
      "place_id": "ChIJpQfKeI_PXzkRfJB92S-ksTg",
      "name": "Hindustan Petroleum Corporation Limited",
      "address": "SR No 238, Huma Duplex, Ajwa Road, Bapod, Vadodara",
      "lat": 22.3137401,
      "lng": 73.2415401,
      "open_now": true
    },
    {
      "place_id": "ChIJ6QV2fkXPXzkR-WinJ5yFQhg",
      "name": "Nayara Petrol Pump - Manuraj Petroleum",
      "address": "Opp Sayajipura Village, Ajwa-Nimeta, Road, Vadodara",
      "lat": 22.3272463,
      "lng": 73.26108049999999,
      "open_now": true
    },
    {
      "place_id": "ChIJxx09QVLPXzkRJhlfPxf3vcI",
      "name": "Shell Petrol Pump",
      "address": "868H+WG4, near Khodiyar Nagar, beside Indian Oil Petrol Pump, Kishanwadi, Vadodara",
      "lat": 22.3172656,
      "lng": 73.2288315,
      "open_now": true
    },
    {
      "place_id": "ChIJmx8_ROjPXzkRmVdQGmtOeTo",
      "name": "Hindustan Petroleum Corporation Limited",
      "address": "Sai Shraddha Duplex, Survey, Sayaji Park Society, Vadodara",
      "lat": 22.3282766,
      "lng": 73.2626959,
      "open_now": true
    },
    {
      "place_id": "ChIJAYec8ujPXzkRHBli0fZerqQ",
      "name": "Vadodara Gas Limited CNG Station",
      "address": "Sai Shraddha Duplex, 42, Sayaji Park Society, Vadodara",
      "lat": 22.3282633,
      "lng": 73.26290039999999,
      "open_now": null
    },
    {
      "place_id": "ChIJKUEJoXDPXzkR7TTpRMndyOM",
      "name": "Nayara Petrol Pump, shree sai shakti petroleum",
      "address": "opp. Essar Petrol Pump, L-3, Kamlaba Appartment, opp. Essar Petrol Pump, Harni - Warasiya Ring Road, Vadodara",
      "lat": 22.3144249,
      "lng": 73.2219712,
      "open_now": true
    },
    {
      "place_id": "ChIJ8Y8GpjDPXzkRZP_vQETU-sc",
      "name": "Nayra Petrol Pump - A D Birade Petroleum",
      "address": "Nayra Petrol Pump, Thekarnath Mahadev, Navnath Mandir Road, Kidwai Nagar, Yakutpura, Vadodara",
      "lat": 22.3056831,
      "lng": 73.219242,
      "open_now": true
    },
    {
      "place_id": "ChIJqd9_98fFXzkR7Kj7XAie_Lc",
      "name": "IndianOil",
      "address": "Ground Floor, Panigate, Vadodara",
      "lat": 22.2995784,
      "lng": 73.2195939,
      "open_now": true
    },
    {
      "place_id": "ChIJATTFTNHPXzkRSpGs6ASg_mU",
      "name": "Jio-bp",
      "address": "Khata No 299, Plot No 195 & 196 Block No 385, 2 & 386, Tp No 45, Sayaji Park Society, Vadodara",
      "lat": 22.323716,
      "lng": 73.221769,
      "open_now": true
    },
    {
      "place_id": "ChIJ2_9yU2_PXzkRi3LVm71zn5Y",
      "name": "Ankit Automobiles CNG",
      "address": "GF-32, Chandragupt Complex, Opp Rupam Cinema, Harni Rd, Karelibaug, Vadodara",
      "lat": 22.3141869,
      "lng": 73.21184269999999,
      "open_now": true
    },
    {
      "place_id": "ChIJGbvKiWzPXzkRZs6jKCjLM7U",
      "name": "Bhatia Service Station",
      "address": "Harni Road, Vadodara",
      "lat": 22.3128273,
      "lng": 73.2114088,
      "open_now": true
    },
    {
      "place_id": "ChIJh1PKLEvPXzkRp1qNuPhIKv8",
      "name": "Nayara",
      "address": "86WR+7CG, behind RTO, near Comfort Inn Hotel, Harni, Vadodara",
      "lat": 22.3446875,
      "lng": 73.2414024,
      "open_now": true
    },
    {
      "place_id": "ChIJ_XsqZQDPXzkRINd8nC3tct8",
      "name": "Shital Petroleum",
      "address": "Kamlesh Patel compound, opp. Darjipura Air Force station, behind RTO, near Comfort Inn Hotel, Harni, Vadodara",
      "lat": 22.3456319,
      "lng": 73.2411336,
      "open_now": null
    },
    {
      "place_id": "ChIJ640d-4zFXzkRW7nOuXmxCnU",
      "name": "Hindustan Petroleum Corporation Limited",
      "address": "Ground Floor, Goya Gate, behind Vegetable Market, Baranpura, Vadodara",
      "lat": 22.2930901,
      "lng": 73.20870099999999,
      "open_now": true
    },
    {
      "place_id": "ChIJaTgdfQDFXzkRIU5GNOghcc0",
      "name": "Tarsali",
      "address": "8624+2H9, Vadodara",
      "lat": 22.3000395,
      "lng": 73.2064994,
      "open_now": null
    },
    {
      "place_id": "ChIJN5Ofg2jFXzkRnlFQXy4TUi8",
      "name": "IndianOil",
      "address": "Ground Floor, opposite Krishna Talkies, Guru Nanak Marg, Vadodara",
      "lat": 22.293801,
      "lng": 73.203301,
      "open_now": true
    },
    {
      "place_id": "ChIJMQbxuh3PXzkRHQdKUQK57MA",
      "name": "Nayara Petrol Pump -Vaishakhi Petroleum",
      "address": "Nr.Gada circle, Harni Road, Vadodara",
      "lat": 22.3423931,
      "lng": 73.2184556,
      "open_now": true
    },
    {
      "place_id": "ChIJm6OB0tbLXzkRuPdEaRmfPwo",
      "name": "Bharat Petroleum, Petrol Pump -Jay Petroleum Products",
      "address": "near RANOLI GIDC, Dashrath, Vadodara",
      "lat": 22.3926972,
      "lng": 73.1431151,
      "open_now": true
    },
    {
      "place_id": "ChIJnVP8pTTKXzkRonB4daoL9vk",
      "name": "Hindustan Petroleum Corporation Limited",
      "address": "Survey No 1401, near L & T, National Highway 48, Ranoli GIDC, Ranoli, Vadodara",
      "lat": 22.4038701,
      "lng": 73.1341901,
      "open_now": true
    },
    {
      "place_id": "ChIJ5fDkC2jJXzkRuPqPk4zz5i8",
      "name": "Nayara Petrol Pump",
      "address": "95G4+PWH, Dashrath, Vadodara",
      "lat": 22.3768247,
      "lng": 73.1573641,
      "open_now": true
    },
    {
      "place_id": "ChIJNfYsbn3JXzkRgc3aU9znU04",
      "name": "Vadodara Gas Limited CNG Station",
      "address": "Sursi, Vadodara",
      "lat": 22.3863959,
      "lng": 73.144635,
      "open_now": true
    },
    {
      "place_id": "ChIJl7G7d5XJXzkRLcIIXZpk9Cs",
      "name": "Bharat Petroleum, Petrol Pump -Nirmal Shanti Petroleum",
      "address": "opp. GUJARAT REFIN, Koyali, Vadodara",
      "lat": 22.36174859999999,
      "lng": 73.1142115,
      "open_now": true
    },
    {
      "place_id": "ChIJhzTCjFLJXzkRU2i25IQfqqE",
      "name": "Bharat petroleum koyli",
      "address": "94JH+2P, Vadodara",
      "lat": 22.380102,
      "lng": 73.129301,
      "open_now": true
    },
    {
      "place_id": "ChIJMVnoPyPKXzkR5U6_lbpoWHQ",
      "name": "Reliance Petroleum",
      "address": "Ground Floor, opposite Gacl, Gidc Industrial Area, Ranoli, Dhanora",
      "lat": 22.3943219,
      "lng": 73.1156841,
      "open_now": true
    },
    {
      "place_id": "ChIJxblPSC7KXzkR6AJStN6tAIc",
      "name": "Minal Service Station",
      "address": "94WG+4MW, Ranoli, Vadodara",
      "lat": 22.39535,
      "lng": 73.1267,
      "open_now": null
    },
    {
      "place_id": "ChIJgRWK_izKXzkRTh70Qc2GPbw",
      "name": "IndianOil",
      "address": "Survey No 50, Padmala, Ranoli, Vadodara",
      "lat": 22.3935074,
      "lng": 73.1320923,
      "open_now": true
    },
    {
      "place_id": "ChIJBQSrkT_JXzkRfIxOcdvxNRc",
      "name": "IndianOil",
      "address": "Ground Floor, Refinery Teen Rasta, Gujarat Refinery Township, Bajwa, Chansad",
      "lat": 22.365425,
      "lng": 73.135729,
      "open_now": true
    },
    {
      "place_id": "ChIJOSErpkfLXzkRPqSCHpcb0m4",
      "name": "Jay Bhavani petrol pump",
      "address": "94VJ+QWP, IPCL Road, Ranoli, Vadodara",
      "lat": 22.3944554,
      "lng": 73.1323136,
      "open_now": null
    },
    {
      "place_id": "ChIJ6RQ1GNPLXzkRl7pefhUlkxQ",
      "name": "Om Shree Ganesh Petroleum",
      "address": "IPCL Road, Ranoli, Vadodara",
      "lat": 22.39431739999999,
      "lng": 73.1366027,
      "open_now": true
    },
    {
      "place_id": "ChIJ4ZQZIWPLXzkR4szUjNETt4Y",
      "name": "Ranoli rly stn",
      "address": "C447+H4V, Ranoli, Vadodara",
      "lat": 22.4064864,
      "lng": 73.1128043,
      "open_now": null
    },
    {
      "place_id": "ChIJrd9EdtLLXzkRUSSuEwwBsCI",
      "name": "IndianOil",
      "address": "Industrial Estate, No 101, NH 8, Padamla, Ranoli, Vadodara",
      "lat": 22.39815,
      "lng": 73.139156,
      "open_now": true
    },
    {
      "place_id": "ChIJk13uzILLXzkRG7QGzY50MAY",
      "name": "IndianOil",
      "address": "Ground Floor NH 8, Padmala, Ranoli, Vadodara",
      "lat": 22.400083,
      "lng": 73.138063,
      "open_now": true
    },
    {
      "place_id": "ChIJS6KB6XTKXzkRPBf-Whiws20",
      "name": "Hindustan Petroleum Corporation Limited",
      "address": "Plot No 48/1 & 49, GIDC Road, Nandesari, Vadodara",
      "lat": 22.4063501,
      "lng": 73.0917901,
      "open_now": true
    },
    {
      "place_id": "ChIJzwi1vzTKXzkR7i5i84zFRKU",
      "name": "Essar Petrol Pump",
      "address": "C43M+VCP, Ranoli GIDC, Ranoli, Vadodara",
      "lat": 22.4047057,
      "lng": 73.1335857,
      "open_now": null
    },
    {
      "place_id": "ChIJeVH42N7JXzkRiGeTFZ9Kl28",
      "name": "Hindustan Petroleum Corporation Limited",
      "address": "RS No 566/1 NH 48, Dashrath, Vadodara",
      "lat": 22.386018,
      "lng": 73.147762,
      "open_now": true
    },
    {
      "place_id": "ChIJ4-p8l7nJXzkRnUC_NF_KgtE",
      "name": "Jio BP - DRC PETROLEUM",
      "address": "CS:749, Block No: 484 Opp G.S.F.C nagar gate, NH-8,P.O. Fertilizer, Dashrath, Vadodara",
      "lat": 22.38126879999999,
      "lng": 73.1532023,
      "open_now": true
    },
    {
      "place_id": "ChIJZ6WVAADPXzkRsjByYFIy0g8",
      "name": "Adani cng",
      "address": "9653+WMM, near HP Petrol Pump, Vemali, Vadodara",
      "lat": 22.3796934,
      "lng": 73.1552208,
      "open_now": null
    },
    {
      "place_id": "ChIJJ8rIVWbJXzkRj9cPASzrvVw",
      "name": "Adani Gas CNG Station",
      "address": "Survey No-477/P & 487/P Opp.GSFC Nagar, Village, Dashrath, Vadodara",
      "lat": 22.379617,
      "lng": 73.15523200000001,
      "open_now": true
    },
    {
      "place_id": "ChIJnY-dcAjJXzkR2U8IHXJQ61k",
      "name": "मुनसिग",
      "address": "95G5+789, Dashrath, Vadodara",
      "lat": 22.3756568,
      "lng": 73.1583576,
      "open_now": null
    },
    {
      "place_id": "ChIJLb02NLnJXzkRsg2AgVTcYc0",
      "name": "Hindustan Petroleum Corporation Limited",
      "address": "Survey No 232 Gorwa, to, Karodiya Road, Karodiya, Vadodara",
      "lat": 22.347614,
      "lng": 73.15005099999999,
      "open_now": true
    },
    {
      "place_id": "ChIJd05QAz_JXzkR4JKraxlKKA4",
      "name": "Maruti Petroleum",
      "address": "Chhani Rd, Chhani, Vadodara",
      "lat": 22.3627196,
      "lng": 73.16570999999999,
      "open_now": true
    },
    {
      "place_id": "ChIJs9YRhEDLXzkR6a527FIS5Oc",
      "name": "BPCL PETROL PUMP ( HRM GAS STATION)",
      "address": "NH 48, Sankarda",
      "lat": 22.4301339,
      "lng": 73.1078133,
      "open_now": true
    },
    {
      "place_id": "ChIJo_3llorKXzkRt_MbG6yVKoM",
      "name": "NAYARA Petroleum Pump - Kissan Petroleum",
      "address": "C4J5+7VC, Service Road, Rayaka",
      "lat": 22.4306865,
      "lng": 73.1096274,
      "open_now": true
    },
    {
      "place_id": "ChIJVdeKbwDLXzkRZop-bjuQX7c",
      "name": "Kissan Petroleum",
      "address": "Sankarda",
      "lat": 22.4310628,
      "lng": 73.1093933,
      "open_now": true
    },
    {
      "place_id": "ChIJoU3eJQDLXzkRtIzO7BcGrgY",
      "name": "BPCL PUMP (HRM GAS STATION)",
      "address": "C4HF+XV6, Sankarda",
      "lat": 22.429904,
      "lng": 73.1246338,
      "open_now": null
    },
    {
      "place_id": "ChIJsUCw-LvJXzkRHFhz2DgpHKY",
      "name": "Nayara Petrol Pump",
      "address": "Survey No. 510/Paiki 1, Village-Chhani, Taluka, North, Vadodara",
      "lat": 22.3582802,
      "lng": 73.1669213,
      "open_now": null
    },
    {
      "place_id": "ChIJF0iQUbfLXzkRwtng6my1IIU",
      "name": "GSPL Sokhada Terminal",
      "address": "C4GQ+FGM",
      "lat": 22.4262151,
      "lng": 73.13879159999999,
      "open_now": null
    },
    {
      "place_id": "ChIJe4UGYobKXzkRNFAj9mH8u6I",
      "name": "IndianOil",
      "address": "Ground Floor, NH 8, D Cabin, Fajalpur",
      "lat": 22.433188,
      "lng": 73.09669900000002,
      "open_now": true
    },
    {
      "place_id": "ChIJ_y7cb-jLXzkR8_MB8DLUxxs",
      "name": "Pramukhraj petroleum",
      "address": "C4MC+CWH, Sankarda - Bhadarva Road, Sankarda",
      "lat": 22.4344264,
      "lng": 73.1235262,
      "open_now": true
    },
    {
      "place_id": "ChIJKciA7pTJXzkRt6co_O1A1Ms",
      "name": "Shree Ambe Bharat petrol",
      "address": "95CF+JVQ, National Highway 8 Dumad Service Road, Vadodara",
      "lat": 22.3715817,
      "lng": 73.17473269999999,
      "open_now": null
    },
    {
      "place_id": "ChIJW2LOpj3LXzkRkwJNvbtdG0E",
      "name": "JAY SHREE AMBE PETROLEUM (INDIAN OIL)",
      "address": "opp. Chowk talav, Sankarda",
      "lat": 22.43941,
      "lng": 73.128006,
      "open_now": true
    },
    {
      "place_id": "ChIJ6QU7vFq3XzkRRDhpUeCz_10",
      "name": "Hindustan Petroleum Corporation Limited",
      "address": "Survey No 609, SH 11, Anklav, Umeta, Anand",
      "lat": 22.341001,
      "lng": 73.047547,
      "open_now": true
    },
    {
      "place_id": "ChIJNcSEs6_OXzkR9Z7mmdYp7Qs",
      "name": "IndianOil",
      "address": "No 617, P State Highway, Dumad",
      "lat": 22.382526,
      "lng": 73.191092,
      "open_now": true
    },
    {
      "place_id": "ChIJKWrA05fPXzkRuKzvAp8fQsg",
      "name": "MAA VAGHESHVARI PETROLEUM",
      "address": "Sama-Savli Road, Dumad",
      "lat": 22.3776456,
      "lng": 73.1913866,
      "open_now": true
    },
    {
      "place_id": "ChIJ9e0yAQDPXzkRdn0LF9ZL7-g",
      "name": "Maa Vagheshvari Petroleum",
      "address": "391740, Sama-Savli Road, Manjusar",
      "lat": 22.3776754,
      "lng": 73.1916153,
      "open_now": null
    },
    {
      "place_id": "ChIJ9b-b4UzJXzkRyZRFZcak-EQ",
      "name": "Hindustan Petroleum Corporation Limited",
      "address": "Sy No 1000/3, Block No 731, Savli - Vadodara Road, Dumad",
      "lat": 22.3795982,
      "lng": 73.1914469,
      "open_now": true
    },
    {
      "place_id": "ChIJAUA_rErJXzkR_z-pwSOIg9Y",
      "name": "Yogeshwar Petroleum",
      "address": "NH 48 VADODARA BYPASS, Dumad Road, Dumad",
      "lat": 22.3669576,
      "lng": 73.18762559999999,
      "open_now": true
    },
    {
      "place_id": "ChIJOYAKFADPXzkRDsjey6ray5Y",
      "name": "IOCL SHREE BALAJI PETROLEUM",
      "address": "95QV+C7, Sisva",
      "lat": 22.3882014,
      "lng": 73.192767,
      "open_now": true
    },
    {
      "place_id": "ChIJiZQft8LOXzkRYd36cL6nsR0",
      "name": "Hindustan Petroleum Corporation Limited",
      "address": "Ground Floor, NH 48, Vemali, Vadodara",
      "lat": 22.359602,
      "lng": 73.20455799999999,
      "open_now": true
    },
    {
      "place_id": "ChIJuUbP2KzIXzkRJMYZeIVqj9E",
      "name": "IndianOil",
      "address": "Ground Floor, Halol Crossing, D Cabin, Vemali, Ahmedabad",
      "lat": 22.3594496,
      "lng": 73.2097129,
      "open_now": true
    },
    {
      "place_id": "ChIJWy1pJ-bOXzkR405d9osQSRY",
      "name": "IndianOil",
      "address": "Ground Floor, Halol Crossing, D Cabin, Vemali, Ahmedabad",
      "lat": 22.3594332,
      "lng": 73.20971469999999,
      "open_now": true
    },
    {
      "place_id": "ChIJkR8JO53PXzkRWibb7ytu2WU",
      "name": "Shell Petrol Pump",
      "address": "Sama-Savli Road, Vadodara",
      "lat": 22.348249,
      "lng": 73.20107999999999,
      "open_now": true
    },
    {
      "place_id": "ChIJacVIMADPXzkRJA8rM6cKycc",
      "name": "IndianOil",
      "address": "near Avsar, FP No 65, Sama-Savli Road, New Sama, Vadodara",
      "lat": 22.3455595,
      "lng": 73.2018544,
      "open_now": true
    },
    {
      "place_id": "ChIJu4TJf2LPXzkRN4UDa73r5DM",
      "name": "Coco sama IOCL",
      "address": "Nutan Vidhyalaya, B1002, Raghuvir Nagar, Kasturba Nagar, New Sama, Vadodara",
      "lat": 22.3451521,
      "lng": 73.2017269,
      "open_now": true
    },
    {
      "place_id": "ChIJW54YvtHPXzkRM2_bHhbefA4",
      "name": "HP pump",
      "address": "behind BP Pump, A4,102, Aadhar Bldg.,Aashka Resi.Complex, Sama Savli Road, Opp Sama Lake,, behind BP Pump, Vadodara",
      "lat": 22.3429962,
      "lng": 73.2035243,
      "open_now": null
    },
    {
      "place_id": "ChIJkQ-CNG3MXzkRR86SDIj7-uo",
      "name": "Hindustan Petroleum Corporation Limited",
      "address": "Ground Floor, Sama-Savli Road, Asoj",
      "lat": 22.416035,
      "lng": 73.195852,
      "open_now": true
    },
    {
      "place_id": "ChIJ88JQeQDPXzkR3RK8lsecSqw",
      "name": "Hindustan Petroleum Corporation Limited",
      "address": "Survey No 175/Paiki, Motnath Mahadev Mandir Road, Harni, Vadodara",
      "lat": 22.351859,
      "lng": 73.217332,
      "open_now": true
    },
    {
      "place_id": "ChIJszH_dPzOXzkR4riFp-xEsD4",
      "name": "IndianOil",
      "address": "near Dena, Ground Floor, Golden Crossing Dena, NH 8 Vadodara Bypass, Karelibaug, near Dena, Crossing, Vadodara",
      "lat": 22.354803,
      "lng": 73.221801,
      "open_now": true
    },
    {
      "place_id": "ChIJFccPGOLPXzkRsVsMOnO_EBE",
      "name": "Online Vadodara Gas",
      "address": "Rajeshwar Residency 2, Harni Road, Harni, Vadodara",
      "lat": 22.3433734,
      "lng": 73.213352,
      "open_now": true
    },
    {
      "place_id": "ChIJMStv8P3RXzkRNsEaGq-STis",
      "name": "IndianOil",
      "address": "Ground Floor Bhaniyara, Waghodia, Dena",
      "lat": 22.39475999999999,
      "lng": 73.277081,
      "open_now": true
    },
    {
      "place_id": "ChIJVwsJ-QLOXzkRiAehR2Yl6oo",
      "name": "Gujarat Gas CNG Station",
      "address": "97RF+VM2, Ganeshpura",
      "lat": 22.3921357,
      "lng": 73.27413039999999,
      "open_now": true
    },
    {
      "place_id": "ChIJV43HL3XPXzkR7VKVsQ6aubc",
      "name": "NEELKANTH PETROLEUM ONLINE CNG STATION",
      "address": "Amaliyara",
      "lat": 22.3631289,
      "lng": 73.2479226,
      "open_now": true
    },
    {
      "place_id": "ChIJ1WOBTwDPXzkRbzL9yAxZ3lg",
      "name": "Vadodara Gas Limited CNG Station",
      "address": "967W+4X4, Gujarat State Highway 87, Vadodara",
      "lat": 22.3629954,
      "lng": 73.2480054,
      "open_now": true
    },
    {
      "place_id": "ChIJGbU9gpjPXzkRurNS8Muz3Zo",
      "name": "Hindustan Petroleum Corporation Limited",
      "address": "Survey No 382, Halol Road, SH 87, Golden Chokdi, Waghodiya, Kumetha",
      "lat": 22.372711,
      "lng": 73.269363,
      "open_now": true
    },
    {
      "place_id": "ChIJkXMfY-bPXzkRaoVfsaAHZ8w",
      "name": "Indian Oil Petrol Pump (Shivansh Petroleum)",
      "address": "Vadodara-Halol Highway, near Waywait Hotel, Gujarat State Highway 87, Waghodia",
      "lat": 22.3529633,
      "lng": 73.2373638,
      "open_now": true
    },
    {
      "place_id": "ChIJPeU_agDPXzkR7-HtcpXoWow",
      "name": "Bharat Petroleum",
      "address": "962H+48, Harni, Vadodara",
      "lat": 22.3503967,
      "lng": 73.22850679999999,
      "open_now": true
    },
    {
      "place_id": "ChIJeUR9M-LPXzkR-EpJrbjtR2Y",
      "name": "SHREE GAJANAND PETROLEUM",
      "address": "The Status Road, Harni, Vadodara",
      "lat": 22.3430896,
      "lng": 73.2149254,
      "open_now": null
    },
    {
      "place_id": "ChIJ4bk0pODNXzkR1za5pZaczqU",
      "name": "Hindustan Petroleum Corporate Limited",
      "address": "C6GC+W4Q, Savli GIDC Road, Manjusar",
      "lat": 22.427334,
      "lng": 73.22035699999999,
      "open_now": true
    },
    {
      "place_id": "ChIJGbTz1iTSXzkRgj7CFXw5Yg4",
      "name": "IndianOil",
      "address": "RS No 769/B, Champaner Road, P/1, Waghodia, Kotambi",
      "lat": 22.4156347,
      "lng": 73.3088696,
      "open_now": true
    },
    {
      "place_id": "ChIJGddg1iTSXzkRBjgDeYcXD40",
      "name": "Gopidarshan petroleum",
      "address": "C885+7H, Halol - Vadodara Road, Kotambi",
      "lat": 22.4156877,
      "lng": 73.3088532,
      "open_now": true
    }
  ]
}