{
  "city": "Kolhapur",
  "state": "Maharashtra",
  "count": 155,
  "center": {
    "lat": 16.7,
    "lng": 74.2167
  },
  "pumps": [
    {
      "place_id": "ChIJ7eaPJ8uqwTsRdixhn0m5iaw",
      "name": "HPCL Petrol Pump (INGAWALE )",
      "address": "SURVEY No. 255/1B, PLOT No.1, BALINGA, PHULEWADI RING ROAD, KARVEER, PHULEWADI",
      "lat": 16.6741149,
      "lng": 74.1914738,
      "open_now": true
    },
    {
      "place_id": "ChIJN7TkN_5UwDsREYZGOcSGgCw",
      "name": "NAYARA parwati petrolium",
      "address": "India",
      "lat": 16.6292992,
      "lng": 74.1695302,
      "open_now": null
    },
    {
      "place_id": "ChIJhYDaYLhUwDsRWrR3Cx-5hW0",
      "name": "Hindustan Petroleum Corporation Limited",
      "address": "Gat No 775, Road, Karveer, Balinge",
      "lat": 16.6558576,
      "lng": 74.14649159999999,
      "open_now": true
    },
    {
      "place_id": "ChIJdcOKWRVUwDsRjeEFcbpsTsc",
      "name": "Sadoli Petrol Pump",
      "address": "Near, State Hwy, Phondaghat, Kolhapur",
      "lat": 16.6001683,
      "lng": 74.1474842,
      "open_now": true
    },
    {
      "place_id": "ChIJ0YbGODpTwDsRuo761lPddeU",
      "name": "IndianOil",
      "address": "Gat No 946 Mdr 38, Are, Beed",
      "lat": 16.642708,
      "lng": 74.1161382,
      "open_now": true
    },
    {
      "place_id": "ChIJTbTbyLFUwDsR0MSN9OY1rso",
      "name": "HP PETROL PUMP - MAHALAXMI PETROLEUM",
      "address": "Hpcl Dealer, GAT. NO. 775, AT Mouje Koge, Tehsil Karveer, Vasco",
      "lat": 16.660995,
      "lng": 74.1369,
      "open_now": true
    },
    {
      "place_id": "ChIJU5Q4yRtVwDsRs3JGwoYUg-o",
      "name": "Hindustan Petroleum Corporation Limited",
      "address": "Survey No 248, Kolhapur-Radhanagari Road, Karvir, Washi",
      "lat": 16.6426442,
      "lng": 74.1795125,
      "open_now": true
    },
    {
      "place_id": "ChIJB242m4hTwDsRNDuPoxgcyMk",
      "name": "Anand Petroleum",
      "address": "Kolhapur",
      "lat": 16.6260279,
      "lng": 74.11021439999999,
      "open_now": true
    },
    {
      "place_id": "ChIJ3yePSKZVwDsRQMYZ0i6FlTg",
      "name": "Petrol pump",
      "address": "Ground Floor, Radhanagari Road, Barve, Haldi",
      "lat": 16.5955338,
      "lng": 74.1542951,
      "open_now": true
    },
    {
      "place_id": "ChIJOSoYwjxUwDsRloDkpKIYJz4",
      "name": "IndianOil",
      "address": "Ground Floor, Are, Shiroli Dumala",
      "lat": 16.59148399999999,
      "lng": 74.151558,
      "open_now": true
    },
    {
      "place_id": "ChIJM9lq9R9VwDsRVyByfL87g94",
      "name": "CHAKRESHWAR INDANE",
      "address": "J52V+X4F, Kolhapur",
      "lat": 16.60244609999999,
      "lng": 74.192791,
      "open_now": null
    },
    {
      "place_id": "ChIJh-bKFOdVwDsRXKISEY8_EGs",
      "name": "IndianOil",
      "address": "Gat No 70/A, Hanbarwadi Rd, Paiki, Kolhapur",
      "lat": 16.6134913,
      "lng": 74.2041539,
      "open_now": true
    },
    {
      "place_id": "ChIJAfyunGhVwDsR3x-oaaPJPxk",
      "name": "Bharat Petroleum, Petrol Pump -Kalamba Petroleum",
      "address": "OCTORAI NAKA KALAMBA, Kolhapur",
      "lat": 16.6483028,
      "lng": 74.2054222,
      "open_now": true
    },
    {
      "place_id": "ChIJ3VR5qElVwDsRxjmrDB5ctzo",
      "name": "Ratna Petroleum BPCL Pump",
      "address": "Near Auto LPG Station, 855, Radhanagari Road, New Vashi Naka, C Ward, Kolhapur",
      "lat": 16.6657224,
      "lng": 74.19716749999999,
      "open_now": true
    },
    {
      "place_id": "ChIJIwjg9F-rwTsRlcLM1-vaoZ4",
      "name": "Hindustan Petroleum Corporation Limited",
      "address": "Survey No 255/1B, Plot No N, Phulewadi, Balinge",
      "lat": 16.6741642,
      "lng": 74.1917754,
      "open_now": true
    },
    {
      "place_id": "ChIJweh6oqxWwDsR-LxERUllLJ0",
      "name": "Nayara Petroleum Kurukali",
      "address": "H4CG+45M, Kolhapur",
      "lat": 16.5703394,
      "lng": 74.1254251,
      "open_now": true
    },
    {
      "place_id": "ChIJ7acYKgCrwTsRxcP1yPHd91s",
      "name": "BPCL electric charging station",
      "address": "Maharashtra State Highway 115, Kolhapur - Gaganbavda - kankavli Road, Kolhapur",
      "lat": 16.6948706,
      "lng": 74.1493608,
      "open_now": null
    },
    {
      "place_id": "ChIJDdn_BAirwTsR4_mq4249K2A",
      "name": "BPCL Sonhira Petroleum",
      "address": "Kolhapur",
      "lat": 16.694873,
      "lng": 74.14956099999999,
      "open_now": true
    },
    {
      "place_id": "ChIJtSV-ygarwTsRQjCRQE_kHzk",
      "name": "Reliance Petroleum",
      "address": "Survey No 22/4/A/P Gaganbawada Road, Karveer, Balinge",
      "lat": 16.6894629,
      "lng": 74.1741717,
      "open_now": true
    },
    {
      "place_id": "ChIJmVfK-O6twTsR3hBY9Aag-VU",
      "name": "IndianOil",
      "address": "Ground Floor, Kuditre",
      "lat": 16.6897926,
      "lng": 74.1174492,
      "open_now": true
    },
    {
      "place_id": "ChIJp8_J8BWtwTsRLnc6qM6dHIY",
      "name": "IndianOil",
      "address": "Ground Floor Karveer, Mdr Kuditre, Amashi",
      "lat": 16.68956,
      "lng": 74.11619,
      "open_now": true
    },
    {
      "place_id": "ChIJ36WKupirwTsRqrAxngdeAi0",
      "name": "Essar petrol pump tuljabhavani petroleum",
      "address": "M4XM+388, Koparde",
      "lat": 16.6976719,
      "lng": 74.1333181,
      "open_now": null
    },
    {
      "place_id": "ChIJdTbXSNyqwTsRc-3FGRcN8ZM",
      "name": "Nayara Petrol & Diesel Pump",
      "address": "M5RH+PF7, State Highway 115, New Nagadev Wadi",
      "lat": 16.691777,
      "lng": 74.178682,
      "open_now": true
    },
    {
      "place_id": "ChIJEcld1KaswTsRB_6RPNelN3k",
      "name": "HP PETROL PUMP - RENUKA AUTOMOBILES",
      "address": "Hpcl Dealers A/P.- Koparde, SH-210, TAH.- Karveer, Vasco",
      "lat": 16.6981376,
      "lng": 74.12962,
      "open_now": true
    },
    {
      "place_id": "ChIJMxEsm20AwTsRrr3wElPYXio",
      "name": "Bharat Petroleum, Petrol Pump -Laxmi Petrol Stores",
      "address": "Kalamba Ring Road, Salokhe Nagar, Kolhapur",
      "lat": 16.6656531,
      "lng": 74.2099994,
      "open_now": true
    },
    {
      "place_id": "ChIJ_eG0dg-rwTsRP8aHRWrySqY",
      "name": "Hindustan Petroleum Corporation Limited",
      "address": "Gat No 640, Kolhapur Gaganbawda Road SH 177, Kale, Karvir, Koparde",
      "lat": 16.6985153,
      "lng": 74.12967569999999,
      "open_now": true
    },
    {
      "place_id": "ChIJwbEv4dyqwTsRx5ngBzr1fEM",
      "name": "Hindustan Petroleum Corporation Limited",
      "address": "Survey No 45/46, Kolhapur Gaganbavda Rd, SH 177, Karvir, Balinge",
      "lat": 16.692315,
      "lng": 74.180965,
      "open_now": true
    },
    {
      "place_id": "ChIJqXVsBDP-wDsRHpAHcrEq6uM",
      "name": "IndianOil",
      "address": "Ground Floor, near Shivaji University, NH 4, Karveer, Ujalaiwadi, Kolhapur",
      "lat": 16.6643942,
      "lng": 74.2672005,
      "open_now": true
    },
    {
      "place_id": "ChIJW8lF7ryqwTsR0gMVr9K6_SY",
      "name": "Gangaves Bharat Petrol Pump, Phulewadi, Kolhapur.",
      "address": "1211, Maharashtra State Highway 115, Phulewadi, Kolhapur",
      "lat": 16.6933442,
      "lng": 74.204111,
      "open_now": true
    },
    {
      "place_id": "ChIJ4-5yxMOqwTsRuQxvd7gr7cM",
      "name": "IndianOil",
      "address": "Ground Floor, Gur Market Yard, Balinge",
      "lat": 16.692184,
      "lng": 74.18757599999999,
      "open_now": true
    },
    {
      "place_id": "ChIJVYlbAJL-wDsROS7sPLmh_AE",
      "name": "Hindustan Petroleum Corporation Limited",
      "address": "Ground Floor, Karvir, NH 48, Pune Bangalore Road, Kaneriwadi",
      "lat": 16.6328404,
      "lng": 74.28964479999999,
      "open_now": true
    },
    {
      "place_id": "ChIJbSvnIgD_wDsRiuxedttJrwg",
      "name": "Chakreshwar indian gas agency near kalamba jel",
      "address": "Rushikesh Park, Tal, Panchsheel Colony, Pachgaon, Karveer, Kolhapur",
      "lat": 16.6599363,
      "lng": 74.2235154,
      "open_now": null
    },
    {
      "place_id": "ChIJ43c0LAD_wDsR-nZ2bfzdI-0",
      "name": "Charching End Point",
      "address": "M66W+92Q, Ratnappa Kumbhar Nagar, Kolhapur",
      "lat": 16.6609612,
      "lng": 74.2450965,
      "open_now": null
    },
    {
      "place_id": "ChIJLfiC54arwTsR3uwAh47onMU",
      "name": "Go Gas LPG pump",
      "address": "M6C8+FVR, Tapowan, Kolhapur",
      "lat": 16.6712317,
      "lng": 74.2171462,
      "open_now": true
    },
    {
      "place_id": "ChIJn7Nwvab_wDsRuT2_eCVXB-I",
      "name": "Hindustan Petroleum Corporation Limited",
      "address": "S No 10/06/02, Karveer, Kandalgaon",
      "lat": 16.653799,
      "lng": 74.253781,
      "open_now": true
    },
    {
      "place_id": "ChIJR_4vvcH_wDsRyEBXzKCInBc",
      "name": "Nayara Petrol Pump Vijayshree Petroleum",
      "address": "M67W+XM9, near Nayara Energy Petrol Pump, Morewadi Road, Rajendra Nagar, Kolhapur",
      "lat": 16.6649028,
      "lng": 74.246617,
      "open_now": true
    },
    {
      "place_id": "ChIJkzU6GAEAwTsR12wb8b9BL2A",
      "name": "IndianOil",
      "address": "No 712/A, F Ward A, Karveer, Sambhaji Nagar, Kolhapur",
      "lat": 16.679726,
      "lng": 74.2213664,
      "open_now": true
    },
    {
      "place_id": "ChIJjycJDamqwTsRaIwTGetl7LA",
      "name": "Hindustan Petroleum Corporation Limited",
      "address": "Ward A, SH 121, near Radhanagari Road, RS No 722/4, Karvir, Deokar Panand, Kolhapur",
      "lat": 16.682371,
      "lng": 74.21439099999999,
      "open_now": true
    },
    {
      "place_id": "ChIJiZYnikr-wDsRmp_iAj-9i2A",
      "name": "IndianOil",
      "address": "Ground Floor, NH 4, Gokul Shirgaon",
      "lat": 16.6551056,
      "lng": 74.26781679999999,
      "open_now": true
    },
    {
      "place_id": "ChIJ02rnERsAwTsRckxlEsLxYBw",
      "name": "Green India Gasoline Gas Pump",
      "address": "Shree Renuka Temple, Kolhapur., Datta Colony, Kolhapur",
      "lat": 16.6829209,
      "lng": 74.233138,
      "open_now": null
    },
    {
      "place_id": "ChIJpdGMgR8BwTsR--r63AWgG74",
      "name": "IndianOil",
      "address": "Ground Floor, Jawahar Nagar, Kolhapur",
      "lat": 16.682961,
      "lng": 74.233972,
      "open_now": true
    },
    {
      "place_id": "ChIJObhEZkn-wDsRVdcLyvMOpUg",
      "name": "Konduskar Auto Centre(BPCL) (Diesel & EV )",
      "address": "NH4, PB Road, Gokul Shirgaon",
      "lat": 16.65237,
      "lng": 74.27103199999999,
      "open_now": true
    },
    {
      "place_id": "ChIJrSXQG0_-wDsROHr-bdfTAVs",
      "name": "Hindustan Petroleum Corporation Limited",
      "address": "Gat No 217, Pune Bangalore Road, National Highway 48, Karvir, Gokul Shirgaon",
      "lat": 16.649191,
      "lng": 74.274183,
      "open_now": true
    },
    {
      "place_id": "ChIJV_dJF1r-wDsRDZPpqyby_i8",
      "name": "IndianOil",
      "address": "P2 MIDC, Pune, Bengaluru - Mumbai Highway, Gokul Shirgaon",
      "lat": 16.6407413,
      "lng": 74.277664,
      "open_now": true
    },
    {
      "place_id": "ChIJj4U0yFf_wDsR2rsnGtXu_XM",
      "name": "PATIL AUTOMOBILE DEF REFILING STATIO (TATA)N",
      "address": "Besides Pravin Petrol Pump, near by National Highway, No 4, Ujalaiwadi, Kolhapur",
      "lat": 16.6641957,
      "lng": 74.2674021,
      "open_now": true
    },
    {
      "place_id": "ChIJwXmpEBEAwTsR575DCf6N7jc",
      "name": "IndianOil",
      "address": "Ground Floor, 25, Shivaji Udyam Nagar, Kolhapur",
      "lat": 16.691399,
      "lng": 74.23376499999999,
      "open_now": true
    },
    {
      "place_id": "ChIJC8elfvX-wDsRCCg9vQ-cLzQ",
      "name": "Anand Petrol/Diesel Pump",
      "address": "J7MP+Q8J, Madras Bombay Trunk Road, Kolhapur",
      "lat": 16.6344647,
      "lng": 74.28575839999999,
      "open_now": null
    },
    {
      "place_id": "ChIJBV2dfvX-wDsRluN1n4zAz4M",
      "name": "Charat Petroleum",
      "address": "India",
      "lat": 16.6345435,
      "lng": 74.2857844,
      "open_now": null
    },
    {
      "place_id": "ChIJ5UjiqT0AwTsR1iKmZDQVXG8",
      "name": "Bharat Petroleum, Petrol Pump -Konduskar Auto Centre",
      "address": "RAJARAMPURI,KOLHAPUR, Kolhapur",
      "lat": 16.6917125,
      "lng": 74.2438449,
      "open_now": true
    },
    {
      "place_id": "ChIJQY2LYAD_wDsRp1P-gBEuQDQ",
      "name": "Kolhapur Zilla Sahakari Dudh Utpadak Sangh Ltd. Gokul Petrol Pump",
      "address": "J7MP+MJQ, Kolhapur",
      "lat": 16.6350746,
      "lng": 74.2865139,
      "open_now": true
    },
    {
      "place_id": "ChIJxxwJ6_UBwTsR6Jyz9-fVe6s",
      "name": "Shri Swami Samarth Spre Penting",
      "address": "M6RV+PQW, Rashiwade Bk, near Bharat Petroleum, Petrol Pump -Konduskar Auto Centre",
      "lat": 16.6918544,
      "lng": 74.244438,
      "open_now": true
    },
    {
      "place_id": "ChIJ5zap8RIAwTsRiPK7dBdztGU",
      "name": "Bharat Petroleum, Petrol Pump -Dharamtar Motors",
      "address": "NR UMA TALKIES KOLHAPUR, Kolhapur",
      "lat": 16.6970166,
      "lng": 74.2317755,
      "open_now": true
    },
    {
      "place_id": "ChIJy5M5A8OqwTsRi334Pc2i0IM",
      "name": "Bharat Petroleum, Petrol Pump -Patil Petroleum",
      "address": "M5RM+WVM, Maharashtra State Highway 115, New Nagadev Wadi, Kolhapur",
      "lat": 16.6925837,
      "lng": 74.1849768,
      "open_now": true
    },
    {
      "place_id": "ChIJ0cTBbxMAwTsRGHkSd8eIENs",
      "name": "Shetkari Petrol Pump",
      "address": "Shahupuri, Kolhapur",
      "lat": 16.697472,
      "lng": 74.234712,
      "open_now": null
    },
    {
      "place_id": "ChIJJUCUaBMAwTsRwfgGg7_4nak",
      "name": "IndianOil",
      "address": "Ground Floor, Rajaram Road, Kolhapur",
      "lat": 16.697287,
      "lng": 74.23625899999999,
      "open_now": true
    },
    {
      "place_id": "ChIJ9apX4oirwTsRBKNKeeEXDz0",
      "name": "Hindustan Petroleum Corporation Limited",
      "address": "Survey No 1032 B, E Ward, Station Road, Karveer, Shivaji Udyam Nagar, Kolhapur",
      "lat": 16.697778,
      "lng": 74.23469349999999,
      "open_now": true
    },
    {
      "place_id": "ChIJO07uU5MBwTsRirZwF9LZQ5E",
      "name": "IndianOil",
      "address": "Ground Floor, Laxmipuri, Kolhapur",
      "lat": 16.700271,
      "lng": 74.229993,
      "open_now": true
    },
    {
      "place_id": "ChIJRR6xJQNVwDsRb19ZxUoFRDA",
      "name": "PETROL & CNG PUMP - N. S. PETROLEUM",
      "address": "AT & PO Sangwadi, Kolhapur Hupri Road Kolhapur, Vasco",
      "lat": 16.6667561,
      "lng": 74.3306232,
      "open_now": true
    },
    {
      "place_id": "ChIJQUIRFtEBwTsR2Rsyp5PhQSM",
      "name": "Aegis Autogas LPG Station",
      "address": "M7PF+X56, Madras Bombay Trunk Road, NH Service Road, Sarnobatwadi, Kolhapur",
      "lat": 16.6874025,
      "lng": 74.27289019999999,
      "open_now": true
    },
    {
      "place_id": "ChIJVdC5vNwBwTsR9mnL8Pny8jg",
      "name": "Essar Petrol Pump",
      "address": "Gad Mudshingi",
      "lat": 16.6906877,
      "lng": 74.2833113,
      "open_now": null
    },
    {
      "place_id": "ChIJWx4QUc8BwTsR7MhkQANk4p0",
      "name": "Hindustan Petroleum Corporation Limited",
      "address": "Part 4/2, Survey No 350/A, Pune Bangalore Road, National Highway 48, Karvir, Uchgaon, Kolhapur",
      "lat": 16.695691,
      "lng": 74.27573100000001,
      "open_now": true
    },
    {
      "place_id": "ChIJTQpkmeD7wDsRkpCfqER_6uo",
      "name": "Hindustan Petroleum Corporation Limited",
      "address": "Ground Floor, Pune Bangalore, Road NH 48, Vikaswadi",
      "lat": 16.568991,
      "lng": 74.315861,
      "open_now": true
    },
    {
      "place_id": "ChIJoVy5boz-wDsR3ehRCWHHEB4",
      "name": "IndianOil",
      "address": "Ground Floor, NH 4, Are, Kaneriwadi",
      "lat": 16.6285788,
      "lng": 74.292116,
      "open_now": true
    },
    {
      "place_id": "ChIJMXbc9pD-wDsRh_SetHNq2sU",
      "name": "IndianOil",
      "address": "Ground Floor MIDC, Kaneriwadi, NH 4, Gokul Shirgaon",
      "lat": 16.62116499999999,
      "lng": 74.298092,
      "open_now": true
    },
    {
      "place_id": "ChIJU3J7MK_-wDsRAcIuy6khzCs",
      "name": "JAJAL AUTOMOTIVE",
      "address": "225 NH 4 HIGHWAY P.B ROAD, VIKASWADI, Kolhapur",
      "lat": 16.619044,
      "lng": 74.29870199999999,
      "open_now": true
    },
    {
      "place_id": "ChIJge2AR3f_wDsRW9uDY-rRum0",
      "name": "Hindustan Petroleum Corporation Limited",
      "address": "Survey No 225 Pune Bangalore Rd, NH 48, kagal, Vikaswadi",
      "lat": 16.6192549,
      "lng": 74.29892699999999,
      "open_now": true
    },
    {
      "place_id": "ChIJJT3s4ib_wDsRWYIZ4q12zfE",
      "name": "IndianOil",
      "address": "Ground Floor NH 4, Poona, Bengaluru - Mumbai Highway, Vikaswadi",
      "lat": 16.61737399999999,
      "lng": 74.3002577,
      "open_now": true
    },
    {
      "place_id": "ChIJTzSeY5j-wDsRaSDPHaKZQUY",
      "name": "Dhananjay Mahadik Petrol Pump",
      "address": "J873+J5W, Madras Bombay Trunk Road, Kagal",
      "lat": 16.6141241,
      "lng": 74.3029581,
      "open_now": null
    },
    {
      "place_id": "ChIJ2ZU9iKD-wDsRgPID8qCr6Vk",
      "name": "Shree Mahalakshmi Petroleum(BPCL)",
      "address": "Kagal 5 Star MIDC Industrial Area, Vikaswadi",
      "lat": 16.6108866,
      "lng": 74.31099100000002,
      "open_now": null
    },
    {
      "place_id": "ChIJrRUK4cH9wDsRuH_mWCD9dmc",
      "name": "SRUSHTI PETROLINK",
      "address": "Gur Market Yard, Gat No 18, Sangawadewadi, Karvir, Kolhapur",
      "lat": 16.639476,
      "lng": 74.3213324,
      "open_now": true
    },
    {
      "place_id": "ChIJOYjYR3H7wDsRI7x2PNqMKUA",
      "name": "IndianOil",
      "address": "Ground Floor, NH 4, Kagal",
      "lat": 16.5978459,
      "lng": 74.3065805,
      "open_now": true
    },
    {
      "place_id": "ChIJPU9tIav-wDsREM3zKB1sEvI",
      "name": "Kagal Agar Petrol Pump",
      "address": "H8R5+QCH, Service Road, Kagal",
      "lat": 16.5919273,
      "lng": 74.3086106,
      "open_now": null
    },
    {
      "place_id": "ChIJBXfeSAD_wDsRMd3ixd58lg4",
      "name": "Tulsi HP GAS Godaun",
      "address": "राई हॉल रोड, उजळाईवाडी जी नंबर 54, near तुळशी गॅस गोडाऊन रवी, प्लॉट नंबर 4, Ujalaiwadi, Kolhapur",
      "lat": 16.6773533,
      "lng": 74.28229499999999,
      "open_now": null
    },
    {
      "place_id": "ChIJOyShYJT5wDsRvLo4sYSkevs",
      "name": "IndianOil",
      "address": "Ground Floor, Gorambe, Kagal",
      "lat": 16.5805342,
      "lng": 74.29592199999999,
      "open_now": true
    },
    {
      "place_id": "ChIJ7fqUbFb5wDsROWvRv1e0JQo",
      "name": "Bharat Petroleum, Petrol Pump -Kagal Petrol Stores",
      "address": "Kaneri To NH4, Kagal",
      "lat": 16.5841436,
      "lng": 74.31015219999999,
      "open_now": true
    },
    {
      "place_id": "ChIJ41IjWmv8wDsRQIj47vVljns",
      "name": "Bharat Petroleum, Petrol Pump -Samarth Sai Petrolinks",
      "address": "Kagal 5 Star MIDC Industrial Area, Kagal",
      "lat": 16.6102837,
      "lng": 74.33606999999999,
      "open_now": true
    },
    {
      "place_id": "ChIJXU1Wm5r5wDsRNs2naOJSXSQ",
      "name": "IndianOil",
      "address": "Ghat No 137, SH 139, Pimpalgaon, Kagal, Gorambe, Kolhapur",
      "lat": 16.5751717,
      "lng": 74.2815092,
      "open_now": true
    },
    {
      "place_id": "ChIJw4L5spMewTsRpbUNXGPB3ow",
      "name": "IndianOil",
      "address": "Ground Floor, Gur Market Yard, Kagal",
      "lat": 16.580013,
      "lng": 74.31316079999999,
      "open_now": true
    },
    {
      "place_id": "ChIJ5_mLSf37wDsRABBkgKAsYeA",
      "name": "Bhuyekar Petrol Pump",
      "address": "H8J7+273, Hanbar Galli, Kagal",
      "lat": 16.5800026,
      "lng": 74.313176,
      "open_now": true
    },
    {
      "place_id": "ChIJ78qNxC79wDsRekLFA7RFDUk",
      "name": "Hindustan Petroleum Corporation Limited",
      "address": "Survey No 107, Kolhapur Hupari Road, SH 277, Karvir, Sangavade",
      "lat": 16.6670343,
      "lng": 74.3306207,
      "open_now": true
    },
    {
      "place_id": "ChIJOzQsS-v9wDsRN1mLwSwgRYU",
      "name": "Indian Oil SHREE PETROLEUM",
      "address": "Shop NO. 2 Near Vasagade, Main Road, Sangavade",
      "lat": 16.6660458,
      "lng": 74.3350437,
      "open_now": true
    },
    {
      "place_id": "ChIJfUJa_twBwTsRAodsaqy9xdY",
      "name": "Om Sai BPCL Petrol Pump",
      "address": "305 K, Gad Mudshingi - Mudshingi Road, Uchgaon, Kolhapur",
      "lat": 16.689308,
      "lng": 74.2852499,
      "open_now": true
    },
    {
      "place_id": "ChIJA6NzjdYBwTsRtu5ZnE6otrg",
      "name": "Ishwarkala Vinayak Gadage",
      "address": "4, NH Service Road, Sarnobatwadi, Kolhapur",
      "lat": 16.6883468,
      "lng": 74.2724111,
      "open_now": null
    },
    {
      "place_id": "ChIJS20N-jwBwTsRlPQJjdDq240",
      "name": "IndianOil",
      "address": "Ground Floor, Pune Bengaluru Highway NH 4, Uchgaon, Gur, Shahu Market Yard, Kolhapur",
      "lat": 16.6964587,
      "lng": 74.2758173,
      "open_now": true
    },
    {
      "place_id": "ChIJ9zZCYAABwTsR81K4W2ztl8M",
      "name": "Cng",
      "address": "M7XG+CWX, Pune-Bangalore Highway, Uchgaon, Kolhapur",
      "lat": 16.6986006,
      "lng": 74.2773699,
      "open_now": null
    },
    {
      "place_id": "ChIJhz1Drxz7wDsRGK9fQayTMxU",
      "name": "IndianOil",
      "address": "Ground Floor, Kagal Ichalkaranji Road Sangaon, Kasba, Kagal",
      "lat": 16.5878623,
      "lng": 74.3449126,
      "open_now": true
    },
    {
      "place_id": "ChIJHXmzTEOrwTsR15ey7KwqkSQ",
      "name": "Shetiraj Kisan Seva Kendra, Yavaluj",
      "address": "Kolhapur, Gat No 1000, Yavluj, Panhala, Bajar Bhogaon",
      "lat": 16.7309212,
      "lng": 74.1310128,
      "open_now": true
    },
    {
      "place_id": "ChIJq_Zd_WurwTsRqyjSKpn6mVw",
      "name": "IndianOil",
      "address": "Plot No 37, Karvir, Rajputwadi",
      "lat": 16.7343775,
      "lng": 74.1917541,
      "open_now": true
    },
    {
      "place_id": "ChIJdf4M0YWqwTsRneaXd2H7PWI",
      "name": "Petrol Pump",
      "address": "P675+MFF, राज्य महामार्ग क्र. २०४, Ambewadi",
      "lat": 16.7141864,
      "lng": 74.20865940000002,
      "open_now": null
    },
    {
      "place_id": "ChIJ_9NxIlSrwTsRFJcCzAdRkhI",
      "name": "Hindustan Petroleum Corporation Limited",
      "address": "Sy No 29 & 30, Kolhapur Ratnagiri Road, NH 166, Karveer, Ambewadi",
      "lat": 16.7099711,
      "lng": 74.2119161,
      "open_now": true
    },
    {
      "place_id": "ChIJHdc5FR2pwTsRcEUuqAx4NTQ",
      "name": "Petrol Pump",
      "address": "Q47R+77J, Kale - Pachwad Road, Asurle",
      "lat": 16.763218,
      "lng": 74.1406513,
      "open_now": true
    },
    {
      "place_id": "ChIJp1vTrZyqwTsRuhVZThVuPJ0",
      "name": "BPCL Pump",
      "address": "P656+HXM, NH204",
      "lat": 16.7089602,
      "lng": 74.2124272,
      "open_now": true
    },
    {
      "place_id": "ChIJAQAAQHupwTsRx0EMszy5WXY",
      "name": "IndianOil",
      "address": "Kolhapur, Gat No 988 Kerle, Karvir, Karanjivane",
      "lat": 16.7637689,
      "lng": 74.16718139999999,
      "open_now": true
    },
    {
      "place_id": "ChIJzfMM-w-pwTsRTcl5BsRVdyA",
      "name": "Nayara Petrol Pump Pandurang Petroleum",
      "address": "Asurle, Porle - Majegaon Road, Kerle",
      "lat": 16.7681365,
      "lng": 74.15485509999999,
      "open_now": true
    },
    {
      "place_id": "ChIJkVmzG9OtwTsR0WWG74KcZVg",
      "name": "Nayara Petrol Pump Shree Siddhivinayak Petroleum",
      "address": "Chinchawade Tarf Kale",
      "lat": 16.7071922,
      "lng": 74.0727668,
      "open_now": true
    },
    {
      "place_id": "ChIJObK1Y1KpwTsR4PG0eS7r-UI",
      "name": "Bharat Petrol Pump",
      "address": "Q4CW+92H, Asurle",
      "lat": 16.7712204,
      "lng": 74.1450031,
      "open_now": true
    },
    {
      "place_id": "ChIJ84ONZEEAwTsRztJnhepA6To",
      "name": "Hindustan Petroleum Corporation Limited",
      "address": "Survey No 204, Station Road, E Ward, Karveer, Kolhapur",
      "lat": 16.7053885,
      "lng": 74.24511919999999,
      "open_now": true
    },
    {
      "place_id": "ChIJy5wopTgAwTsRBCHj8OIIRUk",
      "name": "Bharat Petroleum Petrol Pump",
      "address": "1148/E, Mahagaonkar Marg, Sykes Extension, Kolhapur",
      "lat": 16.699823,
      "lng": 74.24826399999999,
      "open_now": true
    },
    {
      "place_id": "ChIJsyol_EcAwTsRShO81TB9z0Q",
      "name": "IndianOil",
      "address": "Ground Floor, Old, Mumbai Bangalore Road, Trimboli, Kolhapur",
      "lat": 16.7013561,
      "lng": 74.2528452,
      "open_now": true
    },
    {
      "place_id": "ChIJKQiSgesAwTsR2Z0-QXki_1I",
      "name": "Bharat Petroleum Petrol Pump",
      "address": "P6RV+6RQ, Kasaba Bawada, Kolhapur",
      "lat": 16.7405998,
      "lng": 74.2445958,
      "open_now": null
    },
    {
      "place_id": "ChIJKcW4WqnY3DsR-kRnqB9e0rY",
      "name": "IndianOil",
      "address": "Gat No 222, Shahu Market Yard, Junnar",
      "lat": 16.7052388,
      "lng": 74.26515189999999,
      "open_now": true
    },
    {
      "place_id": "ChIJ27R24wsBwTsRyyMgXMasO2U",
      "name": "Bharat Petroleum",
      "address": "NH-4, Madras Bombay Trunk Road, Kolhapur",
      "lat": 16.7309311,
      "lng": 74.2826882,
      "open_now": true
    },
    {
      "place_id": "ChIJAfrZ0XEAwTsR4TYmSiL0Rho",
      "name": "Bharat Petroleum",
      "address": "P64H+VHR, Collector Office Road, Nagalapark, Kolhapur",
      "lat": 16.7072329,
      "lng": 74.2288253,
      "open_now": true
    },
    {
      "place_id": "ChIJb61TWBQBwTsROoBYAqYqjxk",
      "name": "Hindustan Petroleum Corporation Limited",
      "address": "CS No 399, Assembly Road, Shahupuri, Kolhapur",
      "lat": 16.7047698,
      "lng": 74.2333074,
      "open_now": true
    },
    {
      "place_id": "ChIJM4aEH2sAwTsRD0ahXXjF_mo",
      "name": "Pioneer Energy",
      "address": "614 E, 1st Lane, Vyaparipeth, Shahupuri, Kolhapur",
      "lat": 16.7012692,
      "lng": 74.2383146,
      "open_now": null
    },
    {
      "place_id": "ChIJ3xDiDGoAwTsR4AZbGg86A6k",
      "name": "IndianOil",
      "address": "Ground Floor, Kolhapur Station Road, Kolhapur",
      "lat": 16.704597,
      "lng": 74.241188,
      "open_now": true
    },
    {
      "place_id": "ChIJJdNikUEAwTsRMsFCtAHrG_8",
      "name": "Gurunanak Market",
      "address": "Tarabai Park, Kolhapur",
      "lat": 16.7049873,
      "lng": 74.24325270000001,
      "open_now": true
    },
    {
      "place_id": "ChIJB-lWHQABwTsRIvrR6vtJUVc",
      "name": "Bharat petroleum petrol pump",
      "address": "P63V+WQ3, Shahupuri, Kolhapur",
      "lat": 16.7047025,
      "lng": 74.2442868,
      "open_now": null
    },
    {
      "place_id": "ChIJy6SFr0YAwTsRggQkGEEdzVU",
      "name": "Hindustan Petroleum Corporation Limited",
      "address": "City Survey No 517, B Station Road, Kawala Naka, Karveer, Kolhapur",
      "lat": 16.705721,
      "lng": 74.247981,
      "open_now": true
    },
    {
      "place_id": "ChIJYRNCpkYAwTsRtOZgm91KZVc",
      "name": "Mahadik Petrol Pump",
      "address": "Old Pune-Bangalore Highway, Shivaji Park, Shahupuri, Kolhapur",
      "lat": 16.7061749,
      "lng": 74.2480379,
      "open_now": true
    },
    {
      "place_id": "ChIJXdOeaAABwTsRm2i1UHYbW5c",
      "name": "Kavalanaka hp petrol pump",
      "address": "P64X+97V, Old Pune-Bangalore Highway, Shahupuri, Kolhapur",
      "lat": 16.705889,
      "lng": 74.248144,
      "open_now": null
    },
    {
      "place_id": "ChIJzYuhDwABwTsRS5oY6QVc6hk",
      "name": "Bharat pump",
      "address": "P64X+G7V, Kolhapur",
      "lat": 16.706369,
      "lng": 74.2481772,
      "open_now": null
    },
    {
      "place_id": "ChIJQUCfOQABwTsRe2vIodJB590",
      "name": "CNG",
      "address": "P64X+G7V, Kolhapur",
      "lat": 16.706369,
      "lng": 74.2481772,
      "open_now": null
    },
    {
      "place_id": "ChIJzyhmyVUBwTsRRE1aK3WqdaM",
      "name": "Police welfare Petrol Pump - Bharat Petroleum",
      "address": "P6CR+C5C, Unnamed Road, Police Head Quarters, Kolhapur",
      "lat": 16.7210639,
      "lng": 74.2403819,
      "open_now": true
    },
    {
      "place_id": "ChIJT7fKBu0AwTsRFleP4_CXcXE",
      "name": "IndianOil",
      "address": "MIDC Road, Karveer, Kasaba Bawada, Kolhapur",
      "lat": 16.7370059,
      "lng": 74.24391039999999,
      "open_now": true
    },
    {
      "place_id": "ChIJv_ie8QJKwDsRzEdSmppZkiA",
      "name": "IndianOil",
      "address": "Ground Floor, Gur Market, Gaganbawada, Yard, Kolhapur",
      "lat": 16.700912,
      "lng": 74.2658342,
      "open_now": true
    },
    {
      "place_id": "ChIJS6DvWnsBwTsR2qtP7bu9Vbo",
      "name": "Bharat Petroleum, Petrol Pump -Devgiri Petroleum",
      "address": "HALONDI, Kolhapur",
      "lat": 16.738685,
      "lng": 74.3052836,
      "open_now": true
    },
    {
      "place_id": "ChIJk7F3-jwBwTsRuYEy-VjRosA",
      "name": "India auto Bharat Petrol CNG Pump",
      "address": "Q72H+XJ3, Service Road, MIDC, Shiroli",
      "lat": 16.7523794,
      "lng": 74.27905799999999,
      "open_now": true
    },
    {
      "place_id": "ChIJrUOKXpUBwTsRnolUCyUZVGE",
      "name": "Bharat Petroleum Corporation Ltd",
      "address": "P74P+GQ6, Kolhapur-Rukadi-Sangli Highway, Kolhapur",
      "lat": 16.7062847,
      "lng": 74.286891,
      "open_now": null
    },
    {
      "place_id": "ChIJfX9wQpMBwTsRn3DT5N2z2vw",
      "name": "SHREE GURUNANAK PETROLEUM",
      "address": "S No 190/5B/1, Gandhinagar, Karveer, Uchgaon, Chinchwad",
      "lat": 16.7056021,
      "lng": 74.29764999999999,
      "open_now": true
    },
    {
      "place_id": "ChIJV0UNhgkBwTsRk_mhh1dzc_Q",
      "name": "IndianOil",
      "address": "Ground Floor, Shiroli NH 4, Naka Sangli Cross, Ghalwad, Shiroli",
      "lat": 16.7282611,
      "lng": 74.2821632,
      "open_now": true
    },
    {
      "place_id": "ChIJpRZrLgoBwTsRz298wcQFErU",
      "name": "Hindustan Petroleum Corporation Limited",
      "address": "Survey No 144, near Sangli Phata, NH 48, Pune Bangalore Road, Hatkanangale, Shiroli",
      "lat": 16.7286749,
      "lng": 74.2829951,
      "open_now": true
    },
    {
      "place_id": "ChIJua66YAkBwTsRuqelSYC1-YA",
      "name": "IndianOil",
      "address": "Ground Floor, Shiroli Naka, NH 4, Ghalwad",
      "lat": 16.730439,
      "lng": 74.282074,
      "open_now": true
    },
    {
      "place_id": "ChIJ4dsSFvQBwTsR0vJH1zF7nKc",
      "name": "IndianOil",
      "address": "Ground Floor NH 4, Atyal, Shiroli",
      "lat": 16.7339476,
      "lng": 74.28183589999999,
      "open_now": true
    },
    {
      "place_id": "ChIJJaoUSHABwTsRbhWO-L7EMuM",
      "name": "Shiv Parvati Petroleum",
      "address": "P7PX+W48, Kolhapur",
      "lat": 16.7372832,
      "lng": 74.2978184,
      "open_now": true
    },
    {
      "place_id": "ChIJ7w2ia0oBwTsRX6vHysx32uQ",
      "name": "Bharat Petroleum Petrol Pump , OM DATTA SAI PETROLEUM",
      "address": "NGAGAON FATA, SHIROLI, Kolhapur",
      "lat": 16.742566,
      "lng": 74.282337,
      "open_now": true
    },
    {
      "place_id": "ChIJSd2ii9IBwTsR3UUDcPqWXMc",
      "name": "Bharat Petroleum, Petrol Pump -Mahadik Bros",
      "address": "PETH NAKA,PETH, SANGLI",
      "lat": 16.7490505,
      "lng": 74.2795573,
      "open_now": true
    },
    {
      "place_id": "ChIJt_5FvxipwTsRm1o51LxyR9E",
      "name": "Hindustan Petroleum Corporation Limited",
      "address": "Gat No 64, NH 166, Kolhapur - Ratnagiri Road, Panhala",
      "lat": 16.8004265,
      "lng": 74.14909039999999,
      "open_now": true
    },
    {
      "place_id": "ChIJ5QDntUOpwTsRoeEiI4Cknig",
      "name": "IndianOil",
      "address": "Ground Floor, Karanjivane, Panhala",
      "lat": 16.8004575,
      "lng": 74.19863219999999,
      "open_now": true
    },
    {
      "place_id": "ChIJz261ByivwTsRma4UKGht0S0",
      "name": "Bharat Petroleum Petrol Pump - Vijeta Petroleum",
      "address": "378/A at Borpadale Phata, Borpadle",
      "lat": 16.8286946,
      "lng": 74.12191179999999,
      "open_now": true
    },
    {
      "place_id": "ChIJqagnDWWvwTsRgLy8_SPIceA",
      "name": "Petrol Pump",
      "address": "Kolhapur - Ratnagiri Road, Navali",
      "lat": 16.8355435,
      "lng": 74.117246,
      "open_now": true
    },
    {
      "place_id": "ChIJp58xyxMHwTsRaEdDsNLgjZM",
      "name": "IndianOil",
      "address": "Gat No 72, Hissa No 1/A, Karanjivane, Karveer, Ambewadi",
      "lat": 16.7698614,
      "lng": 74.2357351,
      "open_now": true
    },
    {
      "place_id": "ChIJ_T-fICQHwTsRfdjkOV8__u4",
      "name": "Dada Bhuyekar Kisan Seva Kendra",
      "address": "Bhuye, 72/1A Shiye, Main Road, Bhuye",
      "lat": 16.7727359,
      "lng": 74.2362083,
      "open_now": null
    },
    {
      "place_id": "ChIJwV00SVEBwTsRU8m_vLwYrpY",
      "name": "Hindustan Petroleum Corporation Limited",
      "address": "Gat No 281/A, near NXG Car Care, Kasaba Bawada Main Road, Karvir, Kasaba Bawada, Shiye",
      "lat": 16.765115,
      "lng": 74.26692299999999,
      "open_now": true
    },
    {
      "place_id": "ChIJDVdm7LcHwTsRkoEBlHnaDmY",
      "name": "Petrol Pump",
      "address": "Shiye - Bawada Road, Shiye",
      "lat": 16.778174,
      "lng": 74.2678633,
      "open_now": null
    },
    {
      "place_id": "ChIJYV0rHgABwTsRdD--MAseE1w",
      "name": "Bharat Petroleum, Petrol Pump -Parmar Petroleum",
      "address": "nr. LOKMAT PRESS, KASBA BAWDA – BHUYE ROAD, nr. LOKMAT PRESS, TAL KARVEER, Shiye",
      "lat": 16.7696664,
      "lng": 74.2698328,
      "open_now": true
    },
    {
      "place_id": "ChIJhUkumOsGwTsRHRPgZPY9ZfA",
      "name": "Hindustan Petroleum Corporation Limited",
      "address": "near Sanstha Ltd, Ground Floor, Pune Bangalore Road NH 48, Hathkan, Wadgaon, near Sanstha Ltd, Toap",
      "lat": 16.799571,
      "lng": 74.28463099999999,
      "open_now": true
    },
    {
      "place_id": "ChIJK1-iofUGwTsRVo8vfL1kVZY",
      "name": "CNG pump",
      "address": "R78P+85, Unnamed Road, Peth Vadgaon",
      "lat": 16.8165433,
      "lng": 74.2851369,
      "open_now": true
    },
    {
      "place_id": "ChIJY16EmG4HwTsRhfYtMn-BAAg",
      "name": "Bharat Petroleum Petrol Pump , KALYANI AUTOLINKS ADHOC",
      "address": "NH4,KASBA VADGAON, Kolhapur",
      "lat": 16.8106315,
      "lng": 74.2864072,
      "open_now": true
    },
    {
      "place_id": "ChIJSzJwM4wGwTsRuucQjK_PPaI",
      "name": "HP PETROL PUMP - DEVGIRI AUTOLINES",
      "address": "Hpcl Dealer A/P.- Sambhapur TAH.- Hathkanangale, Vasco",
      "lat": 16.81021,
      "lng": 74.293177,
      "open_now": true
    },
    {
      "place_id": "ChIJw09ZY60HwTsRJAuXBl_YST4",
      "name": "Bharat Petroleum, Petrol Pump -Kalyani Autolinks",
      "address": "Peth Vadgaon on NH 4, Kolhapur",
      "lat": 16.8112581,
      "lng": 74.2852295,
      "open_now": true
    },
    {
      "place_id": "ChIJgXOEtyj_wDsRDjI2EpibLwc",
      "name": "Samrat PETROLINKS",
      "address": "M7HH+9JP, Sarnobatwadi, Kolhapur",
      "lat": 16.7450302,
      "lng": 74.32303379999999,
      "open_now": null
    },
    {
      "place_id": "ChIJ-Wg9GBcDwTsR8UinkdDMvhw",
      "name": "Disha Petrolinks & Online CNG Filling Station",
      "address": "HP PETROL PUMP, GAT NO 1086(K), VILLAGE - HERLE, SH-3, TALUKA, HATKANANGALE",
      "lat": 16.7447513,
      "lng": 74.3233034,
      "open_now": true
    },
    {
      "place_id": "ChIJ0a5xM9sDwTsR4px_HkcG9iU",
      "name": "Hindustan Petroleum Corporation Limited",
      "address": "Gat No 1086, K SH 3, Hatkanangale, Herle",
      "lat": 16.7444831,
      "lng": 74.32333,
      "open_now": true
    },
    {
      "place_id": "ChIJl3c5w2gHwTsRr1vGl5XQyog",
      "name": "Hindustan Petroleum Corporation Limited",
      "address": "Survey No 250, SH 151, Toap - Vadgaon Road, Peth Vadgaon",
      "lat": 16.8130952,
      "lng": 74.2981679,
      "open_now": true
    },
    {
      "place_id": "ChIJLURgLY8GwTsRMoQuAU_rIYI",
      "name": "Deogiri Petrol Pump",
      "address": "Peth Vadgaon",
      "lat": 16.8131875,
      "lng": 74.29781249999999,
      "open_now": null
    },
    {
      "place_id": "ChIJR85AfCQEwTsRhA8RyMrUBAk",
      "name": "Venkateshwara Gas Store Department",
      "address": "R83C+J49, Tasgaon Road, Tasgaon",
      "lat": 16.8040357,
      "lng": 74.3203458,
      "open_now": null
    },
    {
      "place_id": "ChIJsb6aFeIHwTsRiYAvZs7Lr-4",
      "name": "Hindustan Petroleum Corporation Limited",
      "address": "Gat No 299, NH 48, Pune Banglore Road, Hathkanangal, Peth Vadgaon",
      "lat": 16.817059,
      "lng": 74.28491269999999,
      "open_now": true
    },
    {
      "place_id": "ChIJnYc5q18GwTsR7NX-LhLghpU",
      "name": "Jio-bp",
      "address": "Survey No 335/336, NH 4, Vadgaon Peth, Kolhapur",
      "lat": 16.820846,
      "lng": 74.28572559999999,
      "open_now": true
    },
    {
      "place_id": "ChIJ9xJfxMMGwTsRUHpKuFOJGe8",
      "name": "Hindustan Petroleum Corporation Limited",
      "address": "Gat No 355, Part 130, NH 48, Pune Bangalore Rd, Hatkanangale, Peth Vadgaon",
      "lat": 16.825193,
      "lng": 74.2864045,
      "open_now": true
    },
    {
      "place_id": "ChIJ5ejGKgEHwTsR1Lu10ynXZEU",
      "name": "Hpoil Gas Pvt Ltd CNG Station",
      "address": "Pune - Bengaluru Highway, Peth Vadgaon",
      "lat": 16.8253691,
      "lng": 74.28678359999999,
      "open_now": true
    },
    {
      "place_id": "ChIJ5V7Krl0GwTsRwStc7iipzYE",
      "name": "Bharat Petroleum, Petrol Pump -Om Sai Highway Service",
      "address": "VADGOAN NH 4, Kolhapur",
      "lat": 16.8263727,
      "lng": 74.285799,
      "open_now": true
    },
    {
      "place_id": "ChIJW7ayQY0HwTsRvkYElnrKN68",
      "name": "Bharat Petroleum, Petrol Pump -Krishnai Automobiles",
      "address": "KINIWATHAR, Kolhapur",
      "lat": 16.8335941,
      "lng": 74.2893096,
      "open_now": true
    },
    {
      "place_id": "ChIJNSa2P48FwTsRXcQ1L-p8T5Y",
      "name": "IndianOil",
      "address": "Ground Floor, Peth Vadgaon, Hatkanangale",
      "lat": 16.8319277,
      "lng": 74.3209512,
      "open_now": true
    },
    {
      "place_id": "ChIJvz3YxagDwTsRLaEDuXGhjq8",
      "name": "IndianOil",
      "address": "Gata 105, Kolhapur Sangli Road Hatkanangale, Chokak",
      "lat": 16.7413445,
      "lng": 74.35374639999999,
      "open_now": true
    }
  ]
}