{
  "city": "Nagpur",
  "state": "Maharashtra",
  "count": 279,
  "center": {
    "lat": 21.1458,
    "lng": 79.0882
  },
  "pumps": [
    {
      "place_id": "ChIJmSOEPlOV1DsRRojT47Tdors",
      "name": "Bharat Petroleum Petrol Pump -Lalit Automobiles",
      "address": "81/12, Hingna Road, Digdoh, Hingna, Nagpur",
      "lat": 21.11539909999999,
      "lng": 79.01186899999999,
      "open_now": true
    },
    {
      "place_id": "ChIJKWBM4EuV1DsRtqJ_LpNEVs8",
      "name": "IndianOil",
      "address": "Ground Floor, Hingna Road, Indl Area, Digdoh",
      "lat": 21.1098753,
      "lng": 79.00118429999999,
      "open_now": true
    },
    {
      "place_id": "ChIJhc47njCV1DsRQd6NUweMVHk",
      "name": "IndianOil",
      "address": "Ground Floor, Hingna Road, Nagpur",
      "lat": 21.1035096,
      "lng": 78.9893826,
      "open_now": true
    },
    {
      "place_id": "ChIJPWsk0Fy-1DsRwG2Z5qDjPt0",
      "name": "Bharat petroleum Amin Khapri",
      "address": "Chandrapur - Nagpur Road, Nagpur",
      "lat": 21.0523421,
      "lng": 79.0537974,
      "open_now": true
    },
    {
      "place_id": "ChIJrQXNOFOV1DsRVTdk1nPtsdc",
      "name": "Hindustan Petroleum Corporation Limited",
      "address": "Ground Floor, T Point, Naka, Hingna, Digdoh",
      "lat": 21.1175046,
      "lng": 79.0170964,
      "open_now": true
    },
    {
      "place_id": "ChIJlaLdoQ9f1DsRjedrlc3eW9Y",
      "name": "Hindustan Petroleum Corporation Limited",
      "address": "Khasra No 51/2, Sonegaon NH 6, Amravati Rd, Kondhali, Nagpur",
      "lat": 21.0950351,
      "lng": 79.05738339999999,
      "open_now": true
    },
    {
      "place_id": "ChIJF-TeJqvq1DsRQim_-FVWYMk",
      "name": "IndianOil",
      "address": "Hingna Road, Midc, Nagpur",
      "lat": 21.1178811,
      "lng": 79.0163348,
      "open_now": true
    },
    {
      "place_id": "ChIJv_0lRW--1DsR0iI23GB8UtM",
      "name": "IndianOil",
      "address": "No 119, Central Avenue, Amravati Road, Nagpur",
      "lat": 21.041848,
      "lng": 79.0518101,
      "open_now": true
    },
    {
      "place_id": "ChIJzy-dzI6_1DsRilJ42uOLIuU",
      "name": "IndianOil",
      "address": "No 4, Ring Road, Gayatri Nagar, Deendayal Nagar, Nagpur",
      "lat": 21.11266909999999,
      "lng": 79.04931309999999,
      "open_now": true
    },
    {
      "place_id": "ChIJVYPxYfmU1DsR4OFNiBpD8IU",
      "name": "IndianOil",
      "address": "Survey No 427 & 42, Plot No 58, Hingna, Amgaon",
      "lat": 21.0724121,
      "lng": 78.96669639999999,
      "open_now": true
    },
    {
      "place_id": "ChIJfYON9HjA1DsRCBjW5_KHMMo",
      "name": "Bharat Petroleum, Petrol Pump -Vishal Petroleum",
      "address": "GOPAL NAGAR,MATE CHWK,NAGP, Nagpur",
      "lat": 21.1212122,
      "lng": 79.05628709999999,
      "open_now": true
    },
    {
      "place_id": "ChIJ166GGsKU1DsRZvfK03A0z8k",
      "name": "IndianOil",
      "address": "Survey No 368/1 Hingna, Wanadongri, Amgaon",
      "lat": 21.0903178,
      "lng": 78.9579514,
      "open_now": true
    },
    {
      "place_id": "ChIJccXQf3-_1DsRXU0XBJ9FCWU",
      "name": "IndianOil",
      "address": "Khasra No, 34 & 3, Surendra Nagar, Ajni, Nagpur",
      "lat": 21.1170743,
      "lng": 79.0644085,
      "open_now": true
    },
    {
      "place_id": "ChIJ_2EzJsSU1DsRBZT3Jtx8lGY",
      "name": "Bharat Petroleum, Petrol Pump -Bhawani Petroleum",
      "address": "WANA DONGARI, Nagpur",
      "lat": 21.0975939,
      "lng": 78.957234,
      "open_now": true
    },
    {
      "place_id": "ChIJ8XOgLW-_1DsR41CWgM3YgI0",
      "name": "IndianOil",
      "address": "Ground Floor Babulkheda, Narendra Nagar, Nagpur",
      "lat": 21.1071328,
      "lng": 79.0813278,
      "open_now": true
    },
    {
      "place_id": "ChIJLcWOx9y91DsR_7pn4i89-qw",
      "name": "Nayara Petrol Pump",
      "address": "Jamtha",
      "lat": 21.0137662,
      "lng": 79.0461179,
      "open_now": true
    },
    {
      "place_id": "ChIJx-NkWCO_1DsR0p-HgFbLe2E",
      "name": "IndianOil",
      "address": "B Plot No, Survey No 66/A/1 & 66, 219 & 222, Besa - Manish Nagar Road, Nagpur",
      "lat": 21.0859145,
      "lng": 79.09300929999999,
      "open_now": true
    },
    {
      "place_id": "ChIJCYPBuWPA1DsRsPcT5trU7F0",
      "name": "Bharat Petroleum",
      "address": "1 West High Court Road, North Ambazari Road, Shankar Nagar, Nagpur",
      "lat": 21.1357011,
      "lng": 79.0609229,
      "open_now": true
    },
    {
      "place_id": "ChIJKdlGTFa_1DsRqCyvGt6TIUY",
      "name": "Bharat Petroleum Petrol Pump , AMIN TRANSPORT PVT LTD ADHOC",
      "address": "MADC, Mihan, Nagpur",
      "lat": 21.053421,
      "lng": 79.03956900000001,
      "open_now": true
    },
    {
      "place_id": "ChIJuYQrNUGV1DsRotgQg_DH65w",
      "name": "Bharat Petroleum (SRPF)",
      "address": "4257+5V8, Digdoh",
      "lat": 21.1079063,
      "lng": 79.014702,
      "open_now": true
    },
    {
      "place_id": "ChIJZ8uaLBy_1DsRstRUgfAPSxA",
      "name": "IndianOil",
      "address": "Survey No 82, Jaitala, Nagpur",
      "lat": 21.1106962,
      "lng": 79.0236941,
      "open_now": true
    },
    {
      "place_id": "ChIJcdOZVQC_1DsRV_054HENkYw",
      "name": "J.k Farm",
      "address": "Tal. dindori, Dahegaon",
      "lat": 21.0409412,
      "lng": 79.0249516,
      "open_now": null
    },
    {
      "place_id": "ChIJu9W840K_1DsR0BKoMDZ4GXM",
      "name": "Bharat Petroleum Corporation Limited",
      "address": "33Q3+6G9, Aviation fueling Station ,Nagpur Airport",
      "lat": 21.0880381,
      "lng": 79.0538634,
      "open_now": true
    },
    {
      "place_id": "ChIJ198E2yW_1DsR-m-e0bsAEHc",
      "name": "Hindustan Petroleum Corporation Limited",
      "address": "Khasra No 84, opposite Buddha Murti Park, 85/3, Jaitala Road, Khamla, Nagpur",
      "lat": 21.1110348,
      "lng": 79.02417299999999,
      "open_now": true
    },
    {
      "place_id": "ChIJLzdVlmKV1DsRUlJCCL0AFPY",
      "name": "ASCII gas services",
      "address": "4X3R+JMM, Takli Seem-Hingna Road, Electronic Zone, Lokmanya Nagar, Nagpur",
      "lat": 21.1040937,
      "lng": 78.9916669,
      "open_now": null
    },
    {
      "place_id": "ChIJEa6ff7uV1DsRDOcqpx-NMYg",
      "name": "sushila servo gasoline station",
      "address": "Ground Floor, Hingna Road, Nildoh, Nagpur",
      "lat": 21.1027347,
      "lng": 78.9891679,
      "open_now": true
    },
    {
      "place_id": "ChIJOzprbrS_1DsRe7a24RDUc_0",
      "name": "Hindustan Petroleum Corporation Limited",
      "address": "Khasra No 157/2, Chinchbhavan, near Narayana School, Chandrapur - Nagpur Road, Khapri",
      "lat": 21.0631567,
      "lng": 79.05759239999999,
      "open_now": true
    },
    {
      "place_id": "ChIJ4V0BDVqV1DsRdUCzXxvSi2o",
      "name": "Indian Auto Gas",
      "address": "3XXM+GCR, Hingna Rd, Wanadongri, Wanadongri ct, Nagpur",
      "lat": 21.0988555,
      "lng": 78.98352950000002,
      "open_now": null
    },
    {
      "place_id": "ChIJIcuFGMi_1DsRlCl-egWsM5E",
      "name": "Bharat Petroleum Petrol Pump",
      "address": "Plot No. 1, Ashtavinayak Nagar, Jaitala Road, अहिल्या नगर, प्रसाद नगर, नागपूर",
      "lat": 21.1144737,
      "lng": 79.0292662,
      "open_now": true
    },
    {
      "place_id": "ChIJEdxgwha_1DsRRqg6UYh9dUU",
      "name": "MODERN FUEL LINKS",
      "address": "23X3+92M, National Highway 44, nipor",
      "lat": 21.04846749999999,
      "lng": 79.0525613,
      "open_now": null
    },
    {
      "place_id": "ChIJD6FtzI6_1DsRkb7KnRwXcEc",
      "name": "IndianOil",
      "address": "near NIT G, 9B, Mankapur Ring Road, Trimurti Nagar, Nagpur",
      "lat": 21.113693,
      "lng": 79.043396,
      "open_now": true
    },
    {
      "place_id": "ChIJtWiDzri_1DsRuw3ktubLSqs",
      "name": "Petrol Pump",
      "address": "tuli petrol pump, Khapri",
      "lat": 21.042637,
      "lng": 79.05176159999999,
      "open_now": null
    },
    {
      "place_id": "ChIJ3cCqoVKV1DsR2tO8CeFGUvU",
      "name": "Nayara Petrol Pump - Shiv Sai Petroleum",
      "address": "01, Bhagat Layout, Wanadongri",
      "lat": 21.0794596,
      "lng": 78.96947639999999,
      "open_now": true
    },
    {
      "place_id": "ChIJJ1a7OgC_1DsRxSdTX2744yw",
      "name": "Bharat petrol pump, Asian petroleum",
      "address": "33F9+76R, Chatrapati Shivaji Maharaj Road, Somalwada, Nagpur",
      "lat": 21.0732297,
      "lng": 79.0680181,
      "open_now": true
    },
    {
      "place_id": "ChIJszaFawCV1DsRzRMXvCWhHko",
      "name": "SAHIL GAS REPERING RAIPUR HINGNA",
      "address": "3XG9+R7M, Hingna Bazar, Dangarpura, Raipur",
      "lat": 21.0770833,
      "lng": 78.9681742,
      "open_now": null
    },
    {
      "place_id": "ChIJ1aZKfc6_1DsRkVH5KA9XzXk",
      "name": "New Vishwakarma Scooter Repairs And Spare Parts",
      "address": "near Datta Mandir, IT Park Road, Gayatri Nagar, Nagpur",
      "lat": 21.1155571,
      "lng": 79.04625229999999,
      "open_now": null
    },
    {
      "place_id": "ChIJbxNUZwq_1DsRUOiH8zd7ih4",
      "name": "IndianOil",
      "address": "Ground Floor, Wardha Road, Somalwada, Nagpur",
      "lat": 21.09321,
      "lng": 79.065895,
      "open_now": true
    },
    {
      "place_id": "ChIJr8LrmFq_1DsR0k_mDvrhsCk",
      "name": "IndianOil",
      "address": "Ground Floor, Somalwada, Nagpur",
      "lat": 21.08072019999999,
      "lng": 79.0696699,
      "open_now": true
    },
    {
      "place_id": "ChIJ51REegC_1DsR_92AxSDvTsk",
      "name": "Hindustan Petroleum Corporation Limited",
      "address": "Ground Floor, near National Cancer Institute, Outer Ring Road, Jamtha",
      "lat": 21.0290286,
      "lng": 79.0311329,
      "open_now": true
    },
    {
      "place_id": "ChIJeTxn1grA1DsRvhfdcUiZzdA",
      "name": "VISTA GPL",
      "address": "42CR+GH5, Jaitala Road, Shastri Layout, Nagpur",
      "lat": 21.1212605,
      "lng": 79.0414713,
      "open_now": null
    },
    {
      "place_id": "ChIJn08sAQCV1DsR2WTc0s_T23c",
      "name": "GAIL TERMINAL",
      "address": "2XHR+HX2, Hingna",
      "lat": 21.0288822,
      "lng": 78.9923878,
      "open_now": null
    },
    {
      "place_id": "ChIJO4gmLHTA1DsRoj30JbY_ygM",
      "name": "IndianOil",
      "address": "MIDC, Opposite VRCE, IT Park Road, Subhash Nagar",
      "lat": 21.12207,
      "lng": 79.047043,
      "open_now": true
    },
    {
      "place_id": "ChIJm-hzZwC_1DsR6lRnLdBtlic",
      "name": "IndianOil",
      "address": "Ground Floor, Amravati Road, Wardha Road, Parsodi",
      "lat": 21.032718,
      "lng": 79.05230700000001,
      "open_now": true
    },
    {
      "place_id": "ChIJN_mZdgC_1DsRwB4m-_Tb0ZU",
      "name": "Refilling station of clean hydrogen",
      "address": "332C+64X, Nagpur",
      "lat": 21.049651,
      "lng": 79.069372,
      "open_now": null
    },
    {
      "place_id": "ChIJD0Ze33u_1DsRfSv4961IDLg",
      "name": "Bharat Petroleum",
      "address": "4369+C59, CHATRAPATI CHWK,RING ROAD,, Mankapur Ring Road, Chatrapati Square, New Sneh Nagar, Nagpur",
      "lat": 21.1110674,
      "lng": 79.067939,
      "open_now": true
    },
    {
      "place_id": "ChIJVVWSDrnPADsRofIaXn5st-w",
      "name": "Reliance Petroleum",
      "address": "No 40/3B, 4 & 10 Thiruparankundram Road, National Highway 44, Pasumalai, Madurai",
      "lat": 21.0229385,
      "lng": 79.04738789999999,
      "open_now": true
    },
    {
      "place_id": "ChIJtxSlBgC_1DsRrJD3XBw72Wg",
      "name": "Cztel office",
      "address": "Raghav Apartment, Beltarodi Road, Harihar Nagar, Besa, Nagpur",
      "lat": 21.0871203,
      "lng": 79.0808599,
      "open_now": null
    },
    {
      "place_id": "ChIJVw_ScvWU1DsRneKyJMHH8nA",
      "name": "IndianOil",
      "address": "Survey No 194/1, Deori, Amgaon",
      "lat": 21.0673971,
      "lng": 78.95360149999999,
      "open_now": true
    },
    {
      "place_id": "ChIJacI7_3vA1DsRrX6vvAzRU00",
      "name": "IndianOil",
      "address": "No 3, Moulana Azad Ro, Abhyankar Nagar, Nagpur",
      "lat": 21.125746,
      "lng": 79.0587281,
      "open_now": true
    },
    {
      "place_id": "ChIJU9p8NzS_1DsRX0bX-iD-bb4",
      "name": "Communixlab Private Limited",
      "address": "2nd Floor Plot 32, Nirman Vasanti Apartments, Shilpa Society, Manish Nagar, Nagpur",
      "lat": 21.0969779,
      "lng": 79.0817553,
      "open_now": true
    },
    {
      "place_id": "ChIJ5Ti3GGy_1DsRqGl7eQOgQqk",
      "name": "Bharat petroleum",
      "address": "Plot no u-24, Duchakke mention, Modern Society, Narendra Nagar, Somalwada, Nagpur",
      "lat": 21.1089426,
      "lng": 79.0770168,
      "open_now": null
    },
    {
      "place_id": "ChIJ3xWuKEaX1DsRacU6Cj5mBg8",
      "name": "Hindustan Petroleum Corporation Limited",
      "address": "Ground Floor, near Hindu Hrudaysamrat Balasaheb Thackeray Maharashtra Samruddhi Mahamarg, Hingna, Gumgaon",
      "lat": 21.01349799999999,
      "lng": 78.99615899999999,
      "open_now": true
    },
    {
      "place_id": "ChIJY79XEwC_1DsRgpwsl4mpuKQ",
      "name": "Jaswant son's fuel station",
      "address": "93-94, BabulKheda, Narendra Nagar, Suyog Nagar, Nagpur",
      "lat": 21.1068083,
      "lng": 79.0812933,
      "open_now": null
    },
    {
      "place_id": "ChIJZYfw6Jy_1DsR0S3-qSaVkEk",
      "name": "NINAVE CL1",
      "address": "Outer Ring Road, Nagpur",
      "lat": 21.0342108,
      "lng": 79.0769078,
      "open_now": null
    },
    {
      "place_id": "ChIJz2saGQC_1DsRVnVzwRtmiN0",
      "name": "Barapatre’s Indian Oil petrol pump",
      "address": "33CW+P26, Manewada Besa Ghogli Road, Saubhagya Nagar, Nagpur",
      "lat": 21.0719166,
      "lng": 79.09502959999999,
      "open_now": null
    },
    {
      "place_id": "ChIJzbw9tU6_1DsRCRGbdXvHf04",
      "name": "Hindustan Petroleum Corporation Limited",
      "address": "Ground Floor, Inner Ring Road, Manewada Chowk, Nagpur",
      "lat": 21.104981,
      "lng": 79.102685,
      "open_now": true
    },
    {
      "place_id": "ChIJCfPTAEy_1DsR3tGWDNyBYuw",
      "name": "IndianOil",
      "address": "Plot No 118, Mauza, Manewada, Nagpur",
      "lat": 21.1050769,
      "lng": 79.1044867,
      "open_now": true
    },
    {
      "place_id": "ChIJqVNENKy41DsRjzdDvCkAfCc",
      "name": "Bharat Petroleum Pump",
      "address": "4477+RP6, Hudkeshwar Road, New Subhedar Layout, Nagpur",
      "lat": 21.1145458,
      "lng": 79.1142682,
      "open_now": true
    },
    {
      "place_id": "ChIJyVRC4Km41DsRKjCm1h5rGMk",
      "name": "IndianOil",
      "address": "Ayurvedic Layout, Solanki Patil Wadi, Nagpur",
      "lat": 21.123213,
      "lng": 79.116638,
      "open_now": true
    },
    {
      "place_id": "ChIJl1dIh6_A1DsRhstHirAhrJU",
      "name": "IndianOil",
      "address": "near Medical College Road, Medical Chowk, Untkhana, Nagpur",
      "lat": 21.1313601,
      "lng": 79.098524,
      "open_now": true
    },
    {
      "place_id": "ChIJuyHf6kgU1DsRhHGOIZASqC4",
      "name": "IndianOil",
      "address": "Ground Floor, Wardha Road, Arvi",
      "lat": 21.1341234,
      "lng": 79.0758578,
      "open_now": true
    },
    {
      "place_id": "ChIJcSJMDZK41DsRarlH8oTgjeM",
      "name": "IndianOil",
      "address": "Gut No 32, opposite new Dogri naka, Mouza, Dighori, Godhani",
      "lat": 21.1059536,
      "lng": 79.1431097,
      "open_now": true
    },
    {
      "place_id": "ChIJx-So_brA1DsRIzhS4ADivh8",
      "name": "Nagulwar Bharat Petroleum",
      "address": "43PW+G89, Baidyanath Square, Bus Stand, Rambagh, Nagpur",
      "lat": 21.136299,
      "lng": 79.0958696,
      "open_now": true
    },
    {
      "place_id": "ChIJt8aQKLLA1DsRmbNHWfBcUkU",
      "name": "BPCL - Ramesh Petroleum",
      "address": "44P3+JPM, Great Nag Road, Ashok Square, Near Durga Temple, Siraspeth, Nagpur",
      "lat": 21.1365764,
      "lng": 79.10428189999999,
      "open_now": true
    },
    {
      "place_id": "ChIJ93nbQVnH1DsRoJcZcvNT_6Y",
      "name": "IndianOil",
      "address": "P.8, Ishwar Nagar, Mire Layout, Shriprabhu Nagar, Nagpur",
      "lat": 21.128594,
      "lng": 79.12526629999999,
      "open_now": true
    },
    {
      "place_id": "ChIJk1qAYZHA1DsRpS-MADLkXkk",
      "name": "IndianOil",
      "address": "Ground Floor, Panchsheel Square, Nagpur",
      "lat": 21.1385853,
      "lng": 79.0792733,
      "open_now": true
    },
    {
      "place_id": "ChIJl6l6honA1DsRjTPTBh_AyoI",
      "name": "Hindustan Petroleum Corporation Limited",
      "address": "Ground Floor, near Alankar Talkies, North Ambazari Road, Nagpur",
      "lat": 21.137461,
      "lng": 79.066651,
      "open_now": true
    },
    {
      "place_id": "ChIJkU7D-4Ku1DsRySLfxIGaRUE",
      "name": "Jio-bp",
      "address": "near 16 Km Milestone, SH 9, Umred Road, Kalamna, Nagpur",
      "lat": 21.100202,
      "lng": 79.152902,
      "open_now": true
    },
    {
      "place_id": "ChIJ2SQrw7BQ2jsRkZ26VLnlCRA",
      "name": "Hindustan Petroleum Corporation Limited",
      "address": "Survey No 135 Aurangabad, Express Hwy, APMC Market, Nagpur",
      "lat": 21.1426435,
      "lng": 79.08090100000001,
      "open_now": true
    },
    {
      "place_id": "ChIJF4rCn1S41DsRO7K_B5Vlo-Y",
      "name": "Hindustan Petroleum Corporation Limited",
      "address": "PH No 37, Gat No 21, Ring Road, Vhirgaon",
      "lat": 21.0807213,
      "lng": 79.16046430000002,
      "open_now": true
    },
    {
      "place_id": "ChIJd2QlVrjA1DsR2nOG_alEyxw",
      "name": "Hindustan Petroleum Corporation Limited",
      "address": "Ground Floor, Agramdevi Chowk, near Agyaram Devi Mandir, Nagpur",
      "lat": 21.143251,
      "lng": 79.095421,
      "open_now": true
    },
    {
      "place_id": "ChIJCygySPnpwjsRCbTmzTk2R_8",
      "name": "IndianOil",
      "address": "Ground Floor, Loni Kalbhor, NH 9, Solapur Road, Pune",
      "lat": 21.0679388,
      "lng": 79.0965574,
      "open_now": true
    },
    {
      "place_id": "ChIJpSQIJT2_1DsR-7w5y_inFJ8",
      "name": "Hindustan Petroleum Corporation Limited",
      "address": "Ground Floor, Manewada - Besa Road, Besa, Nagpur",
      "lat": 21.0900461,
      "lng": 79.09637529999999,
      "open_now": true
    },
    {
      "place_id": "ChIJh7wGdwC51DsRe-V-TfwXcFo",
      "name": "Shruti and sakore petroleum",
      "address": "3457+F3V, Nagpur",
      "lat": 21.0587476,
      "lng": 79.1126819,
      "open_now": true
    },
    {
      "place_id": "ChIJV-w3CMm51DsRa8vFI1-aylo",
      "name": "Bharat petroleum cng station",
      "address": "3456+7J2, Kolkata - Mumbai Highway, Matkazari",
      "lat": 21.0577529,
      "lng": 79.1126917,
      "open_now": null
    },
    {
      "place_id": "ChIJewQF5E-_1DsRamH4TO2_mkg",
      "name": "Bharat Petroleum Petrol Pump",
      "address": "near south point school, 9, Yogeshwar nagar, near south point school, beside Swati lawns, Manewada Ring Road, Omkar Nagar, Nagpur",
      "lat": 21.1049721,
      "lng": 79.0970835,
      "open_now": true
    },
    {
      "place_id": "ChIJm3Dhfnu_zjsRRyoN9Di7rAs",
      "name": "IndianOil",
      "address": "Manewada, Sqaure, Parvati Nagar, Nagpur",
      "lat": 21.1053731,
      "lng": 79.1015974,
      "open_now": true
    },
    {
      "place_id": "ChIJJWeRcPG_1DsRU43cwReHQGY",
      "name": "Vyankatesh Automobiles Indian Oil Retail Outlet Dealership",
      "address": "Plot No 5, Manewada Road, Manewada Square, Nagpur",
      "lat": 21.1053756,
      "lng": 79.1015991,
      "open_now": true
    },
    {
      "place_id": "ChIJr1i9Iyu_1DsRIO9eAjmSNpc",
      "name": "Vikas Petrol",
      "address": "Tapasya High School, Manewada Ring Road, Nagpur",
      "lat": 21.1056947,
      "lng": 79.1087629,
      "open_now": null
    },
    {
      "place_id": "ChIJq8lfW1-51DsRvJ5ubPnqTvo",
      "name": "Bharat Petroleum, Petrol Pump -Om Satyam Petroleum",
      "address": "Hudkeshwar Road, Hudkeshwar",
      "lat": 21.0850054,
      "lng": 79.12501069999999,
      "open_now": true
    },
    {
      "place_id": "ChIJ1dyJC7651DsRa7jTUKj2xzI",
      "name": "Mahalaxmi Petroleum",
      "address": "34XC+5XP, Hudkeshwar Road, Dube Nagar, Kadu Nagar, Chandrakiran Nagar, Nagpur",
      "lat": 21.0979675,
      "lng": 79.1224601,
      "open_now": null
    },
    {
      "place_id": "ChIJk2UYbbi41DsR6rXfMKZJQrg",
      "name": "Rajapeth",
      "address": "Hudkeshwar Road, Renuka Mata Nagar, Sanmarga Nagar, Nagpur",
      "lat": 21.1022718,
      "lng": 79.1219074,
      "open_now": true
    },
    {
      "place_id": "ChIJD-lQuCK51DsRhwlbYcKSp6o",
      "name": "Hindustan Petroleum Corporation Limited",
      "address": "Ground Floor, Mhalagi Nagar Chowk, Inner Ring Road, Mhalgi Nagar, Nagpur",
      "lat": 21.107804,
      "lng": 79.121134,
      "open_now": true
    },
    {
      "place_id": "ChIJKV1_plS_1DsRgOBWPA9zrG8",
      "name": "Hindustan Petroleum Corporation Limited",
      "address": "Plot No 3, Juna Subhedar Lay Out, Sharda Chowk, Ayodhya nagar, Nagpur",
      "lat": 21.1173082,
      "lng": 79.10880949999999,
      "open_now": true
    },
    {
      "place_id": "ChIJ74vMRqfA1DsRPOpKl_1ZvoA",
      "name": "Bharat Petroleum Petrol Pump",
      "address": "kukde layout, Rameshwari, Nagpur",
      "lat": 21.1230675,
      "lng": 79.0936013,
      "open_now": true
    },
    {
      "place_id": "ChIJK3GhATPB1DsR5tDG1ZD8sMk",
      "name": "Singh Automobile",
      "address": "Ajni Police Station, Rameshwari Road, Empress Mill Colony, Vishwakarma Nagar, Rameshwari, Nagpur",
      "lat": 21.122981,
      "lng": 79.0966,
      "open_now": null
    },
    {
      "place_id": "ChIJEecYD8vB1DsRihjRcXQIWFc",
      "name": "Hindustan Petroleum Corporation Limited",
      "address": "near Ajni Police Station, Ground Floor Ridge Road, Ajni, near Ajni Police Station, Rameshwari, Nagpur",
      "lat": 21.123101,
      "lng": 79.0969442,
      "open_now": true
    },
    {
      "place_id": "ChIJWef1EAC51DsRHPI9nIDPAEk",
      "name": "SYED Petrol Pump",
      "address": "447C+9F6, Dargah Sayyed Tajjuddin Road, Taj Bagh, Nagpur",
      "lat": 21.1134182,
      "lng": 79.1211496,
      "open_now": null
    },
    {
      "place_id": "ChIJUTabV6m41DsRmuJsLW4dPA4",
      "name": "HP Petrol Pump",
      "address": "NO 20, Plot NO 35 & 36 Khasra, Dattatray Nagar, Mauza Sakkardhara, Nagpur",
      "lat": 21.118081,
      "lng": 79.11548499999999,
      "open_now": null
    },
    {
      "place_id": "ChIJ7e_qsO651DsRay7kQAYqI9M",
      "name": "Parmatma Ek Fuel station",
      "address": "Bharat Petrol Pump, near Toll Plaza, Takli Bansadi, Patansaongi, Nagpur",
      "lat": 21.0980812,
      "lng": 79.136642,
      "open_now": null
    },
    {
      "place_id": "ChIJt6lKhiK61DsRE_vpsj8-BuY",
      "name": "Hindustan Petroleum Corporation Limited",
      "address": "Ground Floor, Umred Road, Pachgaon",
      "lat": 21.0240801,
      "lng": 79.1768101,
      "open_now": true
    },
    {
      "place_id": "ChIJ44BJ9hO61DsRO-s0GrH-ngU",
      "name": "Petrol Pump",
      "address": "Khapri",
      "lat": 21.0149039,
      "lng": 79.183216,
      "open_now": null
    },
    {
      "place_id": "ChIJC-nvKuXH1DsRqy258EturrE",
      "name": "Highway Auto Services HPCL Petrol Pump",
      "address": "45QR+XH2, Bhandara Road, Kapsi bk",
      "lat": 21.1398868,
      "lng": 79.1914011,
      "open_now": true
    },
    {
      "place_id": "ChIJZTVcJke51DsRka78VQ-jui8",
      "name": "JASMIN HIGHWAY",
      "address": "Traveling towards umred road, road, by pass, Hyderabad",
      "lat": 21.08029029999999,
      "lng": 79.1599269,
      "open_now": true
    },
    {
      "place_id": "ChIJM7wSrFO41DsRPO03Buhdg2c",
      "name": "STAR",
      "address": "India",
      "lat": 21.0826356,
      "lng": 79.1630496,
      "open_now": null
    },
    {
      "place_id": "ChIJ-3TxRY651DsRDCOPxh2RW0Q",
      "name": "IndianOil",
      "address": "Ground Floor, Kalamna, Umred Road, Adegaon",
      "lat": 21.0646473,
      "lng": 79.1651256,
      "open_now": true
    },
    {
      "place_id": "ChIJfz0L6jC51DsRjh3WiQsT_Wk",
      "name": "Bharat Petroleum",
      "address": "NH53",
      "lat": 21.08679129999999,
      "lng": 79.176194,
      "open_now": null
    },
    {
      "place_id": "ChIJzUeXBpe51DsR7-6rrgRy7dA",
      "name": "Jio-bp",
      "address": "near 16 Km Milestone, SH 9, Umred Road, Kalamna, Nagpur",
      "lat": 21.0569147,
      "lng": 79.1676272,
      "open_now": true
    },
    {
      "place_id": "ChIJqVcyNwC51DsRXHlYRCTmYLc",
      "name": "B-LNG Station 3",
      "address": "3538+RR3, Kalmana",
      "lat": 21.0545103,
      "lng": 79.16705979999999,
      "open_now": null
    },
    {
      "place_id": "ChIJQ4xcxvW51DsRhNNEr63xx2Y",
      "name": "Bharat Petroleum, Petrol Pump -Narendra Oil Agency",
      "address": "BAHADURA,UMRER ROAD, NAGPU, Nagpur",
      "lat": 21.0979633,
      "lng": 79.1516578,
      "open_now": true
    },
    {
      "place_id": "ChIJBSWCYga51DsR5yRm5Ea01ms",
      "name": "Baidyanath LNG and CNH station 1",
      "address": "NH53",
      "lat": 21.0948432,
      "lng": 79.1791981,
      "open_now": true
    },
    {
      "place_id": "ChIJdRuL1Iy41DsRdtxWKHvlUpY",
      "name": "Hindustan Petroleum Corporation Limited",
      "address": "Ground Floor, Umred Road, Mouza Gonhi, Vihirgaon, Dighori, Near, Dighori Naka, Nagpur",
      "lat": 21.1021858,
      "lng": 79.14647169999999,
      "open_now": true
    },
    {
      "place_id": "ChIJo963RY651DsR5tAIuzbLWTA",
      "name": "Pawansut Petroleum ( Indian Oil Co Ltd )",
      "address": "Pachgaon",
      "lat": 21.042488,
      "lng": 79.1698086,
      "open_now": true
    },
    {
      "place_id": "ChIJJSa7agC51DsR-2ceLkzT8rc",
      "name": "DHAWALE CNG PUMP",
      "address": "443M+9XG, Dighori, Nagpur",
      "lat": 21.1034285,
      "lng": 79.1349557,
      "open_now": null
    },
    {
      "place_id": "ChIJTUcHJ8m51DsRsTqPto_WSnE",
      "name": "Bharat Petroleum, Petrol Pump -D.C. Gurbaxani",
      "address": "PANCHGAON, UMRER ROAD ,NAG, Nagpur",
      "lat": 21.0384951,
      "lng": 79.1709424,
      "open_now": true
    },
    {
      "place_id": "ChIJnYxTVI251DsRLYdibQ0pmq4",
      "name": "New Reliance Jio CNG pump,Tarodi",
      "address": "Under Construction, Bypass, नागपूर",
      "lat": 21.1085776,
      "lng": 79.1817019,
      "open_now": null
    },
    {
      "place_id": "ChIJ__n8FBS41DsRwn-N7o1ZVUM",
      "name": "bp",
      "address": "455J+FP3, Chattarpur Road",
      "lat": 21.1086258,
      "lng": 79.1818007,
      "open_now": null
    },
    {
      "place_id": "ChIJBQUDS0-51DsRd4disrNxe2c",
      "name": "Narendra Traders",
      "address": "Unread Road Dighori Naka, Unnamed Road",
      "lat": 21.11408239999999,
      "lng": 79.1332055,
      "open_now": null
    },
    {
      "place_id": "ChIJwbKaGBS51DsRtntIES1UPbA",
      "name": "Bharat Petroleum Petrol Pump",
      "address": "PLOT NO.224, KHASRA NO. 63/1,2,3MOUZA, Dighori Road, Nagpur",
      "lat": 21.112405,
      "lng": 79.1295,
      "open_now": false
    },
    {
      "place_id": "ChIJKd9CAKO41DsRBsQyYVNk3mU",
      "name": "go gas",
      "address": "India",
      "lat": 21.1152431,
      "lng": 79.12932359999999,
      "open_now": null
    },
    {
      "place_id": "ChIJnZ2VLQC51DsRdTmNlQZ-Jc4",
      "name": "Harode Petroleum ( Bharat Petroleum )",
      "address": "45F8+5Q6, Symbiosis College Road, Wathoda Layout, Nagpur",
      "lat": 21.1229073,
      "lng": 79.1668844,
      "open_now": true
    },
    {
      "place_id": "ChIJF0ixLgC51DsRP4ZMxg-F-Ns",
      "name": "Hindustan Petroleum Corporation Limited",
      "address": "Ground Floor, near Symbiosis, Shivasankar Road, Nagpur",
      "lat": 21.1249397,
      "lng": 79.16438529999999,
      "open_now": true
    },
    {
      "place_id": "ChIJhZ6aXcKF1DsR8K7TSxZRCJI",
      "name": "Sayyad petrol Pump",
      "address": "2JH, RRRM, Nagpur",
      "lat": 21.119375,
      "lng": 79.1291,
      "open_now": null
    },
    {
      "place_id": "ChIJv1Iouwa51DsRYr0-bWhCw-g",
      "name": "IndianOil",
      "address": "Survey No 8, 1 & 8/2, Dighori, Nagpur",
      "lat": 21.1236699,
      "lng": 79.13796049999999,
      "open_now": true
    },
    {
      "place_id": "ChIJ612VXg3H1DsRMNkg_baOnjM",
      "name": "Nayara Petrol Pump - Five elements Wathoda",
      "address": "45, Mankapur Ring Road, Kharbi, Nagpur",
      "lat": 21.1293293,
      "lng": 79.1413333,
      "open_now": true
    },
    {
      "place_id": "ChIJg4iFIgDH1DsRdVjKxZuFI0I",
      "name": "Bpcl petrol pump, Elysium Energy",
      "address": "2309, Chaitaneshwar Nagar, Kharbi, Nagpur",
      "lat": 21.13279379999999,
      "lng": 79.14324200000001,
      "open_now": true
    },
    {
      "place_id": "ChIJ50UZNA671DsRHk7slYppGXc",
      "name": "IndianOil",
      "address": "Gut No 370, Umred, Matkazari",
      "lat": 21.018629,
      "lng": 79.180696,
      "open_now": true
    },
    {
      "place_id": "ChIJfxKIClnH1DsRIP9xqb-6poE",
      "name": "Shubhlaxmi Petrolpump",
      "address": "44HF+6GH, Gurudev Nagar Main Road, Ishwar Nagar, Bapu Nagar, Nandanvan, Nagpur",
      "lat": 21.1280506,
      "lng": 79.1238528,
      "open_now": null
    },
    {
      "place_id": "ChIJY3D8XADH1DsRhTte-HLs3JE",
      "name": "Petrol Pump Hasanbag",
      "address": "44HG+H3Q, Ishwar Nagar, Nandanvan, Nagpur",
      "lat": 21.1289976,
      "lng": 79.1252477,
      "open_now": null
    },
    {
      "place_id": "ChIJfR4rhVnH1DsRBBTDvqGKdNw",
      "name": "Hindustan Petroleum Corporation Limited",
      "address": "Plot No 32 & 33, Ishwar Nagar, Chowk, Nandanvan, Nagpur",
      "lat": 21.1287799,
      "lng": 79.12319049999999,
      "open_now": true
    },
    {
      "place_id": "ChIJX_hEBDjH1DsRAdVCWt1UlV8",
      "name": "Hindustan Petroleum Corporation Limited",
      "address": "Ground Floor, Infront of Swaminarayan Temple, Wathoda Layout, Nagpur",
      "lat": 21.1376703,
      "lng": 79.1442179,
      "open_now": true
    },
    {
      "place_id": "ChIJi8lxkzjH1DsREzK_xioxUsg",
      "name": "Petrol pump",
      "address": "14, Nandanvan Main Road, Mire Layout, Nandanvan, Nagpur",
      "lat": 21.1279889,
      "lng": 79.11919999999999,
      "open_now": null
    },
    {
      "place_id": "ChIJe8U5dejH1DsRLeqJ_OdsNIs",
      "name": "IndianOil",
      "address": "Main Road, Nandanvan, Chandrapur",
      "lat": 21.128065,
      "lng": 79.119164,
      "open_now": true
    },
    {
      "place_id": "ChIJDze63OLB1DsRLjRPhlbv2jU",
      "name": "Bharat Petroleum, Petrol Pump -Panchsheel Automobiles",
      "address": "NANDANVAN RD, GURDVNGR,NAG, Nagpur",
      "lat": 21.1302053,
      "lng": 79.1205267,
      "open_now": true
    },
    {
      "place_id": "ChIJC-LSv4_q1DsRxB3ECxzC51c",
      "name": "Hindustan Petroleum Corporation Limited",
      "address": "Ground Floor, opposite Wadi Nagar Parishad, Amravati Road, Wadi, Nagpur",
      "lat": 21.152921,
      "lng": 79.006411,
      "open_now": true
    },
    {
      "place_id": "ChIJ_ysAieXq1DsRNIWhFPBSSIo",
      "name": "IndianOil",
      "address": "NH 6, near University Campus, Plot No 1415, Amravati Road, Nagpur",
      "lat": 21.1459574,
      "lng": 78.985231,
      "open_now": true
    },
    {
      "place_id": "ChIJFTWBxTvA1DsRfWBXy6UpCi0",
      "name": "Bharat Petroleum, Petrol Pump -Marwah & Company",
      "address": "LAW COLLEGE SQUARE, A'VATI, Nagpur",
      "lat": 21.1464421,
      "lng": 79.0615624,
      "open_now": true
    },
    {
      "place_id": "ChIJ6VcVeV_A1DsRPdOb0zIunZ8",
      "name": "Hindustan Petroleum Corporation Limited",
      "address": "Ground Floor, near RTO Office, Amravati Road, Gorepeth, Nagpur",
      "lat": 21.146761,
      "lng": 79.064111,
      "open_now": true
    },
    {
      "place_id": "ChIJzRt4UK7B1DsRp_DaTZ382Ko",
      "name": "Hindustan Petroleum Corporation Limited",
      "address": "Ground Floor, Katol Road, Gittikhadan, Nagpur",
      "lat": 21.17445099999999,
      "lng": 79.055491,
      "open_now": true
    },
    {
      "place_id": "ChIJAT5e-q7B1DsRfMbV0LNzEvc",
      "name": "Bharat Petroleum - Petrol Pump",
      "address": "Gorewada Road, Gittikhadan Chowk , Near Nirmal Ganga Complex, Gittikhadan, Nagpur",
      "lat": 21.1748671,
      "lng": 79.05639339999999,
      "open_now": true
    },
    {
      "place_id": "ChIJR5g7NrDB1DsRjBw1RBJdy1E",
      "name": "IndianOil",
      "address": "Survey No 40, Gittikhadan Road, Police Line, BUPESHNAGAR, Takli",
      "lat": 21.1732919,
      "lng": 79.0614476,
      "open_now": true
    },
    {
      "place_id": "ChIJwbhZROTA1DsRGffili9GJrA",
      "name": "IndianOil",
      "address": "Residency Road, Sadar, Nagpur",
      "lat": 21.160225,
      "lng": 79.079399,
      "open_now": true
    },
    {
      "place_id": "ChIJ11B9zO7A1DsRWFLKVkOeHR0",
      "name": "IndianOil",
      "address": "Ground Floor, RBI Square, Sitabuldi, Nagpur",
      "lat": 21.1522853,
      "lng": 79.08127350000001,
      "open_now": true
    },
    {
      "place_id": "ChIJMYlVPiLq1DsR5oFYR2qxryg",
      "name": "IndianOil",
      "address": "Ground Floor, Kamleshwar Road, Fetri",
      "lat": 21.2025012,
      "lng": 78.9949994,
      "open_now": true
    },
    {
      "place_id": "ChIJu_HJSRzB1DsRhbiNTGH_bXM",
      "name": "Bharat Petrol Pump",
      "address": "Koradi Road, Opp Poonam Chamber, Chhaione, Rajnagar, Nagpur",
      "lat": 21.1714399,
      "lng": 79.0799102,
      "open_now": true
    },
    {
      "place_id": "ChIJifuh02i_1DsRNG9aPD8iwvk",
      "name": "Confidence Petroleum India Limited, Go Gas",
      "address": "Landmark building, 8, Wardha Road, Dhantoli, Nagpur",
      "lat": 21.1382695,
      "lng": 79.0787349,
      "open_now": null
    },
    {
      "place_id": "ChIJayNOu5rr1DsRILetF1bepSA",
      "name": "GO Gas LPG pump",
      "address": "near maruti suzuki showroom, plot no 1 wadi naka, near maruti suzuki showroom, Nagpur",
      "lat": 21.1532219,
      "lng": 79.0177573,
      "open_now": null
    },
    {
      "place_id": "ChIJ26ufhFHr1DsRSx85dUNsHdw",
      "name": "CNG gas station",
      "address": "Vayusena Nagar, Nagpur",
      "lat": 21.153989,
      "lng": 79.01331340000002,
      "open_now": true
    },
    {
      "place_id": "ChIJf9R8YYXq1DsRFhn8O-4xJJY",
      "name": "IndianOil",
      "address": "No 7/613, Wadi, Amravati",
      "lat": 21.1531133,
      "lng": 79.0082084,
      "open_now": true
    },
    {
      "place_id": "ChIJsegxtY_q1DsRMcCdlZUx8tk",
      "name": "BP WADI, BPCL COCO PUMP, WADI.",
      "address": "Wadi, Nagpur",
      "lat": 21.1530255,
      "lng": 79.0050717,
      "open_now": true
    },
    {
      "place_id": "ChIJC8KF3Y3q1DsR6SFcsUFxzvQ",
      "name": "R.k. Petroleum",
      "address": "6, Nagpur - Amravati Highway, Wadi, Nandgaon Peth",
      "lat": 21.1526781,
      "lng": 79.0018506,
      "open_now": null
    },
    {
      "place_id": "ChIJBy_4XIzq1DsRj0cftT5Evmo",
      "name": "Gulf Oil Lubricants India Ltd",
      "address": "India",
      "lat": 21.1552467,
      "lng": 79.0000542,
      "open_now": null
    },
    {
      "place_id": "ChIJ-4gLOQDr1DsRGHrkaP5gdpY",
      "name": "Fixgo Petrolium",
      "address": "4XXR+7QH, Mumbai - Nagpur Highway, Wadi, Malkapur",
      "lat": 21.1481979,
      "lng": 78.9919704,
      "open_now": null
    },
    {
      "place_id": "ChIJy6LGdADB1DsRcEEm12wQtkA",
      "name": "HP Gas, Godown",
      "address": "529H+F7W, Saroj Nagar, Nagpur",
      "lat": 21.1687403,
      "lng": 79.0282118,
      "open_now": null
    },
    {
      "place_id": "ChIJKQc9l3fB1DsReWPgZ4dCsRs",
      "name": "Hindustan Petroleum Corporation Limited",
      "address": "Survey No 26, 2 Wadi, near Centre Point School, To, Mankapur Chowk, Dabha, Nagpur",
      "lat": 21.171936,
      "lng": 79.025599,
      "open_now": true
    },
    {
      "place_id": "ChIJBavNORjB1DsRNaXwkGeukUg",
      "name": "HP Verma filling station",
      "address": "plot no 112 jai co- operative society hazaripad, katol naka road bypass road, Nagpur",
      "lat": 21.1722023,
      "lng": 79.0260721,
      "open_now": true
    },
    {
      "place_id": "ChIJJ64P02rr1DsRNw-_4-TsAMQ",
      "name": "Durwa filling station (Bharat Petroleum)",
      "address": "5X8M+XGR, Khadgaon Road, Lava",
      "lat": 21.167484,
      "lng": 78.98377260000001,
      "open_now": true
    },
    {
      "place_id": "ChIJo2DLI-XB1DsRzUnKF7XqFko",
      "name": "Indian Auto Gas LPG",
      "address": "22, Katol Road, Sindhi Colony, Rajnagar, Nagpur",
      "lat": 21.1814425,
      "lng": 79.0384739,
      "open_now": true
    },
    {
      "place_id": "ChIJram_4SbB1DsRZxWF4T6chhg",
      "name": "vishwakarma auto service",
      "address": "Shankar Nagar Square, Nagpur",
      "lat": 21.1359919,
      "lng": 79.06053039999999,
      "open_now": null
    },
    {
      "place_id": "ChIJmfJ9ZZrB1DsRUtMj-NalKJY",
      "name": "Hindustan Petroleum Corporation Limited",
      "address": "Ground Floor, Katol Road, Friends Colony, Nagpur",
      "lat": 21.179338,
      "lng": 79.044271,
      "open_now": true
    },
    {
      "place_id": "ChIJp9Wdp6zB1DsRK0QEICbXwPY",
      "name": "BPCL LPG OFFICE",
      "address": "5337+R9M, CBI Colony, Civil Lines, Nagpur",
      "lat": 21.1545777,
      "lng": 79.06341739999999,
      "open_now": null
    },
    {
      "place_id": "ChIJjc2YBRfB1DsR1kzGcAm-lYg",
      "name": "IndianOil",
      "address": "Khasra No 61, 1, Borgaon, Nagpur",
      "lat": 21.175655,
      "lng": 79.05200099999999,
      "open_now": true
    },
    {
      "place_id": "ChIJO9Eh383B1DsRPpPtSAOKvfs",
      "name": "IndianOil",
      "address": "Ground Floor, Bhagwaghar Layout, Nagpur",
      "lat": 21.1377,
      "lng": 79.06760000000001,
      "open_now": true
    },
    {
      "place_id": "ChIJg26rPQDB1DsRkHL5LD9v8AU",
      "name": "Bhola Petrol pump, Nagpur",
      "address": "43W9+97P, Vasantrao Naik Slum Area, Gorepeth, Nagpur",
      "lat": 21.1462317,
      "lng": 79.0687263,
      "open_now": null
    },
    {
      "place_id": "ChIJO-V4z8TB1DsRhd4g9MkP6kw",
      "name": "Hindustan Petroleum Corporation Limited",
      "address": "Ground Floor, Dharampeth, Nagpur",
      "lat": 21.14579299999999,
      "lng": 79.06978099999999,
      "open_now": true
    },
    {
      "place_id": "ChIJmw3cBwDB1DsRTIGVZBkJ5ck",
      "name": "Hindustan Petroleum Corporation Limited",
      "address": "Ground Floor, Jail Road, near Gorakshan, Wardha Road, Sabha, Nagpur",
      "lat": 21.131111,
      "lng": 79.07802099999999,
      "open_now": true
    },
    {
      "place_id": "ChIJ0UgODZHA1DsRt1xEPa1um-4",
      "name": "Hindustan Petroleum Corporation Limited",
      "address": "Ground Floor, near Lokmat Square, Jail Road, Nagpur",
      "lat": 21.136691,
      "lng": 79.079291,
      "open_now": true
    },
    {
      "place_id": "ChIJLwD5PCnB1DsRAGct0COY7Rk",
      "name": "IndianOil",
      "address": "5, Kamptee Road, Near Indora Chowk, Nagpur",
      "lat": 21.1736917,
      "lng": 79.1014206,
      "open_now": true
    },
    {
      "place_id": "ChIJJ_pqcirH1DsR0IVA36dXfpg",
      "name": "IndianOil",
      "address": "P No 931, Vaishali, Mouza, Binaki, Nagpur",
      "lat": 21.1694152,
      "lng": 79.1135278,
      "open_now": true
    },
    {
      "place_id": "ChIJSVZUOMnA1DsRikzxVLS4S5E",
      "name": "Bharat Petrol Pump",
      "address": "Central Avenue, Chhota Loharpura, Gandhibagh, Nagpur",
      "lat": 21.150954,
      "lng": 79.10243009999999,
      "open_now": true
    },
    {
      "place_id": "ChIJM9lB9RXH1DsRDA6CrSBs2Qk",
      "name": "Bharat Petroleum: Mehta Petrol Pump",
      "address": "Old Bhandara Rd Bagadganj, Bhandara Road, Small Factory Area, Lakadganj, Nagpur",
      "lat": 21.1524061,
      "lng": 79.1323227,
      "open_now": true
    },
    {
      "place_id": "ChIJm2DhG9bG1DsRTDs4LkWvo0g",
      "name": "Bharat Petroleum Vishwakarma Petroleum",
      "address": "2, Itwari Station Road, Sugat Nagar, Binaki, Nagpur",
      "lat": 21.1707593,
      "lng": 79.11618349999999,
      "open_now": true
    },
    {
      "place_id": "ChIJHye6Fj7H1DsRcaRIMLXS3b8",
      "name": "Hindustan Petroleum Corporation Limited",
      "address": "Ground Floor, near Reliance Mart, 29, Bhandara Road, Lakadganj, Nagpur",
      "lat": 21.15272149999999,
      "lng": 79.1317231,
      "open_now": true
    },
    {
      "place_id": "ChIJIY9gymrH1DsRN44Xim20VZY",
      "name": "IndianOil",
      "address": "Ground Floor, Wardhaman Nagar Colony, Nagpur",
      "lat": 21.147839,
      "lng": 79.133781,
      "open_now": true
    },
    {
      "place_id": "ChIJkfEF-D7B1DsR3zD5vkW2FQ8",
      "name": "Petrol Pump",
      "address": "53QR+C22, Shambhu Nagar, Nagpur",
      "lat": 21.1885206,
      "lng": 79.090025,
      "open_now": true
    },
    {
      "place_id": "ChIJbdFRLDfB1DsRbWbQxM-IgEE",
      "name": "IndianOil",
      "address": "Khasra No 38/4, PN 24/31, Mouza Indora, Sugat Nagar Road, Angulimal Nagar, Nagpur",
      "lat": 21.187157,
      "lng": 79.10071599999999,
      "open_now": true
    },
    {
      "place_id": "ChIJd3s0-tDG1DsR6Tef0QUF5TU",
      "name": "IndianOil",
      "address": "No Na/425, Wanjari Housing Coop Society, Yadav Nagar, Ekta Colony, Nagpur",
      "lat": 21.1785696,
      "lng": 79.11878569999999,
      "open_now": true
    },
    {
      "place_id": "ChIJsTtE_xLH1DsRIuiyH0CPyvo",
      "name": "IndianOil",
      "address": "Ground Floor, Kadbi Chowk, East Wardhaman Nagar, Nagpur",
      "lat": 21.15127799999999,
      "lng": 79.141075,
      "open_now": true
    },
    {
      "place_id": "ChIJDbo9rP_G1DsRq36QMiZ9Qs0",
      "name": "IndianOil",
      "address": "Survey No 770, 74 Hissa No 87/1, Kalamna Market Road, Nagpur",
      "lat": 21.1592999,
      "lng": 79.1447481,
      "open_now": true
    },
    {
      "place_id": "ChIJtz6pJQDB1DsRfg7APKAzTKU",
      "name": "SAROJKAR HOME",
      "address": "43WQ+87C, Nagpur",
      "lat": 21.1458004,
      "lng": 79.0881546,
      "open_now": null
    },
    {
      "place_id": "ChIJoSZvbwDB1DsRIy4HnA8rlXQ",
      "name": "Wani LNG",
      "address": "Wani LNG Filing station, Nagpur",
      "lat": 21.1458004,
      "lng": 79.0881546,
      "open_now": null
    },
    {
      "place_id": "ChIJP-7QeMDA1DsRPSEtvj384u0",
      "name": "NARENDRA OIL AGENCY",
      "address": "43WQ+4R7, Ghat Road, Sitabuldi, Nagpur",
      "lat": 21.14528,
      "lng": 79.0895347,
      "open_now": null
    },
    {
      "place_id": "ChIJx36WZr_A1DsR33c452NRvJM",
      "name": "VISTA GPL",
      "address": "near Jayshree Cineplex, 71, Subhash Road, Ganeshpeth Colony, Nagpur",
      "lat": 21.1447375,
      "lng": 79.09106969999999,
      "open_now": null
    },
    {
      "place_id": "ChIJrRlRx0zB1DsRQPbQNxcCJZU",
      "name": "Khandelwal Enterprises",
      "address": "Shop No 13, Shree Devi, Ratan Appartment II, Ganeshpeth Colony, Nagpur",
      "lat": 21.1444672,
      "lng": 79.0951632,
      "open_now": null
    },
    {
      "place_id": "ChIJ9bJVk5_B1DsRdQivwsTDFz4",
      "name": "Kene Enterprises",
      "address": "Agriculture Industrial Building, Ganeshpeth Colony, Nagpur",
      "lat": 21.1432301,
      "lng": 79.0955413,
      "open_now": null
    },
    {
      "place_id": "ChIJPQGm4jHB1DsRLBW_I0MnmM8",
      "name": "Khewale Enterprises",
      "address": "1134, Shivaji Nagar, Mahal, Nagpur",
      "lat": 21.1431782,
      "lng": 79.09557579999999,
      "open_now": null
    },
    {
      "place_id": "ChIJU9FQb5PA1DsREm4o2i0TmAE",
      "name": "Shri Sai Petroleum",
      "address": "135, Aurangabad - Nagpur Road, New Mondha, Jalna",
      "lat": 21.1426375,
      "lng": 79.0809317,
      "open_now": true
    },
    {
      "place_id": "ChIJC9IiZJHA1DsRFdgAB331sSA",
      "name": "IndianOil",
      "address": "Wardha Road, Jhanshi Rani Square, Sitabuldi, Nagpur",
      "lat": 21.14156,
      "lng": 79.08056599999999,
      "open_now": true
    },
    {
      "place_id": "ChIJ41DmF7jA1DsR9jTaqAHjI2o",
      "name": "Hindustan Petroleum Corporation Limited",
      "address": "Ground Floor, Subhash Road, Cotton Market, Nagpur",
      "lat": 21.144161,
      "lng": 79.09767099999999,
      "open_now": true
    },
    {
      "place_id": "ChIJK9jU8QbB1DsRPEfelVxiFts",
      "name": "Pradhan Automobile",
      "address": "Sarvoday Plaza, Shop No 46 Near Metro Station C A Road, Chowk, Nagpur",
      "lat": 21.1526466,
      "lng": 79.0957263,
      "open_now": null
    },
    {
      "place_id": "ChIJ6xm6zsXA1DsRbmviV0POkZQ",
      "name": "Hindustan Petroleum Corporation Limited",
      "address": "Dosar Vaishya, Sarvoday Plaza, Ground Floor, Central Avenue, Chowk, Nagpur",
      "lat": 21.152481,
      "lng": 79.095931,
      "open_now": true
    },
    {
      "place_id": "ChIJ6xm6zsXA1DsRYa8vSOuJ2U0",
      "name": "Singh Automobiles",
      "address": "Dosar Bhawan Square, near Dosar Vaisya Square Metro, Central Avenue, Nagpur",
      "lat": 21.1527371,
      "lng": 79.0958449,
      "open_now": true
    },
    {
      "place_id": "ChIJ4WAsf6PB1DsRliTu32DBJOw",
      "name": "Sai Petrol Pump",
      "address": "2 CA Main Road, Main Road, Nagpur",
      "lat": 21.155099,
      "lng": 79.0839213,
      "open_now": null
    },
    {
      "place_id": "ChIJRdi4QzzB1DsRR_3P9ECwgoA",
      "name": "IMP HP Petrol pump Head Office Nagpur",
      "address": "534J+GM8, Shriram Tower, Kingway, Sadar, Tent Line, Mohan Nagar, Nagpur",
      "lat": 21.1562803,
      "lng": 79.0817172,
      "open_now": null
    },
    {
      "place_id": "ChIJmYo05-TA1DsRb0MIHxDeK48",
      "name": "Best Pump & Project",
      "address": "No 1, Mount Road, Sadar Bazar, Sadar, Nagpur",
      "lat": 21.1581173,
      "lng": 79.0819453,
      "open_now": true
    },
    {
      "place_id": "ChIJjaGoZ0rB1DsRDTIF4gcbBxw",
      "name": "ANKUSH AUTOMOBILE",
      "address": "Shop No 02, Vimal House, Ground, Medical Road, Untkhana, Nagpur",
      "lat": 21.1351234,
      "lng": 79.0980907,
      "open_now": null
    },
    {
      "place_id": "ChIJazGqXQjI1DsR_xqEArt0Tfg",
      "name": "Hindustan Petroleum Corporation Limited",
      "address": "Ground Floor, NH 6, Bhandara Road, Nagpur",
      "lat": 21.1420696,
      "lng": 79.2022204,
      "open_now": true
    },
    {
      "place_id": "ChIJXyOM_FzG1DsRe4kgN1UWh_U",
      "name": "Bharat petroleum",
      "address": "55V7+GH2, Nagpur",
      "lat": 21.1937644,
      "lng": 79.16387689999999,
      "open_now": true
    },
    {
      "place_id": "ChIJE8zK7mnG1DsRFaEbn_4jn7k",
      "name": "IndianOil",
      "address": "Ground Floor Ranala, Kamptee, Ajani",
      "lat": 21.198326,
      "lng": 79.171216,
      "open_now": true
    },
    {
      "place_id": "ChIJg9wPHI_G1DsRCEW9Bm7WS8M",
      "name": "IndianOil",
      "address": "No 122/2, NH 7, Kamptee Road, Khairy",
      "lat": 21.2064865,
      "lng": 79.1500377,
      "open_now": true
    },
    {
      "place_id": "ChIJcT0k-IfG1DsRwJVNaGQoKEc",
      "name": "IndianOil",
      "address": "No 134, Kamptee Road, Uppalwadi, Khairy",
      "lat": 21.2091604,
      "lng": 79.1546415,
      "open_now": true
    },
    {
      "place_id": "ChIJ43z4BXrG1DsRz0eDmNSpEow",
      "name": "IndianOil",
      "address": "Ground Floor, Kamptee Road, Ajni, Yerkheda",
      "lat": 21.2126105,
      "lng": 79.1631232,
      "open_now": true
    },
    {
      "place_id": "ChIJT9cS5STI1DsRZj7cfPXNUnA",
      "name": "IndianOil",
      "address": "Ground Floor, Bhandara Road, Mahalgaon",
      "lat": 21.1403219,
      "lng": 79.2304037,
      "open_now": true
    },
    {
      "place_id": "ChIJByoqUgDH1DsR1Wy-kKPwVlY",
      "name": "Pal automobiles",
      "address": "45V6+V43, Pardi, Nagpur",
      "lat": 21.1446424,
      "lng": 79.16030049999999,
      "open_now": null
    },
    {
      "place_id": "ChIJpTOYYQvH1DsR_7cGcL6Sq0o",
      "name": "Hindustan Petroleum Corporation Limited",
      "address": "Ground Floor, NH 53, Bhandara Road, Pardi, Kapsi kh",
      "lat": 21.1491538,
      "lng": 79.16311309999999,
      "open_now": true
    },
    {
      "place_id": "ChIJhT_2EQDH1DsRV1lme-qfbiw",
      "name": "Hindustan Petroleum Corporation Limited",
      "address": "Ground Floor, near Rohit Anaz Bhandar, Punapur Road, Pardi, Nagpur",
      "lat": 21.15181879999999,
      "lng": 79.1629969,
      "open_now": true
    },
    {
      "place_id": "ChIJ-VM3wSTH1DsRBJ2onkDo_yI",
      "name": "APANA FUEL",
      "address": "Bus Stand, near Hanuman Mandir, Road, Pardi, Nagpur",
      "lat": 21.1488096,
      "lng": 79.1657984,
      "open_now": null
    },
    {
      "place_id": "ChIJBYd2TnLH1DsRoFOAXxNc7Ho",
      "name": "Bharat Petroleum",
      "address": "India",
      "lat": 21.1449872,
      "lng": 79.1460225,
      "open_now": true
    },
    {
      "place_id": "ChIJUdGcFf_H1DsRnrT3LY1T_ok",
      "name": "Mahadule Petroleum",
      "address": "Plot-200 & 200 LA, Surya Nagar, Nagpur",
      "lat": 21.1544802,
      "lng": 79.14930760000001,
      "open_now": true
    },
    {
      "place_id": "ChIJJZOdnL3H1DsRuu42fSPkEHQ",
      "name": "Petrol Pump Sushil Sharma",
      "address": "Steel And Cooperative Society, 46, Midc, Umiya, Nagpur",
      "lat": 21.1457104,
      "lng": 79.1711751,
      "open_now": null
    },
    {
      "place_id": "ChIJOSTjHZTH1DsRVe0jddF0iqM",
      "name": "Bombay Automobiles",
      "address": "MAHALGAON, Kamptee - Kapsi Road, Nagpur",
      "lat": 21.1454905,
      "lng": 79.1717377,
      "open_now": true
    },
    {
      "place_id": "ChIJk47cDJLH1DsReXiozyo38r0",
      "name": "IndianOil",
      "address": "Ground Floor, near Pardi Naka, Bhandara Road, Kapsi kh",
      "lat": 21.1445498,
      "lng": 79.17201299999999,
      "open_now": true
    },
    {
      "place_id": "ChIJre2ovqDH1DsRu52jMjwaUI0",
      "name": "ESSAY PETROLEUM",
      "address": "44RW+26H, Sangharsh Nagar, Dighori, Nagpur",
      "lat": 21.14006,
      "lng": 79.145614,
      "open_now": null
    },
    {
      "place_id": "ChIJb79NXEnB1DsRfL_3vDYpu9Q",
      "name": "Bharat Petroleum, Petrol Pump -Mehta Automobiles",
      "address": "Bhandara Road, Transport Nagar, Surya Nagar, Nagpur",
      "lat": 21.1510555,
      "lng": 79.1434519,
      "open_now": null
    },
    {
      "place_id": "ChIJ6wAVag7H1DsRHg2tFzGfpx4",
      "name": "Shree Gurudev Petroleum",
      "address": "Kalamna Market Road, Surya Nagar, Nagpur",
      "lat": 21.1560044,
      "lng": 79.1452509,
      "open_now": null
    },
    {
      "place_id": "ChIJfygmvsrH1DsROcd-OdbWJL4",
      "name": "M K AUTOMOBILE",
      "address": "Shop No 44, near Hundayi Showroom, Bhandara Road, Wardhaman Nagar Colony, Nagpur",
      "lat": 21.1522154,
      "lng": 79.13999249999999,
      "open_now": null
    },
    {
      "place_id": "ChIJUew9dRTH1DsRVg8TVXYBWT0",
      "name": "Hindustan Petroleum Corporation Limited",
      "address": "Ground Floor, Chikhali Square, Outer Ring Road, Kalamna, Nagpur",
      "lat": 21.1615694,
      "lng": 79.1431666,
      "open_now": true
    },
    {
      "place_id": "ChIJaf86PZvH1DsRQ4qrHMpT0u4",
      "name": "Pawan Automobile",
      "address": "Shop No 74, near Ram Mandir, Central Avenue, Wardhaman Nagar Colony, Nagpur",
      "lat": 21.151071,
      "lng": 79.1341319,
      "open_now": null
    },
    {
      "place_id": "ChIJxQAjx-bH1DsRDmd9mKado04",
      "name": "Lokesh Automobile And Petrol Pump",
      "address": "289, Garoba Nagar, Uday Nagar, Nagpur",
      "lat": 21.1471674,
      "lng": 79.132947,
      "open_now": null
    },
    {
      "place_id": "ChIJac5aEqzH1DsR0tl6sNEPRMY",
      "name": "Patel Petrol Pump",
      "address": "103, Central Avenue, Wardhaman Nagar Colony, Nagpur",
      "lat": 21.1473914,
      "lng": 79.132627,
      "open_now": null
    },
    {
      "place_id": "ChIJyU0IYADH1DsRBD0HqvFifj4",
      "name": "Uday Lawn Chowk",
      "address": "44PM+X48, Wathoda Road, Nandanvan, Nagpur",
      "lat": 21.1374242,
      "lng": 79.1328156,
      "open_now": null
    },
    {
      "place_id": "ChIJ4Q5cCADH1DsRDXxPCMhGgv0",
      "name": "HCG CNG vardhman nagar nagpur",
      "address": "542J+XW8, Bhandara Road, Small Factory Area, Lakadganj, Nagpur",
      "lat": 21.152504,
      "lng": 79.1321222,
      "open_now": null
    },
    {
      "place_id": "ChIJK1h-KyrH1DsRhP8s97tqKDs",
      "name": "Bopche petroleum services Bharat Petroleum Petrol Pump",
      "address": "44PM+W32, Nandanvan, Nagpur",
      "lat": 21.1372649,
      "lng": 79.13262809999999,
      "open_now": null
    },
    {
      "place_id": "ChIJzyuPF8fH1DsR1-Y3ZJEev9s",
      "name": "Rajlaxmi petrol pump",
      "address": "Miral app, near Honey, Plot no 36, chauk, Shashtri Nagar, Nagpur",
      "lat": 21.1448486,
      "lng": 79.1300593,
      "open_now": true
    },
    {
      "place_id": "ChIJIVnoL8fH1DsRWkOSecpqRvk",
      "name": "Krish Automobile",
      "address": "Shop No 72, near Ramdeobaba Hospital, Bhandara Road, Wardhaman Nagar Colony, Nagpur",
      "lat": 21.1526566,
      "lng": 79.130583,
      "open_now": null
    },
    {
      "place_id": "ChIJ28H65OrH1DsR4K3Mila4j4Q",
      "name": "Mahalaxmi Auto Services BPCL Pump",
      "address": "Kh 54/1, Maa Umiya Transport City, Along Hyd Jabalpur Highway Kapsi BUJURg",
      "lat": 21.1361782,
      "lng": 79.18625,
      "open_now": true
    },
    {
      "place_id": "ChIJm4eFoyrC1DsRUWiYJ0JrARE",
      "name": "Ishwar petroleum by Bharat Petroleum",
      "address": "Maa Bhavani, Godhani Road, Godhni, Nagpur",
      "lat": 21.2145648,
      "lng": 79.0633605,
      "open_now": true
    },
    {
      "place_id": "ChIJ_cMpgtzD1DsRTHyhT8rAbi8",
      "name": "Bharat Petroleum and CNG",
      "address": "Bokara, Nagpur Chindwada Highway, Nagpur",
      "lat": 21.22441169999999,
      "lng": 79.0815702,
      "open_now": true
    },
    {
      "place_id": "ChIJL6l6lNzD1DsRpeYhPJrFLps",
      "name": "Hindustan Petroleum Corporation Limited",
      "address": "Ground Floor, Chhindwara Road, Koradi",
      "lat": 21.225271,
      "lng": 79.082841,
      "open_now": true
    },
    {
      "place_id": "ChIJA9EDxcPD1DsRz0GEB61nl7Y",
      "name": "IndianOil",
      "address": "near KTPS, Ground Floor Panjra, near KTPS, Chhindwara Road, Godhni, Nagpur",
      "lat": 21.2320501,
      "lng": 79.083474,
      "open_now": true
    },
    {
      "place_id": "ChIJywNUllzp1DsRaREB-XeBfYs",
      "name": "IndianOil",
      "address": "Ground Floor Dahegaon, Kalmeshwar, Bramnhi",
      "lat": 21.2164618,
      "lng": 78.94668220000001,
      "open_now": true
    },
    {
      "place_id": "ChIJ9afQsybq1DsRvWZfIXO2lTY",
      "name": "Hindustan Petroleum Corporation Limited",
      "address": "Ground Floor, Katol Road, Kalmeshwar, Fetri",
      "lat": 21.204343,
      "lng": 78.99058339999999,
      "open_now": true
    },
    {
      "place_id": "ChIJww2aX37B1DsRgyi4nWko84Q",
      "name": "Bharat Petroleum",
      "address": "GODHNI, ZINGABAI TAKLI, NA, Nagpur",
      "lat": 21.2149252,
      "lng": 79.0629235,
      "open_now": true
    },
    {
      "place_id": "ChIJl68RQ8jp1DsRNq3BRtvOuQE",
      "name": "IndianOil",
      "address": "Gut No 174/3 Khandala, Hingna",
      "lat": 21.242015,
      "lng": 78.9801817,
      "open_now": true
    },
    {
      "place_id": "ChIJlc4Kf33p1DsRoqtF5ugkiTw",
      "name": "IndianOil",
      "address": "Ground Floor Katol Road, Yerla Fetri, Bramnhi",
      "lat": 21.2079109,
      "lng": 78.9653783,
      "open_now": true
    },
    {
      "place_id": "ChIJGztt__TB1DsRZ6D576J4RwM",
      "name": "MSHSD GAYAKWAD HIGHWEY FULE STATION",
      "address": "Ashtavinayak Paradise Road, KH132/1/2 NH47 BHOPAL, HIGHWAY, VILL, Kosmi",
      "lat": 21.211453,
      "lng": 79.07700299999999,
      "open_now": true
    },
    {
      "place_id": "ChIJ6Wc_3GTB1DsRxB6Iil7to2U",
      "name": "HP GAS",
      "address": "Godown, Bokhara Road, Bokhara, Nagpur",
      "lat": 21.2065354,
      "lng": 79.0769674,
      "open_now": null
    },
    {
      "place_id": "ChIJlwVKCS3B1DsRQ8jWvSZ9opI",
      "name": "IndianOil",
      "address": "Survey No 9, near CID Office, Police Line Takli, Nagpur",
      "lat": 21.1782543,
      "lng": 79.070244,
      "open_now": null
    },
    {
      "place_id": "ChIJH3a_6ELB1DsRjrh6APmdKgk",
      "name": "LPG Gas Pump (Essay Petroleum)",
      "address": "Nagpur",
      "lat": 21.1894524,
      "lng": 79.0784398,
      "open_now": true
    },
    {
      "place_id": "ChIJNdwCfADp1DsRayiqKN-G4lk",
      "name": "Jio BP Kalmeshwar Ghode Petroleum",
      "address": "6X72+XF, Dahegaon",
      "lat": 21.214959,
      "lng": 78.95112999999999,
      "open_now": null
    },
    {
      "place_id": "ChIJWRPIG5TB1DsRBgJsKXpBQ9o",
      "name": "Captain Gas Station- Auto LPG",
      "address": "Survey No 261/262, City, near Harley Showroom, opposite Max Hospital, New Mankapur, Nagpur",
      "lat": 21.1857154,
      "lng": 79.0786127,
      "open_now": true
    },
    {
      "place_id": "ChIJDVxF6cnu1DsRodvExpXJe7Y",
      "name": "Hindustan Petroleum Corporation Limited",
      "address": "Ground floor, Mutton Market Square, Kalameshwar, Nagpur",
      "lat": 21.1716434,
      "lng": 79.0763717,
      "open_now": true
    },
    {
      "place_id": "ChIJAyE4KSjB1DsRdyymVpp8rjI",
      "name": "Bharat Petroleum, Petrol Pump -Aakash Petroleum",
      "address": "JARIPATKA OUTER RING RD, N, Nagpur",
      "lat": 21.1920915,
      "lng": 79.0892137,
      "open_now": null
    },
    {
      "place_id": "ChIJ8-S7yhXD1DsRU1oPxs-EeIY",
      "name": "Reliance Petroleum",
      "address": "Dahegaon, Nagpur, NH-69, Nagpur Chindwada Highway, Saoner, Saoner",
      "lat": 21.283,
      "lng": 79.08279999999999,
      "open_now": true
    },
    {
      "place_id": "ChIJ1TrpKXnB1DsRhIz_9hMCfs8",
      "name": "Sweta gas agency",
      "address": "Shop no10, renuka app, Jaripatka, Nagpur",
      "lat": 21.1885136,
      "lng": 79.0907733,
      "open_now": true
    },
    {
      "place_id": "ChIJEVgK7T7B1DsRWaYtKYpga_g",
      "name": "Hindustan Petroleum Corporation Limited",
      "address": "Ground Floor, near Police Station, Inner Ring Road, Jaripatka, Nagpur",
      "lat": 21.188131,
      "lng": 79.09067499999999,
      "open_now": true
    },
    {
      "place_id": "ChIJOynkUGXH1DsRWTZoxNpSNfY",
      "name": "Gulab Fuels Service",
      "address": "कुकरेजा सन सिटी के सामने, नारी रोड बस स्टैंड, छत्रपति शिवाजी महाराज चौक, Dixit Nagar, Nagpur",
      "lat": 21.1947536,
      "lng": 79.10991059999999,
      "open_now": true
    },
    {
      "place_id": "ChIJo9wITLXG1DsR8T1xw6_zhiY",
      "name": "Bharat Petroleum",
      "address": "54V5+RXX, Nari Road, Nari Village, Nagpur",
      "lat": 21.1946013,
      "lng": 79.10999029999999,
      "open_now": null
    },
    {
      "place_id": "ChIJn_VPWQDH1DsRg1gX_2sGMTQ",
      "name": "SAROJKAR HAUS 48/ 748",
      "address": "54W6+7WG, Nagpur",
      "lat": 21.1956759,
      "lng": 79.1123282,
      "open_now": null
    },
    {
      "place_id": "ChIJNU8PkOw_xjsRDCYSSiSBNtI",
      "name": "IndianOil",
      "address": "Survey No 34, Plot No 646581 & 82, Indora, Nagpur",
      "lat": 21.1864055,
      "lng": 79.10075309999999,
      "open_now": true
    },
    {
      "place_id": "ChIJcRksrmrH1DsRIVgYeltd5H8",
      "name": "SANGITA FUEL SERVICES",
      "address": "Plot No 1 , Baba Balaknath square Sahare layout Uppalwadi road",
      "lat": 21.1993221,
      "lng": 79.1180926,
      "open_now": true
    },
    {
      "place_id": "ChIJhyBsdX_B1DsRfO3kxC1G09o",
      "name": "Patankar Chowk Gramin Petrol Pump Nagpur India",
      "address": "54M2+68Q, Unnamed Road, New Thaware Colony, Nagpur",
      "lat": 21.1830857,
      "lng": 79.10086799999999,
      "open_now": null
    },
    {
      "place_id": "ChIJ67xgcQDH1DsRNf7wJW1MVZU",
      "name": "IndianOil",
      "address": "IOCL petrol pump, Nalanda Nagar Bank Colony, Bank Colony, Nagpur",
      "lat": 21.18624,
      "lng": 79.111871,
      "open_now": true
    },
    {
      "place_id": "ChIJnf9OY9LG1DsRfzSvAJ6kYys",
      "name": "Gogas Auto LPG",
      "address": "173, 07, Kamptee Road, Mahendra Nagar, Teka Naka, Nagpur",
      "lat": 21.181123,
      "lng": 79.113005,
      "open_now": true
    },
    {
      "place_id": "ChIJsRVy-6PB1DsRZylKJc4QlDo",
      "name": "Bharat Petroleum, Petrol Pump -Jaimalsingh Lamba & Co.",
      "address": "KAMPTEE RD NR TULI MALL,NA, Buddha Nagar, Balabhaupeth, Nagpur",
      "lat": 21.174065,
      "lng": 79.1021116,
      "open_now": true
    },
    {
      "place_id": "ChIJFXg0IMHG1DsR1dMTbMvKxDQ",
      "name": "Ekta Diesels",
      "address": "54RG+3GW, Kamptee Road, Kamptee, Pili Nadi, Nagpur",
      "lat": 21.190242,
      "lng": 79.126327,
      "open_now": true
    },
    {
      "place_id": "ChIJ3YxKLgDH1DsRmXPt0GDCbz0",
      "name": "Bharat petroleum Petroleum Corporation",
      "address": "23, Sidharth Nagar, Nagpur",
      "lat": 21.1824982,
      "lng": 79.11898479999999,
      "open_now": true
    },
    {
      "place_id": "ChIJHZeTo13H1DsRNwWJ43JL0Wg",
      "name": "Jawahar Petroleum",
      "address": "Shop No 1, Takayama Nagar, Nagpur",
      "lat": 21.1761131,
      "lng": 79.11213579999999,
      "open_now": null
    },
    {
      "place_id": "ChIJkUKbwCfB1DsRBUvg4Ni1c20",
      "name": "10 Number Puliya Petrol Pump",
      "address": "Number 10, Kamptee Rd, Puliya, Dobi Nagar, Bezonbagh, Nagpur, Maharashtra 440017, Number 10, Kamptee Road, Puliya, Dobi Nagar, Bezonbagh, Nagpur",
      "lat": 21.17084909999999,
      "lng": 79.0970095,
      "open_now": true
    },
    {
      "place_id": "ChIJFclawCfB1DsRiEAbTnCqx8o",
      "name": "Hindustan Petroleum Corporation Limited",
      "address": "Ground Floor 10, No Puliya, near Jaswant Cinema, Kamptee Road, Nagpur",
      "lat": 21.170761,
      "lng": 79.097111,
      "open_now": true
    },
    {
      "place_id": "ChIJCWzrlifB1DsRO_u6a6vojjk",
      "name": "Gulati Filling Station",
      "address": "Kashmiri Gali, Dobi Nagar, Itwari, Nagpur",
      "lat": 21.1703833,
      "lng": 79.0965873,
      "open_now": true
    },
    {
      "place_id": "ChIJranRA0rB1DsRijLjO_EW-wk",
      "name": "Modern Sales Servo",
      "address": "ward no, 43, Itwari Station Road, Yadav Nagar, Binaki, Nagpur",
      "lat": 21.1788799,
      "lng": 79.11881199999999,
      "open_now": true
    },
    {
      "place_id": "ChIJY8xCZt_A1DsR8CAj52G9E0g",
      "name": "Hindustan Petroleum Corporation Limited",
      "address": "Ground Floor, Kadbi Chowk, Nagpur",
      "lat": 21.168401,
      "lng": 79.091161,
      "open_now": true
    },
    {
      "place_id": "ChIJ886b0c7B1DsRQedAH2o3S7Y",
      "name": "Kadbi Square",
      "address": "539R+785, Unnamed Road, Mecosabagh Christian Colony, Nagpur",
      "lat": 21.168132,
      "lng": 79.0908596,
      "open_now": true
    },
    {
      "place_id": "ChIJFQClPaXH1DsR5n0WB9dDoE0",
      "name": "VITHAI SALES CORPORATION",
      "address": "CHIMURKAR LAYOUT, near CANCER HOSPITAL, 28, KALAMNA RING ROAD, Nagpur",
      "lat": 21.1791734,
      "lng": 79.12205860000002,
      "open_now": null
    },
    {
      "place_id": "ChIJ5Xv-7njH1DsRXFdOUX7w62E",
      "name": "Jio-bp",
      "address": "Khasra No 52, Etta Bhatti Chowk, opposite Hcg Cancer Hospital, 1 & 52/4 Sh 340, Nagpur",
      "lat": 21.178119,
      "lng": 79.124826,
      "open_now": true
    },
    {
      "place_id": "ChIJNQJP-8bH1DsRZEwuIZy-G2Y",
      "name": "Rawmatt CNG Station",
      "address": "National Highway 44, Ekta Colony, Nagpur",
      "lat": 21.1778785,
      "lng": 79.1251978,
      "open_now": true
    },
    {
      "place_id": "ChIJdYqieR3H1DsRpYJ-6jJ6e44",
      "name": "Natyashringar Garba Dresses,Fancy Dresses",
      "address": "Plot No 848, near Anand Bekary Oppo Dhurve Gas Agency, Vaishali Nagar, Nagpur",
      "lat": 21.16837259999999,
      "lng": 79.1111212,
      "open_now": true
    },
    {
      "place_id": "ChIJv32HKufA1DsRTnziRl7wHgk",
      "name": "IndianOil",
      "address": "Kamptee Road, Gaddigodam, Nagpur",
      "lat": 21.1621907,
      "lng": 79.0843512,
      "open_now": true
    },
    {
      "place_id": "ChIJLxknVY7G1DsRe94FjqdfQQ4",
      "name": "MHKS Mohammad Ali Petrol Pump",
      "address": "Opposite Akashwani Radio Station Near Suman Vihar Society, Kamptee Road, Khairy",
      "lat": 21.204493,
      "lng": 79.1462122,
      "open_now": true
    },
    {
      "place_id": "ChIJH7L2EwDH1DsRAAb0nO8kQKs",
      "name": "HCG CNG pump",
      "address": "124, Bhilgaon, Nagpur",
      "lat": 21.2048003,
      "lng": 79.1467758,
      "open_now": null
    },
    {
      "place_id": "ChIJKXEXgKnI1DsRsL0MMKyv86I",
      "name": "Bharat Petroleum, Petrol Pump -Nitin Service Station",
      "address": "Kamptee Road, Gaddigodam Chowk, Nagpur",
      "lat": 21.1598681,
      "lng": 79.0831025,
      "open_now": true
    },
    {
      "place_id": "ChIJz_o_VY7G1DsRJVZKT61jnKg",
      "name": "Hindustan Petroleum Corporation Limited",
      "address": "Ground Floor, Kamptee Road, Khairy",
      "lat": 21.2052601,
      "lng": 79.1473601,
      "open_now": true
    },
    {
      "place_id": "ChIJTc2FEAPG1DsRwacj-B7TGj0",
      "name": "IndianOil",
      "address": "Ground Floor, Damadulal Gandhi Chowk, Kamptee",
      "lat": 21.2129498,
      "lng": 79.1966924,
      "open_now": true
    },
    {
      "place_id": "ChIJ7dDU7QLG1DsR2y9RryxNgr0",
      "name": "Hindustan Petroleum Corporation Limited",
      "address": "Sheet No 11, Block No 75, Plot No L/5, Kamptee",
      "lat": 21.21305509999999,
      "lng": 79.19802589999999,
      "open_now": true
    },
    {
      "place_id": "ChIJz1DteXzG1DsRvk3pa86fyJo",
      "name": "Hindustan Petroleum Corporation Limited",
      "address": "Ground Floor, Kamptee Road, Khairy",
      "lat": 21.212121,
      "lng": 79.160191,
      "open_now": true
    },
    {
      "place_id": "ChIJyeYpQADH1DsRVCRUosNTVKk",
      "name": "USK AutoGas AutoLPG Station",
      "address": "6577+7GF, Nagpur",
      "lat": 21.2127739,
      "lng": 79.16293650000001,
      "open_now": null
    },
    {
      "place_id": "ChIJq8412OLH1DsRVHts7xj-kCk",
      "name": "LPG GAS PUMP KAMPTEE NAGPUR (ESSAY PETROLEUM)",
      "address": "Kalamna Road, Sayeed Nagar, Kamptee",
      "lat": 21.1973274,
      "lng": 79.16852449999999,
      "open_now": true
    },
    {
      "place_id": "ChIJMRFagY_F1DsRIwMGXXs6IKA",
      "name": "M A Aziz farm house",
      "address": "65Q6+5R6, Kamptee Road, Yerkheda",
      "lat": 21.237906,
      "lng": 79.16200599999999,
      "open_now": null
    },
    {
      "place_id": "ChIJHZkD-FvG1DsRaAeiViM7hu8",
      "name": "Jio-bp",
      "address": "Survey No 58, 3, Kalamna Road, Nagpur",
      "lat": 21.19080169999999,
      "lng": 79.16149209999999,
      "open_now": true
    },
    {
      "place_id": "ChIJLcdmIvzG1DsRyPgj3WFZf3w",
      "name": "Bharat Petrolium and CNG station",
      "address": "Kalamna",
      "lat": 21.1768534,
      "lng": 79.1487345,
      "open_now": true
    },
    {
      "place_id": "ChIJ2QvNq__G1DsRRaJgD-akSxY",
      "name": "Mahadeo Automobiles",
      "address": "Road, Kalmana, Kamptee",
      "lat": 21.1752587,
      "lng": 79.1526389,
      "open_now": true
    },
    {
      "place_id": "ChIJAxXZFOHH1DsR9UsZSnt1XYw",
      "name": "Sanjay Marathe Service",
      "address": "Shop 345, Gulshan Nagar, Bhilgaon, Nagpur",
      "lat": 21.1774849,
      "lng": 79.1377432,
      "open_now": null
    },
    {
      "place_id": "ChIJ7yLFr7nH1DsRSHG75Ic2hvA",
      "name": "Daraksha",
      "address": "Vandevi Chowk, near Masjid, Nagpur",
      "lat": 21.1772289,
      "lng": 79.133862,
      "open_now": null
    },
    {
      "place_id": "ChIJZZs1Q-fH1DsRo35-WcY8x_M",
      "name": "Jawaharlal Nehru Petrol Pump",
      "address": "54FR+2G4, Vaishano Devi Nagar, Bhilgaon, Nagpur",
      "lat": 21.1726231,
      "lng": 79.1413973,
      "open_now": true
    },
    {
      "place_id": "ChIJreUzheLG1DsROLl51K0P3E8",
      "name": "Hindustan Petroleum Corporation Limited",
      "address": "Ground Floor, Old Kamptee Road, Shantinagar Colony, Nagpur",
      "lat": 21.172254,
      "lng": 79.14070799999999,
      "open_now": true
    },
    {
      "place_id": "ChIJufSjPjLH1DsR3OsuPos0MSo",
      "name": "DANDE PETROLEUM BHARAT PETROLEUM",
      "address": "near AUTOMOTIVE SQUARE",
      "lat": 21.17363499999999,
      "lng": 79.128647,
      "open_now": true
    },
    {
      "place_id": "ChIJqV9u5PTE1DsRxlZ46qJZi8Q",
      "name": "IndianOil",
      "address": "Ground Floor Hingna Barabhai, Saoner",
      "lat": 21.2690768,
      "lng": 79.134288,
      "open_now": true
    },
    {
      "place_id": "ChIJOx80J7TJ1DsR0GTNLyjzANQ",
      "name": "Bharat Petroleum Petrol Pump , TAJ PETROLEUM",
      "address": "AJANI - GUMTHALA ROADKH NO. 166, Nagpur",
      "lat": 21.203319,
      "lng": 79.218721,
      "open_now": true
    }
  ]
}