{
  "city": "Darbhanga",
  "state": "Bihar",
  "count": 77,
  "center": {
    "lat": 26.1569,
    "lng": 85.9016
  },
  "pumps": [
    {
      "place_id": "ChIJ6cg9JXu87TkRN482JPxBGVM",
      "name": "Hindustan Petroleum Corporation Limited",
      "address": "Ground Floor, Samastipur Darbhanga Road, Hanuman Nagar, Poaria",
      "lat": 26.0645401,
      "lng": 85.8148101,
      "open_now": true
    },
    {
      "place_id": "ChIJV3ZiDAC77TkRzuqQ-BIDDSE",
      "name": "RRP PETROLIUM (BPCL)",
      "address": "3RMM+WFP, Dihlahi",
      "lat": 26.0848392,
      "lng": 85.83371029999999,
      "open_now": true
    },
    {
      "place_id": "ChIJIWSRHwC77TkR2xFZM-ee1fg",
      "name": "Bharat Petroleum",
      "address": "3RMM+WGF, Dihlahi",
      "lat": 26.0848211,
      "lng": 85.8337844,
      "open_now": true
    },
    {
      "place_id": "ChIJmwG_Sd277TkRQtqxk-bxvW0",
      "name": "IndianOil",
      "address": "Ground Floor, Darbhnaga Samstipur Road, DMC, Darbhanga",
      "lat": 26.09427,
      "lng": 85.83892,
      "open_now": true
    },
    {
      "place_id": "ChIJ5XHp21m77TkRe5cwO91bxBU",
      "name": "R.J. Bhawani HP Gas godam",
      "address": "4R3W+338, State Highway 50, Dihlahi",
      "lat": 26.1026642,
      "lng": 85.84521199999999,
      "open_now": null
    },
    {
      "place_id": "ChIJly_J6hy97TkRa4w2IlePrr4",
      "name": "IndianOil",
      "address": "Ground Floor Bishunpur, Hanuman Nagar",
      "lat": 26.0610449,
      "lng": 85.8125025,
      "open_now": true
    },
    {
      "place_id": "ChIJb0ukBaO97TkRaEN__RcHY1A",
      "name": "IndianOil",
      "address": "Ground Floor Patrory, Basant",
      "lat": 26.0621261,
      "lng": 85.80004629999999,
      "open_now": true
    },
    {
      "place_id": "ChIJB-TSSXO97TkRzD1ef8SQD3A",
      "name": "Maa Kalli Hp Gas",
      "address": "2RQ7+CJP, Ughra",
      "lat": 26.0385985,
      "lng": 85.8140626,
      "open_now": null
    },
    {
      "place_id": "ChIJhysPxyC67TkR0yDcLQdlPS8",
      "name": "Bharat Petroleum",
      "address": "India",
      "lat": 26.1421901,
      "lng": 85.84693589999999,
      "open_now": null
    },
    {
      "place_id": "ChIJSRFlK8Ol7TkRsAkqAkCL0lY",
      "name": "Hindustan Petroleum Corporation Limited",
      "address": "Ground Floor, Moro, Bishanpur Aterbel Road, Araila",
      "lat": 26.0900798,
      "lng": 85.76436679999999,
      "open_now": true
    },
    {
      "place_id": "ChIJRZamzv247TkRtFOKHf_N288",
      "name": "IndianOil",
      "address": "Ground Floor, Laheriasarai, Sundarpur",
      "lat": 26.1183058,
      "lng": 85.88931099999999,
      "open_now": true
    },
    {
      "place_id": "ChIJH5hkbAC57TkRtybjEsphfrM",
      "name": "Petrol pump",
      "address": "4W22+PWX, Kabipur, Laheriasarai, Darbhanga",
      "lat": 26.1018729,
      "lng": 85.9023605,
      "open_now": true
    },
    {
      "place_id": "ChIJM1DUp7K57TkRebA9Ec0t9mk",
      "name": "Shanti Niketan Dabakhena",
      "address": "Shanti Niketan Davakhana, Leaheryasarai.Near Jantadarbar, Laheriasarai",
      "lat": 26.1186833,
      "lng": 85.90008329999999,
      "open_now": null
    },
    {
      "place_id": "ChIJ21kPAjS97TkR_s75NZ_ckPo",
      "name": "राजू भारत ग्रामीण वितरक",
      "address": "2R96+X4P, State Highway 50, Gorina",
      "lat": 26.0199699,
      "lng": 85.8103311,
      "open_now": null
    },
    {
      "place_id": "ChIJLSsAlj6_7TkRNuXb2wWkFB4",
      "name": "IndianOil",
      "address": "Ground Floor, Kharsand East, Simaria Bhindi",
      "lat": 26.018507,
      "lng": 85.850899,
      "open_now": true
    },
    {
      "place_id": "ChIJfywsVam57TkRo33fLeQLZRk",
      "name": "R R P PETROLEUM",
      "address": "Dihlahi",
      "lat": 26.1308634,
      "lng": 85.89466929999999,
      "open_now": true
    },
    {
      "place_id": "ChIJsQUnv1a47TkRG-b1Rxc6CNk",
      "name": "IndianOil",
      "address": "Ground Floor, Laheriasarai, Darbhanga",
      "lat": 26.1297343,
      "lng": 85.8957458,
      "open_now": true
    },
    {
      "place_id": "ChIJSS1siO3A7TkR2wVSzIL2Ej4",
      "name": "Hindustan Petroleum Corporation Limited",
      "address": "near Ashok Paper Mills Road, Ground Floor Anand Pur, near Ashok Paper Mills Road, Horalpatti",
      "lat": 26.06753089999999,
      "lng": 85.9291825,
      "open_now": true
    },
    {
      "place_id": "ChIJGabtwGu47TkR9HExjhE0IRc",
      "name": "Hindustan Petroleum Corporation Limited",
      "address": "Ground Floor, Sonki Road, Bheluchak, Donar, Kabir Chak",
      "lat": 26.144567,
      "lng": 85.9136364,
      "open_now": true
    },
    {
      "place_id": "ChIJ6z488fG57TkRGQWkHNeYLcs",
      "name": "Bharat Petroleum",
      "address": "DONAR, CHOWKDARBHANGA, Donar Road, Bhathiarisarai, Darbhanga",
      "lat": 26.1482759,
      "lng": 85.9082224,
      "open_now": true
    },
    {
      "place_id": "ChIJxwyDcje47TkR0m1Sj7kpLy8",
      "name": "Indian Oil",
      "address": "Ground Floor, near CM College, Chowk, Mirzapur, Darbhanga",
      "lat": 26.1523148,
      "lng": 85.89860259999999,
      "open_now": true
    },
    {
      "place_id": "ChIJT4B78a657TkR_nvTlnIHML4",
      "name": "Bharat Petroleum, Petrol Pump -Jagdamba Fuel Centre",
      "address": "SURHACHATTI,PAGAIMBARPR,DA, Darbhanga",
      "lat": 26.1226128,
      "lng": 85.9015944,
      "open_now": null
    },
    {
      "place_id": "ChIJ14POfPC57TkRNimtAhD6Nfg",
      "name": "Bharat Petroleum, Petrol Pump -Sony Fuels",
      "address": "NEHRA,SAKRI-NEHRA RD,DARBH, Darbhanga",
      "lat": 26.1239192,
      "lng": 85.9066919,
      "open_now": true
    },
    {
      "place_id": "ChIJiZtWMFm47TkRdFvWhMdv7tI",
      "name": "IndianOil",
      "address": "Ground Floor, VIP Road, Balbhadrapur, CM College, Darbhanga",
      "lat": 26.1271142,
      "lng": 85.9030579,
      "open_now": true
    },
    {
      "place_id": "ChIJuVt-JwDH7TkRffXAgLoVM94",
      "name": "Hp Gas Office",
      "address": "4WJM+H9C, Balbhadrapur",
      "lat": 26.1314349,
      "lng": 85.93338519999999,
      "open_now": null
    },
    {
      "place_id": "ChIJtSPa3bO57TkRZXNnrSlYP3I",
      "name": "R K Khan",
      "address": "Neem Chowk Khan Hotel, Urdu Bazaar Road, Neem Chowk",
      "lat": 26.13936159999999,
      "lng": 85.8865458,
      "open_now": null
    },
    {
      "place_id": "ChIJWWQQyezB7TkRNy-7IbxCfIw",
      "name": "IndianOil",
      "address": "Ground Floor, Imambari, Sidhouli",
      "lat": 26.0491233,
      "lng": 85.94535739999999,
      "open_now": true
    },
    {
      "place_id": "ChIJTZKSL1vB7TkRiCpfX28zapc",
      "name": "Mai Enterprises",
      "address": "Mai Enterprises Lagopur, Road, Lagopur, Baheri",
      "lat": 26.0469869,
      "lng": 85.9479624,
      "open_now": null
    },
    {
      "place_id": "ChIJL3PmsUG47TkRx9DxvjuRorY",
      "name": "IndianOil",
      "address": "Ground Floor, CM College, Donar, Darbhanga",
      "lat": 26.145588,
      "lng": 85.908205,
      "open_now": true
    },
    {
      "place_id": "ChIJ4agbPVq57TkRD42RW_S23wk",
      "name": "Bharat Petroleum, Petrol Pump -Kumar Fuels",
      "address": "SONKI, PANTA, DARBHANGA, Darbhanga",
      "lat": 26.1451857,
      "lng": 85.9191369,
      "open_now": null
    },
    {
      "place_id": "ChIJ6Td-HTS47TkRQxZGI0CWuzM",
      "name": "Pansary Auto service",
      "address": "Tower chowk, Mirzapur Road, Lal Bagh, Darbhanga",
      "lat": 26.1535369,
      "lng": 85.89466589999999,
      "open_now": true
    },
    {
      "place_id": "ChIJZ4MDdHu57TkRakm5Uyar1So",
      "name": "Bharat Petroleum",
      "address": "Pani tanki, Lalbagh, Mirzapur, Lal Bagh, Darbhanga",
      "lat": 26.153558,
      "lng": 85.894685,
      "open_now": true
    },
    {
      "place_id": "ChIJadCrvjO47TkRSOCxY22N2_s",
      "name": "Indian Oil Petrol Pump",
      "address": "Near, Hasan Chowk Road, Lal Bagh, Darbhanga",
      "lat": 26.1561824,
      "lng": 85.8929347,
      "open_now": true
    },
    {
      "place_id": "ChIJ7QTPUaO57TkRpFQzcqihZu0",
      "name": "Yusuf Zuber Izhar",
      "address": "opposite of Madras, Mangal Chandi, Sasanda, opposite of Madras, Mangal Chandi, Arei",
      "lat": 26.1568726,
      "lng": 85.89996289999999,
      "open_now": null
    },
    {
      "place_id": "ChIJ386TFLzH7TkRqaeSZF3bA2A",
      "name": "R.B.Petro",
      "address": "42F4+FFC, R.B.Petro Dhoi Ghat, Sonki Road, Darbhanga",
      "lat": 26.123695,
      "lng": 86.0061418,
      "open_now": null
    },
    {
      "place_id": "ChIJt8D47hq57TkRM03vW3vE0d8",
      "name": "IndianOil",
      "address": "Ground Floor Sahila, Sadar, Rasoolpur",
      "lat": 26.1340254,
      "lng": 85.9926123,
      "open_now": true
    },
    {
      "place_id": "ChIJFaOmfYDG7TkRvlUuFfqyaIs",
      "name": "Bharat Petroleum Petrol Pump",
      "address": "State Highway 56, Sonki",
      "lat": 26.1276515,
      "lng": 86.0097098,
      "open_now": true
    },
    {
      "place_id": "ChIJZcYZkF_A7TkRNT3f95dZ-OY",
      "name": "M/s Shaktipeeth Kisan Sewa Kendra",
      "address": "to, Sidhouli - Hathauri Kothi Road, Surhachatti",
      "lat": 26.0314761,
      "lng": 85.95272980000001,
      "open_now": true
    },
    {
      "place_id": "ChIJNY95ncLF7TkR4cJwtg2Bhwg",
      "name": "Biofuels Petrol Pump",
      "address": "Parkhotimpur",
      "lat": 26.1256875,
      "lng": 86.0215625,
      "open_now": null
    },
    {
      "place_id": "ChIJB1DNrLnH7TkRHZMMzrxube8",
      "name": "IndianOil",
      "address": "Ground Floor, Jalapur, Dhoi",
      "lat": 26.1474093,
      "lng": 85.9589562,
      "open_now": true
    },
    {
      "place_id": "ChIJZR6F7ia47TkRJN3ppk2DKiE",
      "name": "IndianOil",
      "address": "Ground Floor, Bela More, near CM College, Darbhanga",
      "lat": 26.168389,
      "lng": 85.903222,
      "open_now": true
    },
    {
      "place_id": "ChIJQ3RgiZq37TkRCtxASrwS3ho",
      "name": "Hindustan Petroleum Corporation Limited",
      "address": "Ground Floor, Bira, Lateral Road, Basudeopur, Darbhanga",
      "lat": 26.186601,
      "lng": 85.898701,
      "open_now": true
    },
    {
      "place_id": "ChIJQbUAM5-w7TkRNfbQDn3NkK0",
      "name": "Indian Oil Petrol Pump",
      "address": "5RGG+9H6, Manihas Kansi",
      "lat": 26.1759082,
      "lng": 85.82640529999999,
      "open_now": true
    },
    {
      "place_id": "ChIJre4FUKWw7TkRKAvHsg4r4Xs",
      "name": "M/S Gauri Petroleum",
      "address": "Basudeopur, Darbhanga, NH-57, Darbhanga",
      "lat": 26.1815642,
      "lng": 85.83781570000001,
      "open_now": true
    },
    {
      "place_id": "ChIJjW1ym12x7TkR-izcLT_pK1Q",
      "name": "Reliance Petroleum",
      "address": "Plot No 232, Khata No 82 Mabbi Belauna, Nh 57, Chakka",
      "lat": 26.1821354,
      "lng": 85.8366719,
      "open_now": true
    },
    {
      "place_id": "ChIJrUERY1G37TkRIbAYsW0_xhs",
      "name": "Hira Petroleum",
      "address": "NH57, East-West Expressway, Bastauli",
      "lat": 26.1790002,
      "lng": 85.85398169999999,
      "open_now": null
    },
    {
      "place_id": "ChIJX5hCj1637TkREUO1qQ5rG1I",
      "name": "IndianOil",
      "address": "Ground Floor, Mabbi Belauna",
      "lat": 26.1785671,
      "lng": 85.8604065,
      "open_now": true
    },
    {
      "place_id": "ChIJd7pzuGW37TkRhxdoYU0d7fw",
      "name": "IndianOil",
      "address": "Ground Floor Sheodhara, CM College, Darbhanga",
      "lat": 26.181442,
      "lng": 85.875374,
      "open_now": true
    },
    {
      "place_id": "ChIJ0cYv4Fu77TkRFBV45qxQxt8",
      "name": "Mithila gairej",
      "address": "Baheri",
      "lat": 26.1391185,
      "lng": 85.7717907,
      "open_now": null
    },
    {
      "place_id": "ChIJGV5HKVOl7TkRy1wgpYIdW20",
      "name": "IndianOil",
      "address": "Ground Floor, A Babhangama, Simri",
      "lat": 26.1596546,
      "lng": 85.7665102,
      "open_now": true
    },
    {
      "place_id": "ChIJfWQr7PG57TkRqnIuUhiYArY",
      "name": "Bharat Petroleum, Petrol Pump -Chaudhury Service Station",
      "address": "SHANKAR LOHAR CHOWK,DARBHA, Darbhanga",
      "lat": 26.1694056,
      "lng": 85.89618759999999,
      "open_now": null
    },
    {
      "place_id": "ChIJy_w4U8O37TkREZd5f5ZR6do",
      "name": "Hindustan Petroleum Corporation Limited",
      "address": "Ground Floor, NH 57, Crossing, Mabbi Belauna",
      "lat": 26.1869053,
      "lng": 85.8965937,
      "open_now": true
    },
    {
      "place_id": "ChIJ7dipD6G37TkR-Q9rQJ8Lfu4",
      "name": "Chaudhary petrol pump",
      "address": "State Highway 50, Ranipur, Darbhanga",
      "lat": 26.1824545,
      "lng": 85.9011364,
      "open_now": null
    },
    {
      "place_id": "ChIJ35SWCjal7TkR6Lr43GJMYI8",
      "name": "Nazmi Petroleum",
      "address": "4QP6+G2, Arai",
      "lat": 26.1363081,
      "lng": 85.76006389999999,
      "open_now": true
    },
    {
      "place_id": "ChIJb1G5NXa37TkRUA5iG207X0s",
      "name": "IndianOil",
      "address": "Ground Floor Bashudeopur, Sadar,B, Bira, Darbhanga",
      "lat": 26.1828348,
      "lng": 85.90100149999999,
      "open_now": true
    },
    {
      "place_id": "ChIJJQhvU6-37TkRZzNzhz_2poc",
      "name": "KRISHNA HI-TECH PETRO",
      "address": "5WP3+JC3, Kakarghatti",
      "lat": 26.1865124,
      "lng": 85.9035349,
      "open_now": true
    },
    {
      "place_id": "ChIJC4BYMfu37TkRSfn_Jo1prKE",
      "name": "IndianOil",
      "address": "Km Stone, Ground Floor Gehumi, 65/027, Sadar Anchal, Darbhanga",
      "lat": 26.1842205,
      "lng": 85.9235403,
      "open_now": true
    },
    {
      "place_id": "ChIJtU-9LMO57TkRBRMIiDlSGnQ",
      "name": "Hindustan Petroleum Corporation Limited",
      "address": "Ground Floor, Old Darbhanga Madhubani Road, Gangwara, Darbhanga",
      "lat": 26.1701251,
      "lng": 85.9155273,
      "open_now": true
    },
    {
      "place_id": "ChIJtX5dP8q37TkRXbj-Tt_qRGw",
      "name": "CNG pump",
      "address": "5WP7+C67, Basdeopur",
      "lat": 26.1866487,
      "lng": 85.9116435,
      "open_now": true
    },
    {
      "place_id": "ChIJ66dJUfu37TkR53LhGAesHww",
      "name": "CHOUDHARY HIGH TECH PETRO",
      "address": "5WMF+PXQ, Darbhanga Bypass East-West Expressway Down, Bela Shankar",
      "lat": 26.1843491,
      "lng": 85.9249973,
      "open_now": true
    },
    {
      "place_id": "ChIJSfjCuRzI7TkRV5tVHcsrq2M",
      "name": "Sitaram Yadav Hi-Tech Petro",
      "address": "5 km from Dillimore towards sakri on LHS of N.H-57, Bela Navada N.H -57 Darbhanga, Darbhanga",
      "lat": 26.185861,
      "lng": 85.934519,
      "open_now": true
    },
    {
      "place_id": "ChIJAdiFhnLJ7TkRP_Y3EKsdmgQ",
      "name": "IndianOil",
      "address": "Ground Floor Bela Nawada, Sadar,B, Bira, Darbhanga",
      "lat": 26.1861516,
      "lng": 85.934513,
      "open_now": true
    },
    {
      "place_id": "ChIJ40UxvWTJ7TkR5wXB-ta7Wy4",
      "name": "Kgm Transport Punjabi Hotel",
      "address": "National Highway 27, Aerodrome Darbhanga, Ranipur, Bela",
      "lat": 26.1856976,
      "lng": 85.93546359999999,
      "open_now": true
    },
    {
      "place_id": "ChIJ37aStLDJ7TkR31ldiWOr_PU",
      "name": "IndianOil",
      "address": "Ground Floor, Khutba, Darbhanga - Sakri Road, Dhoi",
      "lat": 26.174155,
      "lng": 85.957477,
      "open_now": true
    },
    {
      "place_id": "ChIJu4ovUm7I7TkRmEa7prYxwuw",
      "name": "IndianOil",
      "address": "Ground Floor, Kharthua",
      "lat": 26.1885009,
      "lng": 85.9583047,
      "open_now": true
    },
    {
      "place_id": "ChIJH124D4_I7TkRiVDolaxVIoc",
      "name": "Bharat Petroleum, Petrol Pump -Sita Petro",
      "address": "SAKRI ROAD, NH-57, Darbhanga",
      "lat": 26.1881554,
      "lng": 85.978668,
      "open_now": true
    },
    {
      "place_id": "ChIJRRQdSrjI7TkR9fBBdYnYr8E",
      "name": "Hindustan Petroleum Corporation Limited",
      "address": "Ground Floor, Jivach Ghat, Muria",
      "lat": 26.19567829999999,
      "lng": 86.0008101,
      "open_now": true
    },
    {
      "place_id": "ChIJZyUCXgDJ7TkRkpF93yKLCQc",
      "name": "CNG PUMP SITA PETROLEUM",
      "address": "57, Darbhanga - Sakri Road, Darbhanga",
      "lat": 26.18857689999999,
      "lng": 85.9784842,
      "open_now": true
    },
    {
      "place_id": "ChIJ0-fQ8L3I7TkRX1eJkAmROgI",
      "name": "Hindustan Petroleum Corporation Limited",
      "address": "Ground Floor, NH 57, near Jeevachhghat, Khajuri",
      "lat": 26.191197,
      "lng": 85.988886,
      "open_now": true
    },
    {
      "place_id": "ChIJsRIj88zI7TkR_-sPXYq1-UE",
      "name": "IndianOil",
      "address": "Ground Floor, Muria",
      "lat": 26.20586279999999,
      "lng": 86.00949709999999,
      "open_now": true
    },
    {
      "place_id": "ChIJkZsB_h2x7TkRev3rztgVTEI",
      "name": "Hindustan Petroleum Corporation Limited",
      "address": "Ground Floor, Madhopatti Gopalpur, SH 75, Kamtoul, Pindaruch",
      "lat": 26.2416187,
      "lng": 85.8412669,
      "open_now": true
    },
    {
      "place_id": "ChIJ-Y05TAC17TkR5UHBbFN-Uko",
      "name": "Bhardwaj Petroleum",
      "address": "7VC2+P76, Tektar",
      "lat": 26.2717875,
      "lng": 85.85064059999999,
      "open_now": true
    },
    {
      "place_id": "ChIJhRek_RG27TkRj6E6GtOM2jU",
      "name": "IndianOil",
      "address": "National Highway 105, Pathra",
      "lat": 26.255098,
      "lng": 85.915971,
      "open_now": true
    },
    {
      "place_id": "ChIJWfMIXjHL7TkREJwsBAysuH8",
      "name": "Hindustan Petroleum Corporation Limited",
      "address": "Ground Floor, Keoti",
      "lat": 26.282781,
      "lng": 85.93359099999999,
      "open_now": true
    },
    {
      "place_id": "ChIJw0a4NADP7TkRbXKyjk_FQVU",
      "name": "Shyeem gas agency Mohammad pur",
      "address": "62PW+PJP, Mohammadpur, purnea",
      "lat": 26.2368265,
      "lng": 86.046587,
      "open_now": null
    },
    {
      "place_id": "ChIJv1zMX33L7TkRbhD6DrjHxmU",
      "name": "IndianOil",
      "address": "Ground Floor, Balia, Rahika, Gangdwar",
      "lat": 26.287905,
      "lng": 86.006554,
      "open_now": true
    },
    {
      "place_id": "ChIJpcdnQADL7TkR7U1eqHiHygo",
      "name": "टिंकू मोटरसाइकिल गैरेज",
      "address": "72R3+3X3, Belam",
      "lat": 26.29013369999999,
      "lng": 86.004925,
      "open_now": null
    }
  ]
}