{
  "city": "Namchi",
  "state": "Sikkim",
  "count": 42,
  "center": {
    "lat": 27.1667,
    "lng": 88.4167
  },
  "pumps": [
    {
      "place_id": "ChIJAULRJYcn5DkRw9SYF1GClAc",
      "name": "Hindustan Petroleum Corporation Limited",
      "address": "Ground Floor, opposite Church, Road, Namchi",
      "lat": 27.1614642,
      "lng": 88.3570987,
      "open_now": true
    },
    {
      "place_id": "ChIJj9DWpyUo5DkRNCVsiBxjK1Q",
      "name": "Hindustan Petroleum Corporation Limited",
      "address": "Ground Floor, Namchi - Nayabazar Road, Jorethang",
      "lat": 27.147175,
      "lng": 88.289457,
      "open_now": true
    },
    {
      "place_id": "ChIJ28BCDjYn5DkRPXcQkjzyq5c",
      "name": "Simbong div",
      "address": "39J3+M75, Kambal Tea Garden",
      "lat": 27.0816406,
      "lng": 88.3532192,
      "open_now": null
    },
    {
      "place_id": "ChIJhfMa5kMn5DkRO8dkN7FfVAo",
      "name": "Hindustan Petroleum Corporation Limited",
      "address": "Ground Floor, Jorethang, Melli - Nayabazar Road, Namchi, Manpur",
      "lat": 27.1089047,
      "lng": 88.3245768,
      "open_now": true
    },
    {
      "place_id": "ChIJueUjWcMp5DkR5CrSajyqqzY",
      "name": "IndianOil",
      "address": "Ground Floor, Bharikhola,Okharey",
      "lat": 27.12123,
      "lng": 88.32036000000001,
      "open_now": true
    },
    {
      "place_id": "ChIJg5rQ3Okn5DkRgu-v7fSP65A",
      "name": "IndianOil",
      "address": "Ground Floor, Mickhola, Namchi",
      "lat": 27.141572,
      "lng": 88.34678699999999,
      "open_now": true
    },
    {
      "place_id": "ChIJKZu3_P4p5DkRxEQai9Kf3S0",
      "name": "Bharat Petroleum",
      "address": "47HP+GX5, Jorethang",
      "lat": 27.129061,
      "lng": 88.287297,
      "open_now": null
    },
    {
      "place_id": "ChIJzasdM3yd5jkRJCfSxlMfxnY",
      "name": "Hindustan Petroleum Corporation Limited",
      "address": "Ground Floor, Jorethang Road, Namchi",
      "lat": 27.16686099999999,
      "lng": 88.35700299999999,
      "open_now": true
    },
    {
      "place_id": "ChIJzVap65oh5DkR5DM4sRcas5o",
      "name": "HP Petrol Pump PUMP - M/s Shangrila Oil Depot",
      "address": "&, Nayabazar Road (NH 710), PO, PS:, Melli",
      "lat": 27.166569,
      "lng": 88.3619794,
      "open_now": true
    },
    {
      "place_id": "ChIJO4wpaWKd5jkRdoPIQyVZyo4",
      "name": "MS City Fuels",
      "address": "Namchi Damthang Road, Namchi",
      "lat": 27.16692339999999,
      "lng": 88.36188039999999,
      "open_now": null
    },
    {
      "place_id": "ChIJM2szlLAp5DkR54Fyu8FTzzY",
      "name": "Chandra Sales Agency, Bharath Petroleum",
      "address": "47JG+RJ4, Jorethang",
      "lat": 27.1320245,
      "lng": 88.2765731,
      "open_now": true
    },
    {
      "place_id": "ChIJRQxDYZAh5DkRU_CXFZnEKR8",
      "name": "Hindustan Petroleum",
      "address": "NH-31A, Melli - Nayabazar Road, Melli",
      "lat": 27.085336,
      "lng": 88.451033,
      "open_now": true
    },
    {
      "place_id": "ChIJcb4xrFYf5DkRlXn7my6z1Mo",
      "name": "Bharat Petroleum Fuel Station",
      "address": "3FHM+3FH, Tirpai, Kalimpong",
      "lat": 27.07768099999999,
      "lng": 88.4837198,
      "open_now": null
    },
    {
      "place_id": "ChIJD7BL7Joh5DkRSMnR8xIgyvU",
      "name": "Hindustan Petroleum Corporation Limited",
      "address": "Ground Floor, Road, Melli",
      "lat": 27.0843402,
      "lng": 88.4486991,
      "open_now": true
    },
    {
      "place_id": "ChIJD7ob8JAh5DkRBVFA2V55E1U",
      "name": "IndianOil",
      "address": "East Sikkim, Ground Floor Melli,Gangtok Bazar, Near Sikkim Check Post",
      "lat": 27.08625799999999,
      "lng": 88.45188600000002,
      "open_now": true
    },
    {
      "place_id": "ChIJTSKLSAAj5DkRmAbLbo6NqeY",
      "name": "BISHWA KIRAN FUELS 6TH MILE PETROL KALIMPONG",
      "address": "3C8X+3X6, Kalimpong",
      "lat": 27.0651718,
      "lng": 88.4498978,
      "open_now": null
    },
    {
      "place_id": "ChIJ-b8ughQj5DkRLrD8rInGuB0",
      "name": "Bharat Petroleum, Petrol Pump -Ratiram Banshilal",
      "address": "KALIMPONG, Darjeeling",
      "lat": 27.0651291,
      "lng": 88.4498991,
      "open_now": true
    },
    {
      "place_id": "ChIJSzlvTPgj5DkRqDtR81Kdmpo",
      "name": "IndianOil",
      "address": "Ground Floor, 6th 1/2 Mile, Rishi Road, 7th Mile, Kalimpong",
      "lat": 27.062974,
      "lng": 88.44720219999999,
      "open_now": true
    },
    {
      "place_id": "ChIJV4rW-xgi5DkR6HZKcC9HkLc",
      "name": "Hindustan Petroleum Corporation Limited",
      "address": "Ground Floor, Lower Bridle Road, Kalimpong",
      "lat": 27.062638,
      "lng": 88.46163399999999,
      "open_now": true
    },
    {
      "place_id": "ChIJyY_kH9AZ5DkRx_AVbDG-JBQ",
      "name": "Relli River Side Fuel Station",
      "address": "Relli River Side Fuel Station, Relli Mukti Road, Kalimpong",
      "lat": 27.0585268,
      "lng": 88.5276949,
      "open_now": null
    },
    {
      "place_id": "ChIJ5zz77uwf5DkRy7d_WPkxhyc",
      "name": "IndianOil",
      "address": "Ground Floor, Algarah SH 12, Chhumirchin Manchu, Kalimpong",
      "lat": 27.10246,
      "lng": 88.55118000000002,
      "open_now": true
    },
    {
      "place_id": "ChIJyQQ7wD-f5jkR9WdBYvYK-14",
      "name": "ALK FUELS",
      "address": "road SH-11, Namthang",
      "lat": 27.167408,
      "lng": 88.47443799999999,
      "open_now": true
    },
    {
      "place_id": "ChIJQ5SZxvWh5jkR3xkML_Xzvys",
      "name": "ANULOCHAN KHESANGHEY FUELS (ALK FUELS)",
      "address": "road, Namthang",
      "lat": 27.16757909999999,
      "lng": 88.4746978,
      "open_now": true
    },
    {
      "place_id": "ChIJ0wUddZmd5jkRYzMHi_LE_3M",
      "name": "IndianOil",
      "address": "Ground Floor, Nh710, Namchi - Nayabazar Road, Gumpa-Ghurpisey",
      "lat": 27.169838,
      "lng": 88.364381,
      "open_now": true
    },
    {
      "place_id": "ChIJbes21AWd5jkRxio7EekgOeA",
      "name": "Devi Fuels and Services",
      "address": "Namthang, Road, Bhanjyang",
      "lat": 27.1678364,
      "lng": 88.36827249999999,
      "open_now": true
    },
    {
      "place_id": "ChIJ9UXMS4cp5DkR8H4YWWs8gWs",
      "name": "Bharat Petroleum Petrol Pump , HILL SHIP FUELS",
      "address": "PIPELEYLLEGSHIP ROAD",
      "lat": 27.146875,
      "lng": 88.27976819999999,
      "open_now": true
    },
    {
      "place_id": "ChIJt_dSX7gp5DkR7oq-hzp8w7Q",
      "name": "IndianOil",
      "address": "Ground Floor Naya Bazar, Darjeeling - Jorethang Road, km 104, Okharey",
      "lat": 27.132029,
      "lng": 88.276215,
      "open_now": true
    },
    {
      "place_id": "ChIJd6Mlk2qg5jkRArMiPXY5NnA",
      "name": "Bharat Petroleum",
      "address": "NH-31A, Rangpo Road, Majitar",
      "lat": 27.1877993,
      "lng": 88.5000946,
      "open_now": true
    },
    {
      "place_id": "ChIJdRZLzJug5jkRcDr0Sg94t_Y",
      "name": "Bharat Petroleum",
      "address": "Upper Bazar, South District, NH-31A, Rangpo Bazar Road, Rangpo, Rangpo",
      "lat": 27.1741223,
      "lng": 88.53143469999999,
      "open_now": true
    },
    {
      "place_id": "ChIJC6SByz-g5jkRio7dgVaHbuA",
      "name": "IndianOil",
      "address": "Khatian No 79, Plot No 2254 & 2255, Majitar",
      "lat": 27.187085,
      "lng": 88.499263,
      "open_now": true
    },
    {
      "place_id": "ChIJP8WYWwCh5jkRtO2GaL_me8o",
      "name": "JKB Petrol Pump",
      "address": "Upper Bazaar, upper, Mamring",
      "lat": 27.1721034,
      "lng": 88.51661469999999,
      "open_now": null
    },
    {
      "place_id": "ChIJiUm29oWg5jkRudUq1-EBJsg",
      "name": "IndianOil",
      "address": "IBM Complex, NH 31A, Rangpo",
      "lat": 27.177233,
      "lng": 88.523595,
      "open_now": true
    },
    {
      "place_id": "ChIJf5rGxpug5jkRNqekNArmqmk",
      "name": "IndianOil",
      "address": "Ground Floor, National Highway 10, East, Rangpo",
      "lat": 27.173027,
      "lng": 88.531998,
      "open_now": true
    },
    {
      "place_id": "ChIJe-lZd_eh5jkRaJbyNQqE0bg",
      "name": "Vivekanand Kumar",
      "address": "Vivekanand Kumar, Kumrek",
      "lat": 27.18481779999999,
      "lng": 88.5477317,
      "open_now": null
    },
    {
      "place_id": "ChIJJTlun8Ch5jkRxobhc6Kg5FQ",
      "name": "IndianOil",
      "address": "Ground Floor, Singtam - Chungthang Road, Duga",
      "lat": 27.231804,
      "lng": 88.49842799999999,
      "open_now": true
    },
    {
      "place_id": "ChIJ5earVIGh5jkRA-zkqXBvwDU",
      "name": "IndianOil",
      "address": "Ground Floor, NH 31A, Singtam - Dikchu Road, Bardang",
      "lat": 27.233154,
      "lng": 88.502213,
      "open_now": true
    },
    {
      "place_id": "ChIJEQXhQpeb5jkRy6XruCmmvoA",
      "name": "Hindustan Petroleum Corporation Limited",
      "address": "Tourist Lodge, Ground Floor NH 510, Ravangla, Singtam Near, Ravangla",
      "lat": 27.276944,
      "lng": 88.373055,
      "open_now": true
    },
    {
      "place_id": "ChIJ9xYzo3iF5jkR-OPp0SiUqKE",
      "name": "Kanchenjunga Filling Station",
      "address": "78J5+8WV, Dalep",
      "lat": 27.28087,
      "lng": 88.309795,
      "open_now": null
    },
    {
      "place_id": "ChIJs-3wvLGb5jkRqB_q_w6T5jo",
      "name": "Bharat Petroleum Petrol Pump , MAINAM FUEL",
      "address": "GAGYONGYANGYANG",
      "lat": 27.303147,
      "lng": 88.365623,
      "open_now": true
    },
    {
      "place_id": "ChIJP-udGFuf5jkRVhGYuE2b_y8",
      "name": "Hindustan Petroleum Corporation Limited",
      "address": "Ground Floor, near Sirwani RCC Bridge, Namchi Road, Sirwani, Singtam",
      "lat": 27.2441654,
      "lng": 88.47097010000002,
      "open_now": true
    },
    {
      "place_id": "ChIJO8rynXKZ5jkRjaCqwusnPVU",
      "name": "Yangang Petrol Station.",
      "address": "Dorjee Kazi Marg, Yangang",
      "lat": 27.2940337,
      "lng": 88.4194108,
      "open_now": true
    },
    {
      "place_id": "ChIJv63BMhih5jkRqmR6lqvn4_Y",
      "name": "PETROL PUMP BABA FUELS",
      "address": "MIDDLE CAMP, NH 10, Gangtok",
      "lat": 27.2414912,
      "lng": 88.5207803,
      "open_now": null
    }
  ]
}