{
  "city": "Karimnagar",
  "state": "Telangana",
  "count": 74,
  "center": {
    "lat": 18.4333,
    "lng": 78.85
  },
  "pumps": [
    {
      "place_id": "ChIJ-1Cm3oH8zDsRIt7Scw_q1hc",
      "name": "IndianOil",
      "address": "Survey No 715 & 716, Lock No 113/D1D, Kamareddy - Sircilla Road, Sai Nagar, Karimnagar",
      "lat": 18.3803782,
      "lng": 78.79695679999999,
      "open_now": true
    },
    {
      "place_id": "ChIJp3rBv8D8zDsRKuVGQaHWW4s",
      "name": "IndianOil",
      "address": "Jyothinagar, Yellareddypet",
      "lat": 18.4062946,
      "lng": 78.81992819999999,
      "open_now": true
    },
    {
      "place_id": "ChIJkcCgH4r7zDsRG9sTyr48tC0",
      "name": "IndianOil",
      "address": "Lock No D1/111, A2/6, Peddur",
      "lat": 18.3740445,
      "lng": 78.7757187,
      "open_now": true
    },
    {
      "place_id": "ChIJ6T-Gztf7zDsRUYReGMNbvho",
      "name": "GOLDEN FILLING STATION",
      "address": "GOLDEN FILLING STATION, Kamareddy - Sircilla Road, Peddur",
      "lat": 18.3744545,
      "lng": 78.7756868,
      "open_now": null
    },
    {
      "place_id": "ChIJbbJE8E_7zDsRGTFX47HWIiU",
      "name": "Hindustan Petroleum Corporation Limited",
      "address": "Ground Floor, Kamareddy - Sircilla Road, Sircilla",
      "lat": 18.36914699999999,
      "lng": 78.768241,
      "open_now": true
    },
    {
      "place_id": "ChIJfzruDPb7zDsRwGZ-jtUnUPw",
      "name": "HP PETROL PUMP",
      "address": "HP PERTOL PUMP, Sircilla",
      "lat": 18.3689078,
      "lng": 78.7674753,
      "open_now": true
    },
    {
      "place_id": "ChIJwbqJZN77zDsREplKA6RtqA4",
      "name": "IndianOil",
      "address": "Ground Floor, near Markedyar, Mustabad - Sircilla Road, Sardapur",
      "lat": 18.3613973,
      "lng": 78.75563009999999,
      "open_now": true
    },
    {
      "place_id": "ChIJG9VKxpL9zDsRshz4MCHAHxI",
      "name": "Madhu Filling Station",
      "address": "4, Kamareddy - Sircilla Road, B.Y Nagar, Rajanna Sircilla, Sircilla",
      "lat": 18.38604609999999,
      "lng": 78.797744,
      "open_now": null
    },
    {
      "place_id": "ChIJ5eWryNT9zDsRNl84QV3iH5M",
      "name": "District Administration Filling Station - Sircilla",
      "address": "opposite Medical College, 2nd bypass, Peddur",
      "lat": 18.3858183,
      "lng": 78.76116739999999,
      "open_now": true
    },
    {
      "place_id": "ChIJM7gg2Vj7zDsRUzI3ep4wzkY",
      "name": "Hindustan Petroleum Corporation Limited",
      "address": "Survey No 238, Thangallapalli",
      "lat": 18.3550229,
      "lng": 78.8146859,
      "open_now": true
    },
    {
      "place_id": "ChIJVy5IRoT7zDsRhlRT9cJVHsU",
      "name": "Vishwaa sai filling station",
      "address": "9R27+4WM, Thangallapalli",
      "lat": 18.3503485,
      "lng": 78.8148109,
      "open_now": null
    },
    {
      "place_id": "ChIJ1wkvewD9zDsRD_k6BV2yZYo",
      "name": "Hindustan Petroleum Corporation Limited",
      "address": "Survey No 120, 1, 1, Rajanna, Mushtipalli",
      "lat": 18.399798,
      "lng": 78.785203,
      "open_now": true
    },
    {
      "place_id": "ChIJDVt3PQD7zDsRkcYU_9Pi7u8",
      "name": "\"Nayara energies ROCKY BODAPATLA\" FUEL STATION",
      "address": "8RR6+VP8, Baddenapalli",
      "lat": 18.3421653,
      "lng": 78.8118295,
      "open_now": null
    },
    {
      "place_id": "ChIJF8SRKJD9zDsRhUwazHzS7M0",
      "name": "Dharmapuri Onion Marchent",
      "address": "Shop No 11, 11, Market, Kamareddy - Sircilla Road, Rajanna Sircilla",
      "lat": 18.3870429,
      "lng": 78.8103916,
      "open_now": null
    },
    {
      "place_id": "ChIJB6IGOFr5zDsRUOGkQOnVK-A",
      "name": "Bhara Petroleum",
      "address": "India",
      "lat": 18.3629689,
      "lng": 78.7405564,
      "open_now": null
    },
    {
      "place_id": "ChIJeXboH2f9zDsR-mOV1Vg3tus",
      "name": "Sri Lakshmi Venkateshwara service station â›½",
      "address": "Vidyanagar, Sircilla",
      "lat": 18.391126,
      "lng": 78.8100899,
      "open_now": null
    },
    {
      "place_id": "ChIJR7DTV6r9zDsR0-h1ZD71204",
      "name": "IndianOil",
      "address": "Sy No 517 & 518, Siddipet Road, Vidyanagar, Karimnagar",
      "lat": 18.3834447,
      "lng": 78.81832,
      "open_now": null
    },
    {
      "place_id": "ChIJtQNOWZf8zDsRWEhjy93UncU",
      "name": "Old Petrol Pump",
      "address": "Samudra Lingapoor Road, Padma Nagar, Shanti Nagar, Sircilla",
      "lat": 18.3930279,
      "lng": 78.810965,
      "open_now": true
    },
    {
      "place_id": "ChIJre95dS37zDsRy64Scvdu7N8",
      "name": "IndianOil",
      "address": "Sy No 555/2 Thangallapally, Baddenapalli",
      "lat": 18.3311892,
      "lng": 78.80865969999999,
      "open_now": true
    },
    {
      "place_id": "ChIJ534PvqD8zDsRQl4EGz4-XXI",
      "name": "Bharat Petroleum, Petrol Pump -Sunrise Quality Fuel Point",
      "address": "Bypass Road, Sircilla",
      "lat": 18.3826688,
      "lng": 78.8199044,
      "open_now": null
    },
    {
      "place_id": "ChIJGcW8b0r9zDsRtUMqyiyTOJE",
      "name": "IndianOil",
      "address": "Sy No 517 & 518, Siddipet Road, Vidyanagar, Karimnagar",
      "lat": 18.3826657,
      "lng": 78.8199121,
      "open_now": true
    },
    {
      "place_id": "ChIJ6x6uUpb8zDsRcW0bR3628Hw",
      "name": "Hindustan Petroleum Corporation Limited",
      "address": "Survey No 1559, Karimnagar Road, Sircilla",
      "lat": 18.3954198,
      "lng": 78.81317609999999,
      "open_now": true
    },
    {
      "place_id": "ChIJBVidZ5f8zDsRGuwOe17eJz0",
      "name": "Sri Venkateswara Filling Station Indian Oil Petrol Pump",
      "address": "11, Vemulawada-Karimnagar Road, Padma Nagar, Shanti Nagar, Karimnagar",
      "lat": 18.3963304,
      "lng": 78.8138111,
      "open_now": true
    },
    {
      "place_id": "ChIJe6bUnGr5zDsR18DreajgWso",
      "name": "Hindustan Petroleum Corporation Limited",
      "address": "Survey No 979, Venkatapur Road, Yellareddypet, Karimnagar",
      "lat": 18.366715,
      "lng": 78.728972,
      "open_now": true
    },
    {
      "place_id": "ChIJvZEHcfL8zDsRGSeQN6M6jRM",
      "name": "Hindustan Petroleum Corporation Limited",
      "address": "Survey No 993, B & 999/C, Karimnagar - Sircilla Road, Chandrampet",
      "lat": 18.4078679,
      "lng": 78.8037549,
      "open_now": true
    },
    {
      "place_id": "ChIJpZIRcsj9zDsRT44-CURPQZ4",
      "name": "Hindustan Petroleum Corporation Limited",
      "address": "Survey No 1522 Ragudu, Sircilla Road, Karimnagar",
      "lat": 18.402158,
      "lng": 78.817973,
      "open_now": true
    },
    {
      "place_id": "ChIJlYA3vOb9zDsRJXEbl_IVqK0",
      "name": "Madhu Filling Station",
      "address": "512/H , Main Road Kolanur, Sircilla",
      "lat": 18.4247636,
      "lng": 78.7675185,
      "open_now": true
    },
    {
      "place_id": "ChIJ32UmxRn5zDsRgrWiG0TMjuk",
      "name": "Nayara petroleum bunk",
      "address": "Kamareddy - Sircilla Road, Venkatapur",
      "lat": 18.3703435,
      "lng": 78.7125373,
      "open_now": true
    },
    {
      "place_id": "ChIJxQS4sQf9zDsRtAGsMtW8wds",
      "name": "IndianOil",
      "address": "Sy No 1148, Bypass Road, Ragudu, Sircilla Rural",
      "lat": 18.4165658,
      "lng": 78.8247748,
      "open_now": true
    },
    {
      "place_id": "ChIJCScwK9v8zDsRF5kZfKZjKSY",
      "name": "NAYARA Petrol Pump",
      "address": "CR8G+89F, Ragudu, Sircilla Rural",
      "lat": 18.4158062,
      "lng": 78.82593640000002,
      "open_now": true
    },
    {
      "place_id": "ChIJczS8BgD9zDsRJW7Crk_mdDE",
      "name": "Sree Sai Ram filling station",
      "address": "9RR6+F24, Siricila to",
      "lat": 18.391126,
      "lng": 78.8100899,
      "open_now": null
    },
    {
      "place_id": "ChIJ1e-q1JvlzDsRrH_x5J8sC5U",
      "name": "Bharath Petroleum",
      "address": "Unnamed Road, Obulapuram",
      "lat": 18.3644451,
      "lng": 78.9131665,
      "open_now": null
    },
    {
      "place_id": "ChIJezKc7DX9zDsRzHZ4uSKikqU",
      "name": "BHARAT PETROLEUM RETAIL OUTLET PETROL PUMP",
      "address": "SH 11, Thettikuntta Village, Agraharam",
      "lat": 18.43264289999999,
      "lng": 78.834908,
      "open_now": true
    },
    {
      "place_id": "ChIJ_2wu4vv9zDsRDoeSuQ1uD-I",
      "name": "MUSHIKAM RANJEETH KUMAR",
      "address": "BHARAT PETROLEUM RETAIL OUTLET PETROL PUMP, SH 11, Thettikunta Village, Agraharam",
      "lat": 18.4329415,
      "lng": 78.83482020000001,
      "open_now": true
    },
    {
      "place_id": "ChIJVfeZpCHmzDsRbNuZW0vxcjc",
      "name": "Hindustan Petroleum Corporation Limited",
      "address": "Ground Floor, Ellantakunta",
      "lat": 18.2997481,
      "lng": 78.9535475,
      "open_now": true
    },
    {
      "place_id": "ChIJYxpCYwDnzDsRBBRBz9vYsTI",
      "name": "BHARATH PETROL",
      "address": "8W6X+96J, Ellantakunta",
      "lat": 18.3104408,
      "lng": 78.9492556,
      "open_now": null
    },
    {
      "place_id": "ChIJA2fNmETnzDsRo9cpTQGTf4U",
      "name": "Bharat Petroleum Petrol Pump",
      "address": "8X74+77X, Kalvakunta - Kazipur Road, Ellantakunta",
      "lat": 18.313228,
      "lng": 78.955749,
      "open_now": true
    },
    {
      "place_id": "ChIJjdmwXfvhzDsRkeCoWdGHYwQ",
      "name": "S R Filling Station",
      "address": "Venkatraopally To, Road, Manwada",
      "lat": 18.4044892,
      "lng": 78.97158999999999,
      "open_now": true
    },
    {
      "place_id": "ChIJb_h6Kp79zDsRlx25I7ngnjg",
      "name": "IndianOil",
      "address": "No 198B/A, Suddala",
      "lat": 18.4637557,
      "lng": 78.8043613,
      "open_now": true
    },
    {
      "place_id": "ChIJ86ATV-_jzDsR1hQgL5uAYYs",
      "name": "IndianOil",
      "address": "Survey No 438, L No D1/192/C/5/1 Nampally, Vemulawada, Sthambhampalle",
      "lat": 18.442201,
      "lng": 78.843301,
      "open_now": true
    },
    {
      "place_id": "ChIJV462FQD_zDsRAkYnvjpMzFM",
      "name": "Petrol Filling station Bharath",
      "address": "FP9H+937, Nizamabad",
      "lat": 18.46842029999999,
      "lng": 78.7276639,
      "open_now": null
    },
    {
      "place_id": "ChIJDyyi3ZPizDsR0gzQV9QRvLg",
      "name": "IndianOil",
      "address": "Lock No 102/D1 & F/3/3, Tippapoor, Sthambhampalle",
      "lat": 18.4597979,
      "lng": 78.86798639999999,
      "open_now": true
    },
    {
      "place_id": "ChIJP-K0n1sdzTsRs_Ub7qx_Edo",
      "name": "Hindustan Petroleum Corporation Limited",
      "address": "Survey No 1773, Korutla Road, Kanaipalle, Vemulawada",
      "lat": 18.4858367,
      "lng": 78.8540053,
      "open_now": true
    },
    {
      "place_id": "ChIJn6AgiPvjzDsRN7-pC0hQSLg",
      "name": "Bharat Petroleum, Petrol Pump -Sri Kedareshwara Service Station",
      "address": "Rd, Vemulawada",
      "lat": 18.4562434,
      "lng": 78.8689917,
      "open_now": true
    },
    {
      "place_id": "ChIJkUaOymPjzDsR0fjwZpg_JuU",
      "name": "HP petrol pump",
      "address": "State Highway 11, Vemulawada",
      "lat": 18.4410013,
      "lng": 78.8833399,
      "open_now": true
    },
    {
      "place_id": "ChIJG5YvJK3jzDsRErstZgDgWgs",
      "name": "Hindustan Petroleum Corporation Limited",
      "address": "Survey No 1343/1, SS Road, Vemulawada",
      "lat": 18.4629612,
      "lng": 78.86979819999999,
      "open_now": true
    },
    {
      "place_id": "ChIJRQHNog3jzDsR2bMlYKGn41M",
      "name": "LAXMI SAI FUEL STATION",
      "address": "Syno 1413,1415 2nd bypass , Vemulawada Rajanna, Sircilla",
      "lat": 18.4720282,
      "lng": 78.8568992,
      "open_now": true
    },
    {
      "place_id": "ChIJdSF8BSPjzDsRTII0hRUMsoE",
      "name": "SRR GTM Filling Station",
      "address": "1-12, Vemulawada",
      "lat": 18.47447,
      "lng": 78.8596249,
      "open_now": null
    },
    {
      "place_id": "ChIJVbBlv8vjzDsRDfDX-kofH5k",
      "name": "IndianOil",
      "address": "Sy No 1787 & 88, Lock No 108/9, D1 & E/2, Korutla Road, Sthambhampalle",
      "lat": 18.476407,
      "lng": 78.858817,
      "open_now": true
    },
    {
      "place_id": "ChIJ2yoALoLizDsRF7w98yaIWqo",
      "name": "IndianOil",
      "address": "Lock No 182/D1, D/3/1, Vemulwada, Sthambhampalle",
      "lat": 18.475969,
      "lng": 78.87708130000001,
      "open_now": true
    },
    {
      "place_id": "ChIJtXpM-oEdzTsRkp0NpI2zB_g",
      "name": "SRR GTM FILLING STATION",
      "address": "3-67, korutla Road, Vemulawada",
      "lat": 18.4857611,
      "lng": 78.8541995,
      "open_now": null
    },
    {
      "place_id": "ChIJUUtpTzAdzTsRPu7JErWVzIs",
      "name": "ANNAPOORNA FILLING STATION",
      "address": "Sarv No136, Korutla Road, Vemulawada",
      "lat": 18.4857452,
      "lng": 78.85448339999999,
      "open_now": null
    },
    {
      "place_id": "ChIJ8RSoL3wdzTsRR9AqBEEA8-4",
      "name": "NAYARA PETROL PUMP",
      "address": "Vemulawada - Vattemula, Kondagattu - Jagtiyal Road, Vemulawada",
      "lat": 18.4832535,
      "lng": 78.8775927,
      "open_now": true
    },
    {
      "place_id": "ChIJ1YkNaocdzTsR_dfQmiqwj9c",
      "name": "Mahalaxmi Filling Station",
      "address": "Vemulawada - Vattemula, Kondagattu - Jagtiyal Road, Vemulawada",
      "lat": 18.4836297,
      "lng": 78.8776299,
      "open_now": true
    },
    {
      "place_id": "ChIJRekaWvjgzDsRMGWfpeEfgUY",
      "name": "Hindustan Petroleum Corporation Limited",
      "address": "Survey No 23, A & 23/B SH 10, Gangadhara, Oddyaram, Karimnagar",
      "lat": 18.4358668,
      "lng": 78.9829639,
      "open_now": true
    },
    {
      "place_id": "ChIJgdKeBWLhzDsRH8MbdrQ76ps",
      "name": "Seetha rama fuels",
      "address": "to, Karimnagar - Sircilla Road, Ellantakunta",
      "lat": 18.4361474,
      "lng": 78.933505,
      "open_now": null
    },
    {
      "place_id": "ChIJO_RdXzDmzDsR54r-gdNKEvM",
      "name": "IndianOil",
      "address": "Survey No 82, B Hanumajipet, Vardavelli",
      "lat": 18.4379766,
      "lng": 78.94155359999999,
      "open_now": true
    },
    {
      "place_id": "ChIJAQDBGJ3hzDsRSWYYBCDFmL0",
      "name": "IndianOil",
      "address": "D1D, No 110, Kodurupaka",
      "lat": 18.4379562,
      "lng": 78.9416846,
      "open_now": true
    },
    {
      "place_id": "ChIJbb_2jY8DzTsR9MaAZgr5JB0",
      "name": "IndianOil",
      "address": "Lock No D1/258, A/3/4, Marrigadda",
      "lat": 18.5566248,
      "lng": 78.7808107,
      "open_now": true
    },
    {
      "place_id": "ChIJ3d6FkR8DzTsRC6X2iCmVD4E",
      "name": "Hindustan Petroleum Corporation Limited",
      "address": "Survey No 300, D Vemulawada, Hanmajipet",
      "lat": 18.506109,
      "lng": 78.804501,
      "open_now": true
    },
    {
      "place_id": "ChIJufBm7KADzTsRP-W7_3BW4j8",
      "name": "Vasundhara Filling Station ( ESSAR ), Petrol Pump",
      "address": "Hanumajipet, Mallaram, Sirikonda Road, Vemulawada",
      "lat": 18.5033823,
      "lng": 78.8076031,
      "open_now": true
    },
    {
      "place_id": "ChIJPQ_zDQADzTsRHirH_VMEf5k",
      "name": "PACS CHANDURTHI FILLING STATION",
      "address": "GRH6+PJQ, Mallaram",
      "lat": 18.52934219999999,
      "lng": 78.8116053,
      "open_now": null
    },
    {
      "place_id": "ChIJ7dW5VLMBzTsR1cxtjeFR0Nc",
      "name": "Laxmi filling station",
      "address": "GP3M+949, Bavusaipeta",
      "lat": 18.5034091,
      "lng": 78.73285299999999,
      "open_now": true
    },
    {
      "place_id": "ChIJAW2yLwEBzTsRuLBrM9_ma0I",
      "name": "Hindustan Petroleum Corporation Limited",
      "address": "Survey No 397, D Konaraopet, Bavusaipeta",
      "lat": 18.5147756,
      "lng": 78.71944529999999,
      "open_now": true
    },
    {
      "place_id": "ChIJUS_huxgDzTsR6djqNjq10Uw",
      "name": "Hindustan Petroleum Corporation Limited",
      "address": "Survey No 506/A, Vemulawada Korutla Road, Chendurthi",
      "lat": 18.562823,
      "lng": 78.779491,
      "open_now": true
    },
    {
      "place_id": "ChIJLRI00JUFzTsRXxFtPMSBfN0",
      "name": "Bharat Petroleum Petrol Pump , UMA MAHESHWARA FILLING STATION",
      "address": "SY. NO.757 & 758VEMULAWADA ROAD",
      "lat": 18.571558,
      "lng": 78.77608,
      "open_now": true
    },
    {
      "place_id": "ChIJZQuDT1cczTsRD-SM06b3Hs0",
      "name": "Hindustan Petroleum Corporation Limited",
      "address": "Survey No 154, Kondagattu Vemulawada Road, Satrajupalle",
      "lat": 18.5367722,
      "lng": 78.8884925,
      "open_now": true
    },
    {
      "place_id": "ChIJz7-AgVcdzTsRZIqjDm8XOXU",
      "name": "Sri Raja Rajeshwara Filling station",
      "address": "Vattemula Road, Vattemula",
      "lat": 18.544703,
      "lng": 78.8942641,
      "open_now": null
    },
    {
      "place_id": "ChIJbUnqIgAdzTsRytGS-L_xCTw",
      "name": "Bharat petrol",
      "address": "HV2V+HFF, Vattemula",
      "lat": 18.5514885,
      "lng": 78.89360049999999,
      "open_now": true
    },
    {
      "place_id": "ChIJk0A0Kg8dzTsRx0BL2VxxWio",
      "name": "SRI RAJA RAJESHWARA FILLING STATION",
      "address": "2-67, Kondagottu Road, Vattemula",
      "lat": 18.5517355,
      "lng": 78.8933547,
      "open_now": null
    },
    {
      "place_id": "ChIJ7crAdekfzTsReEq9_o6LR6E",
      "name": "IndianOil",
      "address": "Sy No 577/C Boinpalli, Karimnagar",
      "lat": 18.509216,
      "lng": 78.932583,
      "open_now": true
    },
    {
      "place_id": "ChIJgXP86XEezTsRtgwa3pyiMyk",
      "name": "Hindustan Petroleum Corporation Limited",
      "address": "Survey No 284, 288/1 288/A1 & 288/A, Boinpalli",
      "lat": 18.506383,
      "lng": 78.93886499999999,
      "open_now": true
    },
    {
      "place_id": "ChIJS5WAxoLTMjoR-e7BZ9ODOrc",
      "name": "IndianOil",
      "address": "Ground Floor Peddapalli, near Bus Stand, Karimnagar",
      "lat": 18.507539,
      "lng": 78.97629239999999,
      "open_now": true
    },
    {
      "place_id": "ChIJ-35keT8fzTsRPHWPIoe4C4g",
      "name": "IndianOil",
      "address": "Sy No 574/G, Garsekurthi",
      "lat": 18.5008754,
      "lng": 78.9831014,
      "open_now": true
    }
  ]
}