{
  "city": "Nizamabad",
  "state": "Telangana",
  "count": 113,
  "center": {
    "lat": 18.67,
    "lng": 78.09
  },
  "pumps": [
    {
      "place_id": "ChIJHWySIGHazTsRMSwmYsitgjs",
      "name": "Bharat Petrol",
      "address": "J3P6+85Q, Nizamabad",
      "lat": 18.6358482,
      "lng": 78.0604785,
      "open_now": true
    },
    {
      "place_id": "ChIJsyMY0MHXzTsR0RqhKtuj8Lw",
      "name": "Muthakunta (Alisager) Cross Road",
      "address": "JX6R+5JG, Muthakunta",
      "lat": 18.6104385,
      "lng": 77.9915779,
      "open_now": null
    },
    {
      "place_id": "ChIJEw5oBADXzTsRvIAEUG3cDSA",
      "name": "Bharat Petrol Pump,(Sagar Filling Station)",
      "address": "JX6Q+23J, Varni - Nizamabad Road, Mosra",
      "lat": 18.6103873,
      "lng": 77.9884263,
      "open_now": true
    },
    {
      "place_id": "ChIJ4RWR5DzXzTsRceU7tZcUbQE",
      "name": "Hindustan Petroleum Corporation Limited",
      "address": "Survey No 863/1 Nizamabad Varni Road, Varni, Mosra",
      "lat": 18.6101525,
      "lng": 77.9878583,
      "open_now": true
    },
    {
      "place_id": "ChIJ89mIlHrZzTsRm-_2SWvrNpY",
      "name": "IndianOil",
      "address": "SY No 870/3, Mosra",
      "lat": 18.6130509,
      "lng": 77.98374059999999,
      "open_now": true
    },
    {
      "place_id": "ChIJozQVfPbbzTsRziJTy7Z8sU4",
      "name": "Hindustan Petroleum Corporation Limited",
      "address": "550, A550, Sy No 551, Varni - Nizamabad Road, Varni, Nizamabad",
      "lat": 18.637084,
      "lng": 78.0617395,
      "open_now": true
    },
    {
      "place_id": "ChIJ18CoVWvXzTsRV9uF4RtX3n0",
      "name": "Hindustan Petroleum Corporation Limited",
      "address": "Survey No 133, 1/A, Varni - Nizamabad Road, Chandur",
      "lat": 18.58373599999999,
      "lng": 77.951825,
      "open_now": true
    },
    {
      "place_id": "ChIJy9-XSN_azTsRFRhgAxlqjQU",
      "name": "IndianOil",
      "address": "M, No 10/14/1343/1234, Nagaram Road, Gajulpet, Shivaji Nagar, Nizamabad",
      "lat": 18.6631251,
      "lng": 78.0929012,
      "open_now": true
    },
    {
      "place_id": "ChIJzcHcrSTFzTsRxgFqL1dEKK0",
      "name": "IndianOil",
      "address": "Ground Floor, Borgaon (Kalan)",
      "lat": 18.6550161,
      "lng": 78.1271952,
      "open_now": true
    },
    {
      "place_id": "ChIJAW6zaw3PzTsRqPMcmYt1hms",
      "name": "IndianOil",
      "address": "Survey No 253, Mudakpally (Narsingpally)",
      "lat": 18.574001,
      "lng": 78.11430299999999,
      "open_now": true
    },
    {
      "place_id": "ChIJHbWbQvrPzTsRpbir8CJ35jY",
      "name": "Hindustan Petroleum Corporation Limited",
      "address": "Survey No 306/P1 Shivar, Mugpal",
      "lat": 18.6215833,
      "lng": 78.1222574,
      "open_now": true
    },
    {
      "place_id": "ChIJN3vfhhfFzTsRMX11z76ASMA",
      "name": "IndianOil",
      "address": "Ground Floor Mugpal, Gajulpet, Nizamabad",
      "lat": 18.622024,
      "lng": 78.122271,
      "open_now": true
    },
    {
      "place_id": "ChIJVUoTZuDbzTsRrqEwipduMrc",
      "name": "IndianOil",
      "address": "Survey No 1881 & 1882, Woddara Colony, Kanteshwar, Nizamabad",
      "lat": 18.6495709,
      "lng": 78.07739819999999,
      "open_now": true
    },
    {
      "place_id": "ChIJ9b0JOuTazTsRoiKsP1wK6u8",
      "name": "Hindustan Petroleum Corporation Limited",
      "address": "Survey No 1841, 1842 1849 & 1851, Nagaram Road, Nizamabad",
      "lat": 18.65542,
      "lng": 78.0813,
      "open_now": true
    },
    {
      "place_id": "ChIJyUkvWQDbzTsREO255xzazFY",
      "name": "Sri Raghavendra filling station",
      "address": "M34J+5GF, Indrapur Colony, Anand Nagar, Nizamabad",
      "lat": 18.6554379,
      "lng": 78.0813058,
      "open_now": null
    },
    {
      "place_id": "ChIJISt7_xnbzTsRRHvC7-KsttY",
      "name": "Sree Venkateshwara Auto Fuels",
      "address": "M34M+JRJ, 0.5 Kms. from Varni Chowrasta on RHS towards Nagaram, 10-9-469, Sai Nagar Road Number 2, Indrapur Colony, Anand Nagar, Nizamabad",
      "lat": 18.6583419,
      "lng": 78.0823566,
      "open_now": true
    },
    {
      "place_id": "ChIJp0mfjEHPzTsRvj-bSm4pDnk",
      "name": "Hindustan Petroleum Corporation Limited",
      "address": "Survey No 38, Mugpal, Manchippa",
      "lat": 18.5450636,
      "lng": 78.1126274,
      "open_now": true
    },
    {
      "place_id": "ChIJp0zGTorFzTsRxq__E-90BjA",
      "name": "Nehal pathology Lab",
      "address": "India",
      "lat": 18.6572796,
      "lng": 78.1173826,
      "open_now": null
    },
    {
      "place_id": "ChIJy_T0zpvFzTsRj46nd4GXeb4",
      "name": "Sri Laxmi Narasimha Filling Station",
      "address": "Flat No. 6, beside Nexa Show Room, 9/1, Hyderabad Road, Nizamabad",
      "lat": 18.6550738,
      "lng": 78.12680519999999,
      "open_now": true
    },
    {
      "place_id": "ChIJfxhdzi7FzTsRokEvubHYaik",
      "name": "Hindustan Petroleum Corporation Limited",
      "address": "Ground Floor, Hyderabad Road, Borgaon, Pangra",
      "lat": 18.6596281,
      "lng": 78.1185459,
      "open_now": true
    },
    {
      "place_id": "ChIJMbdZDwrFzTsRF-SrH59c-ac",
      "name": "BPCL M/s Sri Goamukhi Filling Station /cng pump",
      "address": "M44G+7P8, opposite to NexaShowroom, HYD Main Road, Nizamabad",
      "lat": 18.655651,
      "lng": 78.1268209,
      "open_now": true
    },
    {
      "place_id": "ChIJzyBnIT3FzTsR6r2gpySfKGU",
      "name": "Indian Auto Gas Filling Station",
      "address": "M43J+C97, Madhavanagar, Nizamabad",
      "lat": 18.6535252,
      "lng": 78.13092,
      "open_now": true
    },
    {
      "place_id": "ChIJIwMGOdXazTsRHF37dcU2-sw",
      "name": "Hindustan Petroleum Corporation Limited",
      "address": "Survey No 329/A, Vinayak Nagar Street, Nizamabad",
      "lat": 18.6637543,
      "lng": 78.10981210000001,
      "open_now": true
    },
    {
      "place_id": "ChIJjSC-XsXbzTsRlQ5G5qZTbK4",
      "name": "IndianOil",
      "address": "Survey No 9, 8/209 & 9/8/210, Quila Road, Gajulpet, Nizamabad",
      "lat": 18.6669501,
      "lng": 78.0861201,
      "open_now": true
    },
    {
      "place_id": "ChIJ4TOmcADbzTsRx6QQIEpJGwc",
      "name": "SREEDA FILLING STATION",
      "address": "1-12-18/A, Vinayak Nagar, Pragathi Nagar, Nizamabad",
      "lat": 18.6653768,
      "lng": 78.1066661,
      "open_now": true
    },
    {
      "place_id": "ChIJVRs2kufbzTsRPT7bve_URus",
      "name": "Bharath gas godown",
      "address": "M485+CV3, Sircilla - Nimmapalli - Sirikonda - Nizamabad Road, Vinayak Nagar, Nizamabad",
      "lat": 18.6658349,
      "lng": 78.1098633,
      "open_now": null
    },
    {
      "place_id": "ChIJC1HkCSnbzTsRaNCdnpD211w",
      "name": "IndianOil",
      "address": "Ground Floor, Pulong Chowrasta,Gajulpet, Nizamabad",
      "lat": 18.6678201,
      "lng": 78.10327199999999,
      "open_now": true
    },
    {
      "place_id": "ChIJp1EHwsbFzTsRrTbXKkuKuvE",
      "name": "IndianOil",
      "address": "Survey No 270, beside Hotel Junction 65, Baswagarden Road, Vinayak Nagar Street, Nizamabad",
      "lat": 18.666972,
      "lng": 78.11336399999999,
      "open_now": true
    },
    {
      "place_id": "ChIJ9ZBIJvbFzTsRT-aRP7i-Nk0",
      "name": "IndianOil",
      "address": "Sy No 430, Chakarnpalli, A & 431/Aa, Nizamabad",
      "lat": 18.623718,
      "lng": 78.187086,
      "open_now": true
    },
    {
      "place_id": "ChIJGxqwEsTIzTsRS1_8u62RBHo",
      "name": "IndianOil - 7th BATTALION FILLING STATION",
      "address": "Dichpally",
      "lat": 18.5948384,
      "lng": 78.2186018,
      "open_now": true
    },
    {
      "place_id": "ChIJ5T4G56XFzTsRqZwMDQ5bBJc",
      "name": "IndianOil",
      "address": "Door No 4/105/6 Survey No 111, Dharmaram B, Bardipur",
      "lat": 18.6557621,
      "lng": 78.165322,
      "open_now": true
    },
    {
      "place_id": "ChIJmYqmdd3IzTsRYASTrcHhaDg",
      "name": "SARANG AUTOLINES BPCL BHARAT",
      "address": "BPCL PETROL PUMP, SURVEY NO. 449E DICHPALLI, Nizamabad",
      "lat": 18.587881,
      "lng": 78.22359999999999,
      "open_now": true
    },
    {
      "place_id": "ChIJP-a0e9nFzTsRifu-1txZKY0",
      "name": "RAGAVA Enterprises Bharat Petroleum & CNG",
      "address": "Nadipalli, Nadepalle",
      "lat": 18.6246909,
      "lng": 78.1870275,
      "open_now": true
    },
    {
      "place_id": "ChIJEe0DwL7FzTsRJaQTnLkRD9w",
      "name": "KABS AUTOLINES HPCL",
      "address": "Dichpally",
      "lat": 18.63591659999999,
      "lng": 78.1775729,
      "open_now": true
    },
    {
      "place_id": "ChIJNb8gHIPFzTsRV7LOxTFym3c",
      "name": "Hindustan Petroleum Corporation Limited",
      "address": "Survey No 741/2, 741/5, Dichpally - Nizamabad Road, Bardipur",
      "lat": 18.6362076,
      "lng": 78.17703,
      "open_now": true
    },
    {
      "place_id": "ChIJa6hf6bLIzTsRsX-YTcj1KbU",
      "name": "IndianOil",
      "address": "APSP Camp, Sy No 235 Nadipally, Dichpally, Nizamabad",
      "lat": 18.6110833,
      "lng": 78.2039444,
      "open_now": true
    },
    {
      "place_id": "ChIJ2XGf-wjFzTsRTQorfm4xmgM",
      "name": "Hindustan Petroleum Corporation Limited",
      "address": "Survey No 1367/2, Dichpally - Nizamabad Road, Bardipur",
      "lat": 18.6536225,
      "lng": 78.15248790000001,
      "open_now": true
    },
    {
      "place_id": "ChIJsfVfdJnFzTsREBhGPOa2KAQ",
      "name": "BRAHMA FILLING STATION",
      "address": "Nizamabad - Dichpally - opp:Eenadu, off, Hyderabad Road, Nizamabad",
      "lat": 18.6536968,
      "lng": 78.1494641,
      "open_now": true
    },
    {
      "place_id": "ChIJwZl42_XFzTsREbvsdbj9cvM",
      "name": "IndianOil",
      "address": "Sy No 1363, Bardipur",
      "lat": 18.6536966,
      "lng": 78.1490736,
      "open_now": true
    },
    {
      "place_id": "ChIJuVv45qXFzTsRkEukjw1QvO0",
      "name": "Indian Oil",
      "address": "India",
      "lat": 18.6557055,
      "lng": 78.1626706,
      "open_now": null
    },
    {
      "place_id": "ChIJd5CtgQbGzTsR6jzoTvxtd_k",
      "name": "IndianOil",
      "address": "Survey No 652/A, Suddapalli",
      "lat": 18.633186,
      "lng": 78.207645,
      "open_now": true
    },
    {
      "place_id": "ChIJ5xZGWMPIzTsRWbACEmAuOrs",
      "name": "Hindustan Petroleum Corporation Limited",
      "address": "Survey No 452, NH 7, hoi, Dichpally",
      "lat": 18.5912821,
      "lng": 78.2202623,
      "open_now": true
    },
    {
      "place_id": "ChIJ8Ryxi-DIzTsRE6GshgJGcsk",
      "name": "IndianOil - Jagat Pran Service Station",
      "address": "Sy no:- 187, NH :- 44, Bibipur",
      "lat": 18.5830677,
      "lng": 78.2248238,
      "open_now": true
    },
    {
      "place_id": "ChIJqffXzozbzTsREb1Vdq3xhNg",
      "name": "Hindustan Petroleum Corporation Limited",
      "address": "Survey No, 158 to 160, Sarangapur, Nizamabad",
      "lat": 18.7000293,
      "lng": 78.0429025,
      "open_now": true
    },
    {
      "place_id": "ChIJExs5iZ_dzTsR9TdE_icUJcg",
      "name": "IndianOil",
      "address": "S No 17 & 156, Ananthagiri",
      "lat": 18.707571,
      "lng": 78.025854,
      "open_now": true
    },
    {
      "place_id": "ChIJlaZfnJDbzTsRspon0RiHaZY",
      "name": "Essar Petrol Pump",
      "address": "M3V3+5C2, Nizamabad",
      "lat": 18.6928792,
      "lng": 78.0535239,
      "open_now": null
    },
    {
      "place_id": "ChIJj9phvXTZzTsR7frWUjVexO0",
      "name": "Modern Filling Station",
      "address": "MXVM+6R8, Bodhan - Nizamabad Road, M S C Form",
      "lat": 18.69304499999999,
      "lng": 77.984591,
      "open_now": true
    },
    {
      "place_id": "ChIJtzGbsvDZzTsRTXTmU43vOAY",
      "name": "IndianOil",
      "address": "Sy No 443, 1/B, Edapalli, Jamlam",
      "lat": 18.6933913,
      "lng": 77.9845046,
      "open_now": true
    },
    {
      "place_id": "ChIJ6TL_v5_bzTsRMjq8Rq1Ps3c",
      "name": "IndianOil",
      "address": "S No 202, Arsapalli, Ananthagiri",
      "lat": 18.687108,
      "lng": 78.063675,
      "open_now": true
    },
    {
      "place_id": "ChIJw4FAXrvbzTsRcMuuqbOD354",
      "name": "Go Gas station (Car LPG)",
      "address": "M3P8+M37, National Highway 63, District Jail, Sarangapur, Nizamabad",
      "lat": 18.6866626,
      "lng": 78.0651707,
      "open_now": true
    },
    {
      "place_id": "ChIJIUpjVHDbzTsRCqG9rnIqLXY",
      "name": "Hindustan Petroleum Corporation Limited",
      "address": "Survey No 915, Jannepally Road, Nizamabad",
      "lat": 18.6982501,
      "lng": 78.065544,
      "open_now": true
    },
    {
      "place_id": "ChIJJZTxRsvbzTsRp1eDpU1bTMc",
      "name": "Bharat Petroleum, Petrol Pump -Baba Fuel Pump",
      "address": "Bodhan Road, Auto Nagar, Arsapally, Nizamabad",
      "lat": 18.6789015,
      "lng": 78.0776017,
      "open_now": true
    },
    {
      "place_id": "ChIJwdcoIwDbzTsRE6-gFKiXZ2k",
      "name": "SIRI LAKSHMI FILLING STATION",
      "address": "P32C+V22, Jannepally Road, Nizamabad",
      "lat": 18.7021329,
      "lng": 78.0700134,
      "open_now": true
    },
    {
      "place_id": "ChIJgSCqnOHbzTsRUt1cRLpXrH4",
      "name": "BPCL Anikesh Laxmi Mohana Filling Station",
      "address": "Khanapur, Nizamabad",
      "lat": 18.6882836,
      "lng": 78.0778038,
      "open_now": true
    },
    {
      "place_id": "ChIJ98gMWqrbzTsRSqu1okDaQl0",
      "name": "Reliance Fuel Station",
      "address": "opp. Reliance Petrol Pump Fruits Markers, 2-2A, Mujahed Nagar, Nizamabad",
      "lat": 18.6767909,
      "lng": 78.0807346,
      "open_now": true
    },
    {
      "place_id": "ChIJlavLtzjbzTsRiv9mlQ48P8Q",
      "name": "IndianOil",
      "address": "Ground Floor, Bodhan Road, Nizamabad",
      "lat": 18.6768439,
      "lng": 78.0811561,
      "open_now": true
    },
    {
      "place_id": "ChIJz2OYWxfbzTsRTWCeJ3TUMNE",
      "name": "IndianOil",
      "address": "Ground Floor, Bodhan - Nizamabad Road, Malapally, Gajulpet, Nizamabad",
      "lat": 18.6757069,
      "lng": 78.0833313,
      "open_now": true
    },
    {
      "place_id": "ChIJoUw4ZLPZzTsRTdq4xM67wgk",
      "name": "Ms salik",
      "address": "MXR6+Q7, Brahammanpalle",
      "lat": 18.6919857,
      "lng": 77.96073679999999,
      "open_now": false
    },
    {
      "place_id": "ChIJy4DhSVTbzTsRjmdvruoQx1w",
      "name": "IndianOil",
      "address": "Ground Floor, Bodhan - Nizamabad Road, Gajulpet, Nizamabad",
      "lat": 18.675762,
      "lng": 78.084507,
      "open_now": true
    },
    {
      "place_id": "ChIJud7e9DLZzTsREfi0inn3Vmw",
      "name": "Hindustan Petroleum Corporation Limited",
      "address": "No 655A, A656, National Highway 63, Yedapally",
      "lat": 18.676855,
      "lng": 77.955575,
      "open_now": true
    },
    {
      "place_id": "ChIJGwIARh7bzTsRjthrjiXiS1A",
      "name": "Hindustan Petroleum Corporation Limited",
      "address": "Survey No 65, Karimnagar - Nizamabad Road, Shivar, Arsapally, Nizamabad",
      "lat": 18.6880876,
      "lng": 78.0821563,
      "open_now": true
    },
    {
      "place_id": "ChIJY9cXSADZzTsR9xI2cJKjBI0",
      "name": "IndianOil",
      "address": "SY No 565/4, Yedapally",
      "lat": 18.7025701,
      "lng": 77.9630801,
      "open_now": true
    },
    {
      "place_id": "ChIJjZ-NJwDZzTsRxQZKN_Jn0kE",
      "name": "Telangana police welfare society filling station,Yedapally",
      "address": "MXG4+P3J, Bodhan - Nizamabad Road, Nayaabad, Yedapally",
      "lat": 18.6768886,
      "lng": 77.9537113,
      "open_now": null
    },
    {
      "place_id": "ChIJnwW4RP_bzTsR57NLNubzH5Y",
      "name": "IndianOil",
      "address": "Sy 107/2, Ptadwai, Nizamabad",
      "lat": 18.6884649,
      "lng": 78.0838067,
      "open_now": true
    },
    {
      "place_id": "ChIJQePwawDfzTsRp40ygbSXxI8",
      "name": "Indian oil",
      "address": "PXGP+CM4, Dupalle",
      "lat": 18.7260074,
      "lng": 77.9867127,
      "open_now": null
    },
    {
      "place_id": "ChIJCeoyTjHbzTsRqzPwmxa_JGw",
      "name": "Sri Vijaya Narsimha Filling Station",
      "address": "H No 2, 68 Near Gunj, opp. Gunj Kamana Road, near Gunj, Nizamabad",
      "lat": 18.6749824,
      "lng": 78.095261,
      "open_now": null
    },
    {
      "place_id": "ChIJAQAw0KTEzTsRYUIyiZfhnek",
      "name": "SHAM AUTOLINES BHARAT PETROL PUMP",
      "address": "National Highway 63, Mubaraknagar, Nizamabad",
      "lat": 18.7019423,
      "lng": 78.1260692,
      "open_now": true
    },
    {
      "place_id": "ChIJHS9jpyXbzTsRcWQqY8Y7RdI",
      "name": "B SAYA REDDY BPCL Bharat Petroleum Gas Station",
      "address": "M3FX+72R, beside Sayareddy Petrol Pump, RP Road, Khaleelwadi, Nizamabad",
      "lat": 18.6732336,
      "lng": 78.0975071,
      "open_now": true
    },
    {
      "place_id": "ChIJzW0j2I3bzTsR543UPpGErzA",
      "name": "P. LAXMIKANTHA RAO AND SONS",
      "address": "5-1-84, Weekly Bazar Road, Nizamabad",
      "lat": 18.67285399999999,
      "lng": 78.09780409999999,
      "open_now": null
    },
    {
      "place_id": "ChIJa-Qf8WHbzTsRSxXpsTbbGFE",
      "name": "Hindustan Petroleum Corporation Limited",
      "address": "D No 5, 1/124, Weekly Bazar Road, Nizamabad",
      "lat": 18.6728323,
      "lng": 78.0978286,
      "open_now": true
    },
    {
      "place_id": "ChIJ9a4X4xHbzTsRXb1c2KWenOw",
      "name": "Hindustan Petroleum Corporation Limited",
      "address": "1B, 1C, D No 6/15/1495/1A, Gurbabadi Road, Nizamabad",
      "lat": 18.6804536,
      "lng": 78.09608089999999,
      "open_now": true
    },
    {
      "place_id": "ChIJHdT23PnbzTsRy7a4ch1Nyl0",
      "name": "Bharat Petroleum, Petrol Pump -K.Narasinga Rao",
      "address": "NIZAMABAD NR. BUS STN, Nizamabad",
      "lat": 18.6769567,
      "lng": 78.10123899999999,
      "open_now": false
    },
    {
      "place_id": "ChIJ2XqGLMrbzTsRlpXArADNvoU",
      "name": "Prakash Filling Station(INDIAN OIL PETROLPUMP)",
      "address": "Gurbabadi Road, DUBBA, Nizamabad",
      "lat": 18.6859183,
      "lng": 78.0977612,
      "open_now": true
    },
    {
      "place_id": "ChIJ62AAEgDbzTsRT8HUypJT9rY",
      "name": "Indian oil -Police welfare Society Filling station",
      "address": "M4H5+GCV, Kumar Gali, Nizamabad",
      "lat": 18.678788,
      "lng": 78.10846699999999,
      "open_now": true
    },
    {
      "place_id": "ChIJt_8kFBHbzTsRADTIfhwCTv0",
      "name": "K.R Sons PETROL filling station(Bharat Petroleum) Company Outlet-Nizamabad",
      "address": "beside railway Kaman, near Railway Under Bridge, opposite lawyer Rajender house, Plot no. 5-8-1 and 5-8-2, Karimnagar - Nizamabad Road, Nizamabad",
      "lat": 18.6800649,
      "lng": 78.1091817,
      "open_now": true
    },
    {
      "place_id": "ChIJz1AJKUHbzTsRRZHAaMIJeT4",
      "name": "IndianOil",
      "address": "Ground Floor, Dubbak - Kanteshwar Road, Khanapur, Nizamabad",
      "lat": 18.690785,
      "lng": 78.0932973,
      "open_now": true
    },
    {
      "place_id": "ChIJO3_3qUzbzTsRvothLz5nHik",
      "name": "S K Fuel Station",
      "address": "Darga, 6-6-132, Near Hamalwadi, Subhash Nagar, Nizamabad",
      "lat": 18.6852564,
      "lng": 78.106595,
      "open_now": null
    },
    {
      "place_id": "ChIJWY3BLSTbzTsRZiutCZvDxNA",
      "name": "IndianOil",
      "address": "Survey No 234/2, Survey No 382, Gurubabadi,Gajulpet, near Dubbak - Kanteshwar Road, Old, Nizamabad",
      "lat": 18.68606,
      "lng": 78.10710399999999,
      "open_now": true
    },
    {
      "place_id": "ChIJfwPCmUbbzTsRaCql2bcwR5Y",
      "name": "Bharat Petroleum",
      "address": "India",
      "lat": 18.6929005,
      "lng": 78.09540840000001,
      "open_now": null
    },
    {
      "place_id": "ChIJmdRRyCPbzTsRNnDp_OTISPE",
      "name": "Hindustan Petroleum Corporation Limited",
      "address": "Cross Road, Survey No 276, Nizamabad Bypass, Khanapur, Nizamabad",
      "lat": 18.6939773,
      "lng": 78.0954277,
      "open_now": true
    },
    {
      "place_id": "ChIJCaKw1OnFzTsR0-sDK8aT-Ns",
      "name": "Mm Traders",
      "address": "Mm Traders, Byapass Road, Nizamabad",
      "lat": 18.69057159999999,
      "lng": 78.11791699999999,
      "open_now": null
    },
    {
      "place_id": "ChIJ5YFKHQDFzTsRNoHhFAaSbwU",
      "name": "Navodaya service station",
      "address": "M4Q9+MPQ, By-pass Road, Nizamabad",
      "lat": 18.6892228,
      "lng": 78.11935729999999,
      "open_now": null
    },
    {
      "place_id": "ChIJl4x4_5LFzTsRnOkZ2oUPOIY",
      "name": "Ratna Filling Station",
      "address": "Dubbak - Kanteshwar Road, Gopanpally, Nizamabad",
      "lat": 18.686265,
      "lng": 78.12246069999999,
      "open_now": null
    },
    {
      "place_id": "ChIJsxErs3fFzTsRsjAIUMbw0N4",
      "name": "Hindustan Petroleum Corporation Limited",
      "address": "Survey No 402A & 403A, Karimnagar - Nizamabad Road, Gopanpally, Nizamabad",
      "lat": 18.682066,
      "lng": 78.125541,
      "open_now": true
    },
    {
      "place_id": "ChIJkfiWOgDFzTsRNr2kvJ219DA",
      "name": "RAGAVA ENTERPRISES",
      "address": "M4JG+RFV, Bypass Road, Goopanpally, Kanteshwar, Hyderabad",
      "lat": 18.6821202,
      "lng": 78.12616480000001,
      "open_now": null
    },
    {
      "place_id": "ChIJc6JvsQTFzTsRHPlVWXEW8Lo",
      "name": "SMART FUEL STATION",
      "address": "Kanteshwar, Bypass Road, Goopanpally, Hyderabad",
      "lat": 18.6821202,
      "lng": 78.12616480000001,
      "open_now": true
    },
    {
      "place_id": "ChIJP-6B5LnEzTsRvBTYBhaZLhI",
      "name": "LPG Gas Station",
      "address": "M4VF+Q23, National Highway 16, Maruti Nagar, Nizamabad",
      "lat": 18.6943842,
      "lng": 78.1225377,
      "open_now": true
    },
    {
      "place_id": "ChIJZVLs9rnEzTsRj6R4tFNUiBY",
      "name": "IndianOil",
      "address": "Lock No 12018, Gajulpet, Nizamabad",
      "lat": 18.695199,
      "lng": 78.12311299999999,
      "open_now": true
    },
    {
      "place_id": "ChIJLZVLHbrEzTsRIccPStg17tQ",
      "name": "Hindustan Petroleum Corporation Limited",
      "address": "Survey No 294, NH 63, Armoor Road, Nizamabad",
      "lat": 18.6954292,
      "lng": 78.1229321,
      "open_now": true
    },
    {
      "place_id": "ChIJY-hT_zzFzTsRdQIu9fVAfas",
      "name": "Bhumanna Kisan Seva Kendra",
      "address": "3-60/3, Mubaraknagar, Nizamabad",
      "lat": 18.7057767,
      "lng": 78.1257413,
      "open_now": false
    },
    {
      "place_id": "ChIJF_f-grrFzTsRNmgtZ4wYE9E",
      "name": "IndianOil",
      "address": "Survey No 954/E, Makloor",
      "lat": 18.6980542,
      "lng": 78.1557649,
      "open_now": true
    },
    {
      "place_id": "ChIJ2RG9Oi7DzTsRoiBTa2CyKcE",
      "name": "Hindustan Petroleum Corporation Limited",
      "address": "Survey No 533/2, NH 63, Borgaon (Kalan)",
      "lat": 18.717857,
      "lng": 78.135504,
      "open_now": true
    },
    {
      "place_id": "ChIJezop42TDzTsRntz1vb628KQ",
      "name": "IndianOil",
      "address": "Ground Floor, Das Nagar, Makloor",
      "lat": 18.7227532,
      "lng": 78.1429445,
      "open_now": true
    },
    {
      "place_id": "ChIJDx2eKWzGzTsRBl0A9Jq44Yc",
      "name": "Hindustan Petroleum Corporation Limited",
      "address": "Survey No 567/Ru, Hyderabad Nagpur Road NH 44, Dichpalle, Mentrajpalle",
      "lat": 18.6539604,
      "lng": 78.2168724,
      "open_now": true
    },
    {
      "place_id": "ChIJ7wvIQTHDzTsRinJFLx2Vke0",
      "name": "Sanvy Fuels",
      "address": "S.no.4, Das Nagar, 5/22, maaklur Road, Nizamabad",
      "lat": 18.727507,
      "lng": 78.14044179999999,
      "open_now": true
    },
    {
      "place_id": "ChIJb2zU1gjHzTsRrCtd6Ribpu0",
      "name": "Hindustan Petroleum Corporation Limited",
      "address": "Survey No 282/A, Hyderabad Nagpur Road, NH 44, Jakranpally Secundrapur, Nizamabad",
      "lat": 18.6775783,
      "lng": 78.2339646,
      "open_now": true
    },
    {
      "place_id": "ChIJT4Ke-HnezTsR8bvVMQhl3fQ",
      "name": "IndianOil",
      "address": "Ground Floor, Navipet, Abhangapatnam",
      "lat": 18.7638127,
      "lng": 78.0138147,
      "open_now": true
    },
    {
      "place_id": "ChIJxZh_VADdzTsRWONn--2zhD0",
      "name": "Srilaxmi Srinivasa Filling Station",
      "address": "Main Road, Abhangapatnam",
      "lat": 18.7476772,
      "lng": 78.0273465,
      "open_now": true
    },
    {
      "place_id": "ChIJSUHzfFvfzTsR26vQHZztQ1c",
      "name": "Bharat Petroleum Petrol Pump , VIJAYA LAXMI FUEL STATION",
      "address": "SY NO 36/EE ,DARIYAPUR,NAVIPETSY NO 36/EE ,DARIYAPUR, Navipet",
      "lat": 18.765531,
      "lng": 78.01317600000002,
      "open_now": true
    },
    {
      "place_id": "ChIJKYXT5lTfzTsRXoM-rNvJnhg",
      "name": "Hindustan Petroleum Corporation Limited",
      "address": "Sy No 686, near TSRTC Bus Depot, Navipet",
      "lat": 18.7701631,
      "lng": 78.01523569999999,
      "open_now": true
    },
    {
      "place_id": "ChIJITXnNg_fzTsRo8cHfCMVrpU",
      "name": "Hindustan Petroleum Corporation Limited",
      "address": "Survey No 18/A, Nandipet Road, Navipet",
      "lat": 18.777045,
      "lng": 78.016239,
      "open_now": true
    },
    {
      "place_id": "ChIJm4lM2hPfzTsRFkz-3b2fXjc",
      "name": "SAROJINAMMA FILLING STATION",
      "address": "H.no.381, Fakeerabad Navipet Mandal, Nizamabad",
      "lat": 18.7772613,
      "lng": 78.0162465,
      "open_now": null
    },
    {
      "place_id": "ChIJtwHVrADfzTsRfcie9aCoClU",
      "name": "Hindustan Petroleum Corporation Limited",
      "address": "Survey No 837, AAP/1, Basara Road, Navipet",
      "lat": 18.7821148,
      "lng": 78.0123373,
      "open_now": true
    },
    {
      "place_id": "ChIJn8q2ahzfzTsRuikFWPPSf6k",
      "name": "Banjara's HP Petrol Pump",
      "address": "near Ayyapa Temple, Basara Road, Navipet",
      "lat": 18.7858867,
      "lng": 78.0097833,
      "open_now": true
    },
    {
      "place_id": "ChIJ3Z7aBSTfzTsR5fIJxD6U55E",
      "name": "Sai Krupa Filling Station",
      "address": "near Ayyapa Temple, Basara Road, Navipet",
      "lat": 18.7864134,
      "lng": 78.0095889,
      "open_now": true
    },
    {
      "place_id": "ChIJ1UpPEqvfzTsR-0JIV326t28",
      "name": "NAYARA ENERGY- MADHAVRAO VITHOBA PATIL PETROL PUMP",
      "address": "32/3, 34/A, Basara Road, Dharmabad",
      "lat": 18.788223,
      "lng": 78.00735689999999,
      "open_now": true
    },
    {
      "place_id": "ChIJxf7MmXrfzTsRxZER0GET2pE",
      "name": "IndianOil",
      "address": "H No 11, 1/1929, 1 Kanteshwar, Gangastan, Navipet",
      "lat": 18.7886086,
      "lng": 78.0072979,
      "open_now": true
    },
    {
      "place_id": "ChIJKchB6RzdzTsRdPRLJi5nGZU",
      "name": "IndianOil",
      "address": "Ground Floor, Kondoor, Nizamabad",
      "lat": 18.7452069,
      "lng": 78.083575,
      "open_now": true
    },
    {
      "place_id": "ChIJmaXOoBXDzTsRV0rH6ELmoik",
      "name": "S.K.A &SONS",
      "address": "Q427+2CP, Makloor",
      "lat": 18.7500987,
      "lng": 78.1135678,
      "open_now": null
    },
    {
      "place_id": "ChIJw7JLHTDDzTsRIhpoYK5KMU4",
      "name": "Bharat Petroleum",
      "address": "P4XC+4J2, maaklur Road, Makloor",
      "lat": 18.7477506,
      "lng": 78.1215063,
      "open_now": null
    },
    {
      "place_id": "ChIJl7K6ozrDzTsR0RHnrCghaQ8",
      "name": "Hindustan Petroleum Corporation Limited",
      "address": "Survey No 1120, Nandipet Road, Makloor",
      "lat": 18.74641609999999,
      "lng": 78.1227605,
      "open_now": true
    },
    {
      "place_id": "ChIJi8ANguvCzTsR9kC7dNu4mz4",
      "name": "IndianOil",
      "address": "Sy No 733/Aa, Kanteshwar, Nizamabad",
      "lat": 18.7809901,
      "lng": 78.13892799999999,
      "open_now": true
    },
    {
      "place_id": "ChIJU4WTWBXDzTsRf-Ifq3SlWTo",
      "name": "MYRA FUEL STATION",
      "address": "near Ambedhkar Statue, 3-48/3,kalladi, near Ambedhkar Statue, Alur",
      "lat": 18.7919933,
      "lng": 78.17781339999999,
      "open_now": null
    }
  ]
}