{
  "city": "Chamoli",
  "state": "Uttarakhand",
  "count": 6,
  "center": {
    "lat": 30.5833,
    "lng": 79.45
  },
  "pumps": [
    {
      "place_id": "ChIJ0YVd6YODpzkRAbcMtRbUbMg",
      "name": "IndianOil",
      "address": "Ground Floor Langsi, NH 58, Joshimath, Bemru",
      "lat": 30.4914199,
      "lng": 79.48149939999999,
      "open_now": true
    },
    {
      "place_id": "ChIJ5bcfHauBpzkRVDnEEVRZTIE",
      "name": "Bharat Petroleum Corporation Limited",
      "address": "Tangni Talli, Joshimath",
      "lat": 30.47828090000001,
      "lng": 79.4654042,
      "open_now": true
    },
    {
      "place_id": "ChIJ-7zbOkt_pzkRYOKXVxSeI44",
      "name": "BADRINATH ENERGY STATION",
      "address": "garud ganga, Pakhi",
      "lat": 30.463891,
      "lng": 79.4449448,
      "open_now": true
    },
    {
      "place_id": "ChIJKX7C8yKDpzkRrJvFqpZHB7I",
      "name": "Hindustan Petroleum Corporation Limited",
      "address": "Khasra No 1194, 1195, 1199 1200 & 1231, Joshimath, Paini",
      "lat": 30.528601,
      "lng": 79.525601,
      "open_now": true
    },
    {
      "place_id": "ChIJqxK0U6CDpzkRrcJgBUrNOzg",
      "name": "IndianOil",
      "address": "Ground Floor, NH 58, Badrinath Road, Joshimath",
      "lat": 30.5404963,
      "lng": 79.5279848,
      "open_now": true
    },
    {
      "place_id": "ChIJlWdKCbycpzkRhkIuPSTh87g",
      "name": "IndianOil",
      "address": "Ground Floor, Badrinath Road, Joshimath, Baragaon",
      "lat": 30.5524274,
      "lng": 79.5775359,
      "open_now": true
    }
  ]
}