{
  "city": "Dehradun",
  "state": "Uttarakhand",
  "count": 130,
  "center": {
    "lat": 30.3165,
    "lng": 78.0322
  },
  "pumps": [
    {
      "place_id": "ChIJ_YqLgecqCTkRptwFImDPf2k",
      "name": "IndianOil",
      "address": "Ground Floor, Shimla Bypass Road, Badowala",
      "lat": 30.3001453,
      "lng": 77.95139859999999,
      "open_now": true
    },
    {
      "place_id": "ChIJ6UAX_tYrCTkRItigaHXtB-k",
      "name": "IndianOil",
      "address": "Bypass Road, Brahmanwala, Dehradun",
      "lat": 30.28830099999999,
      "lng": 78.016151,
      "open_now": true
    },
    {
      "place_id": "ChIJQQTAMDEqCTkRuoRTYZhITy8",
      "name": "PREMIER MOTORS - HP PETROL PUMP",
      "address": "123 ,Shri, GMS Road, Chaman Vihar, Niranjanpur, Dehradun",
      "lat": 30.3034141,
      "lng": 78.00302049999999,
      "open_now": true
    },
    {
      "place_id": "ChIJW-vnXy4qCTkRvkbLjf0vwro",
      "name": "IndianOil",
      "address": "Ground Floor, Saharanpur Road, Dehradun",
      "lat": 30.304001,
      "lng": 78.010498,
      "open_now": true
    },
    {
      "place_id": "ChIJ28y14H4rCTkRWCIJ6ftSOsQ",
      "name": "IndianOil",
      "address": "Datkali Temple NH 307, Chowk, Chandrabani, Dehradun",
      "lat": 30.26464439999999,
      "lng": 77.9837402,
      "open_now": true
    },
    {
      "place_id": "ChIJMR9NYwArCTkRfCNoMBnzLiE",
      "name": "GAIL Gas Limited DODO CNG Station",
      "address": "129, Saharanpur Road, Subhash Nagar, Dehradun",
      "lat": 30.2765434,
      "lng": 77.9898821,
      "open_now": true
    },
    {
      "place_id": "ChIJa-uera0rCTkRVZoVjvaHtJQ",
      "name": "Aman Fuels Reliance Jio Petrol Pump",
      "address": "Ground Floor, Chandrabani Chowk, Subhash Nagar, Dehradun",
      "lat": 30.2768251,
      "lng": 77.9899337,
      "open_now": true
    },
    {
      "place_id": "ChIJKw4e_a8rCTkRWECnvf6E9OY",
      "name": "Jio-bp pulse",
      "address": "Ground Floor, Chandrabani Chowk, Subhash Nagar, Dehradun",
      "lat": 30.278221,
      "lng": 77.9899821,
      "open_now": true
    },
    {
      "place_id": "ChIJ0S1Tk7krCTkRrWj5EPd-sfU",
      "name": "IndianOil",
      "address": "Saharanpur Road, Transport Nagar, Majra, Dehradun",
      "lat": 30.281963,
      "lng": 77.991798,
      "open_now": true
    },
    {
      "place_id": "ChIJqU0l2bkrCTkR_-pl3Ii9D-c",
      "name": "IndianOil",
      "address": "Ground Floor, opposite Himalya Drug Company, Saharanpur Road, Dehradun",
      "lat": 30.283379,
      "lng": 77.99250099999999,
      "open_now": true
    },
    {
      "place_id": "ChIJWabMO8ErCTkRXxXTqqeuLik",
      "name": "Bharat Petroleum, Petrol Pump -Shiv Filling Station",
      "address": "SHEWLA KHURD DEHRADUN, Dehradun",
      "lat": 30.2841586,
      "lng": 77.9936602,
      "open_now": true
    },
    {
      "place_id": "ChIJYfgASgArCTkR0gan1bYZQvQ",
      "name": "Pauri Bus adda",
      "address": "7XQX+MFF, ISBT, Dehradun",
      "lat": 30.2891887,
      "lng": 77.9986668,
      "open_now": null
    },
    {
      "place_id": "ChIJ66Na0o8rCTkRyZsqYskOWqg",
      "name": "Hindustan Petroleum Corporation Limited",
      "address": "Ground Floor, near Hotel Mahalaxmi Palace, Shimla Bypass Road, Sewla Kalan, Dehradun",
      "lat": 30.29555899999999,
      "lng": 77.996631,
      "open_now": true
    },
    {
      "place_id": "ChIJMaM2LwApCTkREKKIYR8kRag",
      "name": "Hp gas godam",
      "address": "72J9+8WG, Vigilance OffIce Road, Chandchak, Banjarawala, Kargigrant",
      "lat": 30.28072660000001,
      "lng": 78.0198766,
      "open_now": null
    },
    {
      "place_id": "ChIJA0lXIE8qCTkRpFaGqeHVeH4",
      "name": "CNG pump Bharat Petroleum",
      "address": "India",
      "lat": 30.3032342,
      "lng": 77.9897257,
      "open_now": null
    },
    {
      "place_id": "ChIJg-DSMaEvCTkRl_555hEWdoQ",
      "name": "Hindustan Petroleum Corporation Limited",
      "address": "Khasra No 124, Dehradun Road, Doiwala, Dudhali",
      "lat": 30.2308383,
      "lng": 78.0322026,
      "open_now": true
    },
    {
      "place_id": "ChIJ8-rnEjQqCTkRMhTlxNH-6FI",
      "name": "IndianOil",
      "address": "GMS Road, Sewla Kalan, Majra, Dehradun",
      "lat": 30.299871,
      "lng": 78.001762,
      "open_now": true
    },
    {
      "place_id": "ChIJyZ57C_wrCTkRMNIU3vIPGWA",
      "name": "Petrol pump GMS",
      "address": "37, GMS Road, Chaman Vihar, Sewla Kalan, Niranjanpur, Dehradun",
      "lat": 30.3000502,
      "lng": 78.0015762,
      "open_now": null
    },
    {
      "place_id": "ChIJua3HagArCTkRdCdC8Wr6FJ0",
      "name": "Home",
      "address": "8X4R+FC8, Seema Dwar, Dehradun",
      "lat": 30.3061721,
      "lng": 77.9910713,
      "open_now": null
    },
    {
      "place_id": "ChIJZ_7rhufVDjkRsKicZcWH_Go",
      "name": "Hindustan Petroleum Corporation Limited",
      "address": "Ground Floor, Shimla Bypass Road, Buddi",
      "lat": 30.30171099999999,
      "lng": 77.922057,
      "open_now": true
    },
    {
      "place_id": "ChIJ32MP_H3VDjkRaCmGY14PWCk",
      "name": "HP CNG & Petrol Pump",
      "address": "8W2C+H4H, East Hopetown",
      "lat": 30.3014321,
      "lng": 77.9203622,
      "open_now": true
    },
    {
      "place_id": "ChIJQ7klSmYpCTkRaqorOB6utVc",
      "name": "IndianOil",
      "address": "Ground Floor, Mothrowala, Dehradun",
      "lat": 30.26751000000001,
      "lng": 78.0343994,
      "open_now": true
    },
    {
      "place_id": "ChIJIyLJ9fgpCTkRdqL6fHiMRpg",
      "name": "Hindustan Petroleum Corporation Limited",
      "address": "Khasra No 299, Haridwar Bypass Road, Kargi, Dehradun",
      "lat": 30.288193,
      "lng": 78.021591,
      "open_now": true
    },
    {
      "place_id": "ChIJu8DXMv4rCTkRDNn3EgwV2Os",
      "name": "IndianOil",
      "address": "Ground Floor, Saharanpur Road, Niranjanpur, Dehradun",
      "lat": 30.2994357,
      "lng": 78.00808409999999,
      "open_now": true
    },
    {
      "place_id": "ChIJWWuAD30pCTkRwyNwF-RhFtE",
      "name": "Goyal HP Filling Station",
      "address": "72QC+9MM, Ambala-Dehradun-Rishikesh Road, Kargi, Dehradun",
      "lat": 30.28847,
      "lng": 78.021675,
      "open_now": null
    },
    {
      "place_id": "ChIJuUvsoJYrCTkRPARUnABbyGE",
      "name": "Hindustan Petroleum Corporation Limited",
      "address": "Ground Floor, Rajpur Road, Dehradun",
      "lat": 30.3032872,
      "lng": 78.0031431,
      "open_now": true
    },
    {
      "place_id": "ChIJUUSe7IUrCTkRUdD8XfsDdIU",
      "name": "Reliance Petroleum",
      "address": "Khasra No 784, 1, Shimla Bypass Road, Shahp, Arcadia Grant",
      "lat": 30.313668,
      "lng": 77.969233,
      "open_now": true
    },
    {
      "place_id": "ChIJAU-TG3UpCTkRABHsLkgLjQ0",
      "name": "Bharat Petroleum",
      "address": "72RF+JXG, Brahmanwala, Dehradun",
      "lat": 30.2914426,
      "lng": 78.02516179999999,
      "open_now": false
    },
    {
      "place_id": "ChIJoQFigLUoCTkRDIF4ve7TAxM",
      "name": "Lok pujya Petrol Pump Harrawala",
      "address": "736Q+98V, Haridwar - Dehradun Road, Harrawala",
      "lat": 30.2609942,
      "lng": 78.0883044,
      "open_now": true
    },
    {
      "place_id": "ChIJgxB7bJYpCTkRwsbIQVAuaww",
      "name": "Hindustan Petroleum Corporation Limited",
      "address": "No 57A, Gandhi Road, Dehradun",
      "lat": 30.3161514,
      "lng": 78.0381848,
      "open_now": true
    },
    {
      "place_id": "ChIJkdcrVk8pCTkR-raLHrOjrW4",
      "name": "Hindustan Petroleum Corporation Limited",
      "address": "Ground Floor, near Niranjan Farms, Doon University Road, Ajabpur Kalan, Dehradun",
      "lat": 30.278772,
      "lng": 78.0408255,
      "open_now": true
    },
    {
      "place_id": "ChIJPepuX-QpCTkR_DcverxdJhk",
      "name": "Bharat petrolpump",
      "address": "opposite to Raja Jewellers, Mathura Wala Road - Kedarpur Near Sidheshwar temple, opposite to Raja Jewellers, Dehradun",
      "lat": 30.2794961,
      "lng": 78.0387037,
      "open_now": true
    },
    {
      "place_id": "ChIJsZXDuQYpCTkRlWGrO_06XYY",
      "name": "Hp pump",
      "address": "72JR+77R, Doon University Road, Tehri Nagar, Athhoorwala",
      "lat": 30.2807411,
      "lng": 78.0406265,
      "open_now": null
    },
    {
      "place_id": "ChIJQZlK-5cpCTkRkHarcUOtmLM",
      "name": "Bharat Petroleum",
      "address": "72QJ+3M7, near DPM Hyundai Car Showroom, Haridwar Bypass Road, Rd, Dehradun",
      "lat": 30.28766270000001,
      "lng": 78.03166209999999,
      "open_now": true
    },
    {
      "place_id": "ChIJp-jme-opCTkRiIBOoUdxtx4",
      "name": "IndianOil",
      "address": "Ground Floor, Haridwar Bypass Road, Ajabpur Kalan, Dehradun",
      "lat": 30.2881477,
      "lng": 78.0447014,
      "open_now": true
    },
    {
      "place_id": "ChIJka219hwvCTkREwF8m31MgbI",
      "name": "Jai bhawani filling station",
      "address": "Dudhli, Doiwala",
      "lat": 30.2103587,
      "lng": 78.06133229999999,
      "open_now": true
    },
    {
      "place_id": "ChIJJ1NZUn4pCTkRd2MVF3lZh7g",
      "name": "Reliance Petrol Pump",
      "address": "Mohkam Pur Kala",
      "lat": 30.2698257,
      "lng": 78.0807325,
      "open_now": true
    },
    {
      "place_id": "ChIJYVJjaKArCTkRENLLda9iBDY",
      "name": "IndianOil",
      "address": "73HF+V5H, near Indin Oil Petrol Pump, Haridwar Road, Mohkampur, Majari Mafi",
      "lat": 30.27970209999999,
      "lng": 78.0730152,
      "open_now": true
    },
    {
      "place_id": "ChIJSXN4ceEoCTkR0d4yr9XzZt4",
      "name": "IndianOil",
      "address": "NH 72, Jogiwala, Dehradun",
      "lat": 30.28381559999999,
      "lng": 78.0686401,
      "open_now": true
    },
    {
      "place_id": "ChIJr52nzu0pCTkR6Loi757tRBw",
      "name": "Bharat Petroleum",
      "address": "73R6+6GJ, Shastri Enclave, Dharampur, Dehradun",
      "lat": 30.2905916,
      "lng": 78.0612675,
      "open_now": true
    },
    {
      "place_id": "ChIJPYVNeG0pCTkRf3FozVD1UPE",
      "name": "HP diesel pump",
      "address": "1, Haridwar Road, Shastri Nagar, Ajabpur Kalan, Dehradun",
      "lat": 30.2919882,
      "lng": 78.0594344,
      "open_now": null
    },
    {
      "place_id": "ChIJBXMvY8ApCTkR4JwOF7VIPSI",
      "name": "Hindustan Petroleum Corporation Limited",
      "address": "Ground Floor, near Vidhan Sabha, Haridwar Road, Dehradun",
      "lat": 30.2921157,
      "lng": 78.059589,
      "open_now": true
    },
    {
      "place_id": "ChIJeV6FKfopCTkRFrQvSaqJNfI",
      "name": "IndianOil",
      "address": "Ground Floor, Swami Dayanand Saraswati Setu, Dehradun",
      "lat": 30.295301,
      "lng": 78.054588,
      "open_now": true
    },
    {
      "place_id": "ChIJ_YTO_d8pCTkRk2VezLZQCOs",
      "name": "IndianOil",
      "address": "Old Officer's Colony, Ajabpur Kalan, Dehradun",
      "lat": 30.29835649999999,
      "lng": 78.0434478,
      "open_now": true
    },
    {
      "place_id": "ChIJib7D24EvCTkRZUapPXbQSsA",
      "name": "Hindustan Petroleum Corporation Limited",
      "address": "Ground Floor, near Laxman Siddh Mandir, Haridwar Road, Harrawala",
      "lat": 30.25441679999999,
      "lng": 78.0927258,
      "open_now": true
    },
    {
      "place_id": "ChIJb9iHwOMpCTkRu5TsSFN-V1c",
      "name": "IndianOil",
      "address": "Kendriyadoon, Dehrakhas, Amwala Manjhala",
      "lat": 30.3012804,
      "lng": 78.0244957,
      "open_now": true
    },
    {
      "place_id": "ChIJH5-8fScvCTkRQ0EwNz2atog",
      "name": "IndianOil",
      "address": "Ground Floor, Sadar, Nangal Bulandwala, Doiwala",
      "lat": 30.199501,
      "lng": 78.0700001,
      "open_now": true
    },
    {
      "place_id": "ChIJwbQgO3IvCTkRoKoBL3CDoWQ",
      "name": "Reliance JioBP Petrol Pump",
      "address": "64V2+R22, Kuwan Wala, Harrawala",
      "lat": 30.24356789999999,
      "lng": 78.09957639999999,
      "open_now": true
    },
    {
      "place_id": "ChIJ_RQg-fwpCTkRx8ZdqyedULo",
      "name": "IndianOil",
      "address": "Ground Floor, near Fountain Chowk, Dharampur, Dehradun",
      "lat": 30.2993138,
      "lng": 78.06539,
      "open_now": true
    },
    {
      "place_id": "ChIJ0UcRA10vCTkRdME7cbopK-Q",
      "name": "IndianOil",
      "address": "Ground Floor, NH 72, Kuwan Wala, Dehradun",
      "lat": 30.23936499999999,
      "lng": 78.10161699999999,
      "open_now": true
    },
    {
      "place_id": "ChIJ69dzjXgvCTkRbRb35eFo_UU",
      "name": "Pashupati Indane gas godown",
      "address": "64P3+X2W, Kuwan Wala",
      "lat": 30.2374963,
      "lng": 78.1025667,
      "open_now": null
    },
    {
      "place_id": "ChIJiRiBLIwpCTkRyMdpciZcN-Q",
      "name": "Hindustan Petroleum Corporation Limited",
      "address": "Property No, 312 A, Chander Nagar, Race Course, Dehradun",
      "lat": 30.308783,
      "lng": 78.040358,
      "open_now": true
    },
    {
      "place_id": "ChIJi6Wu1LUoCTkRXx7faz3KrhA",
      "name": "Hindustan Petroleum Corporation Limited",
      "address": "Ground Floor, Medical College Road, Balawala, Dehradun",
      "lat": 30.259326,
      "lng": 78.104902,
      "open_now": true
    },
    {
      "place_id": "ChIJCYnCW4gpCTkRD-QtKAaQVfY",
      "name": "Hindustan Petroleum Corporation Limited",
      "address": "62, Saharanpur Road, Patel Nagar, Dehradun",
      "lat": 30.3103558,
      "lng": 78.0216477,
      "open_now": true
    },
    {
      "place_id": "ChIJibuiVogpCTkRCcIaa9EQI7c",
      "name": "Kohli Filling Station",
      "address": "28, Saharanpur Road, Patel Nagar, Dehradun",
      "lat": 30.3113804,
      "lng": 78.0221215,
      "open_now": true
    },
    {
      "place_id": "ChIJnafPVdQpCTkRSPw21gf-1JE",
      "name": "Bharat petroleum",
      "address": "73XH+PGC, Nehrugram Road, Garhwali Colony, Kidduwala, Dehradun",
      "lat": 30.2993027,
      "lng": 78.07876739999999,
      "open_now": null
    },
    {
      "place_id": "ChIJWUTJGokpCTkRKGNZDd3ccJI",
      "name": "Hindustan Petroleum Corporation Limited",
      "address": "1/17, Saharanpur Road, Dehradun",
      "lat": 30.31243559999999,
      "lng": 78.0231804,
      "open_now": true
    },
    {
      "place_id": "ChIJQ2gx0yYpCTkRlB3fU846Q38",
      "name": "Chugh Gas Service",
      "address": "20, 20, Delhi Rd, Patthri Bagh, Dehradun",
      "lat": 30.3128174,
      "lng": 78.0239649,
      "open_now": null
    },
    {
      "place_id": "ChIJO0Fo-PgpCTkR_ARxI9Ec0Es",
      "name": "Bharat Petroleum Petrol & Cng Pump",
      "address": "FILLING STATION BPCL DEALERKHSRA NO 1588 JOGIWALAMUSOORIE ROADNATHANPUR",
      "lat": 30.30336500000001,
      "lng": 78.074966,
      "open_now": true
    },
    {
      "place_id": "ChIJbV78E5UpCTkRpgyRS3evhJ0",
      "name": "Bhagwati Filling Station",
      "address": "59-a, Gandhi Road, Prince Chowk, Govind Nagar, Race Course, Dehradun",
      "lat": 30.3156155,
      "lng": 78.03702330000002,
      "open_now": true
    },
    {
      "place_id": "ChIJU6FTpYcpCTkR6JVcv_jN-qk",
      "name": "Hindustan Petroleum Corporation Limited",
      "address": "No 173, Saharanpur Chowk, Arhat Bazaar, Dehradun",
      "lat": 30.31584399999999,
      "lng": 78.025841,
      "open_now": true
    },
    {
      "place_id": "ChIJcYaROyMrCTkRVN6DR7BBizI",
      "name": "Sharee Ram Fuels BPCL Bharat Petroleum",
      "address": "8276+P65 GMS Road, Dronpuri, Kaonli, Dehradun",
      "lat": 30.3143125,
      "lng": 78.01056249999999,
      "open_now": true
    },
    {
      "place_id": "ChIJMRiJP3EpCTkRi1HVm86cdcg",
      "name": "IndianOil",
      "address": "Opposit Hotel Drona, 48, Gandhi Road, Dehradun",
      "lat": 30.316933,
      "lng": 78.0396173,
      "open_now": true
    },
    {
      "place_id": "ChIJHVU304soCTkRpAFo7DUhKL4",
      "name": "Petrol Pump",
      "address": "Kidduwala Road, Raipur, Dehradun",
      "lat": 30.3010495,
      "lng": 78.0929781,
      "open_now": null
    },
    {
      "place_id": "ChIJKZb7h0IlCTkRZiQpq3kNpMo",
      "name": "IndianOil",
      "address": "Ground Floor, Haridwar Road, Doiwala",
      "lat": 30.1926992,
      "lng": 78.12509589999999,
      "open_now": true
    },
    {
      "place_id": "ChIJyUu2uIklCTkRGTpEft4aLzs",
      "name": "IndianOil",
      "address": "Ground Floor, Road, Balawala, Nakraunda",
      "lat": 30.257232,
      "lng": 78.1207707,
      "open_now": true
    },
    {
      "place_id": "ChIJO59LFAAlCTkRiMlgP4ELyV8",
      "name": "Minakshi Petrol pump",
      "address": "744C+V8P, Balawala, Dehradun",
      "lat": 30.2572847,
      "lng": 78.12080639999999,
      "open_now": null
    },
    {
      "place_id": "ChIJpTn9Z9klCTkR6MgUxXad0Eo",
      "name": "Nayara Energy Eco Filling Station",
      "address": "Thano Range",
      "lat": 30.2574616,
      "lng": 78.1505585,
      "open_now": true
    },
    {
      "place_id": "ChIJ9wD0lxglCTkRowWcDTJflh4",
      "name": "Matrabhoomi Filling Station",
      "address": "65W3+HHQ, Thano",
      "lat": 30.2464589,
      "lng": 78.1539908,
      "open_now": true
    },
    {
      "place_id": "ChIJpdYBfVooCTkRSjZLXpdlNnE",
      "name": "Hindustan Petroleum Corporation Limited",
      "address": "Ground Floor, Ring Road, Ladpur, Dehradun",
      "lat": 30.3093014,
      "lng": 78.07660680000001,
      "open_now": true
    },
    {
      "place_id": "ChIJFesOdQApCTkRvs39O8LOJAM",
      "name": "HP petrol pump",
      "address": "no puliya, 6, adaresh colony, Nehrugram, Dehradun",
      "lat": 30.3110572,
      "lng": 78.0768416,
      "open_now": null
    },
    {
      "place_id": "ChIJffIBq13VCDkRE3oSXeOzegM",
      "name": "IndianOil",
      "address": "Sudhowala, Nanda Ki Chowki, Dehradun",
      "lat": 30.34466699999999,
      "lng": 77.948692,
      "open_now": true
    },
    {
      "place_id": "ChIJtxlOqg8qCTkRZ1O3XH3fSFM",
      "name": "IndianOil",
      "address": "Ground Floor, near Ballupur Chowk, Chakrata Road, Dehradun",
      "lat": 30.332764,
      "lng": 78.005509,
      "open_now": true
    },
    {
      "place_id": "ChIJs9cw3wQqCTkR6WCtQNuSuxY",
      "name": "Hindustan Petroleum Corporation Limited",
      "address": "Ground Floor, near Ballupur Chowk, NH 72, GMS Road, Dehradun",
      "lat": 30.33173609999999,
      "lng": 78.01109009999999,
      "open_now": true
    },
    {
      "place_id": "ChIJiYmcCAMqCTkRlo3Tdx60TVU",
      "name": "BPCL Petrol Pump - KC Petroleum",
      "address": "31, Ballupur Road, Vijay Park, Dehradun",
      "lat": 30.3335689,
      "lng": 78.0159628,
      "open_now": true
    },
    {
      "place_id": "ChIJPyZ59gIqCTkRKzdQbim4AQU",
      "name": "Hindustan Petrol Pump",
      "address": "IMA Blood Bank Of Uttarakhand, 40/2 Ballupur Road Near IMA, 41, Ballupur Road, Kailashpuri, Dehradun",
      "lat": 30.3340475,
      "lng": 78.01918429999999,
      "open_now": true
    },
    {
      "place_id": "ChIJwZ_REu4pCTkRUUp8Ni_y1Y4",
      "name": "HP PETROL PUMP - SAKET FILLING STATION",
      "address": "opp:the Doon school, 56, Chakrata Road, Dehradun",
      "lat": 30.33023050000001,
      "lng": 78.02974970000001,
      "open_now": true
    },
    {
      "place_id": "ChIJ16oAGO4pCTkRCnazncLmpoA",
      "name": "IndianOil",
      "address": "Ground Floor, near Bindal Bridge, Chakrata Road, Bindaal Tirahya, Dehradun",
      "lat": 30.3281978,
      "lng": 78.031559,
      "open_now": true
    },
    {
      "place_id": "ChIJg58ov8EpCTkR3uE3blrxNGE",
      "name": "Universal Filling Station - Bharat Petroleum",
      "address": "near Dehradun, 13-b, Rajpur Road, Clock Tower, Chukkuwala, Dehradun",
      "lat": 30.3262741,
      "lng": 78.0439085,
      "open_now": true
    },
    {
      "place_id": "ChIJb8c0FZ4qCTkRplFyLEOcNhY",
      "name": "IndianOil",
      "address": "Thakurpur Road, Prem Nagar, Arcadia Grant",
      "lat": 30.3352972,
      "lng": 77.9537192,
      "open_now": true
    },
    {
      "place_id": "ChIJI5EA_mHVCDkRfJ1kA3p2Mrk",
      "name": "Indian Oil Pertol Pump Adarsh filling station",
      "address": "NH 72, Chakrata Road, Sudhowala",
      "lat": 30.33693499999999,
      "lng": 77.95637900000001,
      "open_now": true
    },
    {
      "place_id": "ChIJ69nDZjfVCDkRraDFW2ayVcE",
      "name": "Bharat petroleum Petrol Pump.And CNG",
      "address": "Ambala - Poanta Sahib - Herbertpur - Dehradun - Rishikesh National Highway, Kehri Gaon, Prem Nagar, Dehradun",
      "lat": 30.3390684,
      "lng": 77.9561429,
      "open_now": null
    },
    {
      "place_id": "ChIJaUNfqnbVCDkRjbxdIMfSznk",
      "name": "Rohit Fuels",
      "address": "458, Chakrata Road, Kandhauli",
      "lat": 30.34435599999999,
      "lng": 77.94907599999999,
      "open_now": null
    },
    {
      "place_id": "ChIJJ4g_Wz4rCTkROxovVgdw02w",
      "name": "Hindustan Petroleum Corporation Limited",
      "address": "Khasra No 374 Raj Vihar, near FRI, Road, Kanwali Road, Chakrata",
      "lat": 30.3326483,
      "lng": 77.9994104,
      "open_now": true
    },
    {
      "place_id": "ChIJrbNfUgwqCTkRHRoUZW49Zyg",
      "name": "Guru Kripa Petrol Pump",
      "address": "281, Chakarata Rd, Vasant Vihar Phase 1, Chakrata Road, Vasant Vihar Phase 1, Balliwala, Dehradun",
      "lat": 30.3325254,
      "lng": 78.0002777,
      "open_now": true
    },
    {
      "place_id": "ChIJJ4tr81LVCDkRAA2i80jyceg",
      "name": "IndianOil",
      "address": "Ground Floor Sudhowala, Chakrata Road, Jhajra",
      "lat": 30.34402599999999,
      "lng": 77.930449,
      "open_now": true
    },
    {
      "place_id": "ChIJAaUX4LkrCTkRKD8O--1ECWM",
      "name": "IndianOil",
      "address": "Khasra No, 748 & 754, Kanwali Road, Kanwali, Dehradun",
      "lat": 30.3238011,
      "lng": 78.00795529999999,
      "open_now": true
    },
    {
      "place_id": "ChIJ0RjZbwArCTkRlItMERTeYWc",
      "name": "Aashirwad Enclave",
      "address": "82J4+89X, Ashirwad Enclave, Balliwala, Dehradun",
      "lat": 30.3308743,
      "lng": 78.0059814,
      "open_now": null
    },
    {
      "place_id": "ChIJt8M6o7crCTkRaKtH3fxfsyY",
      "name": "Bharat Petroleum - Bhagwati Filling Station",
      "address": "MAHATMA GANDHI RD, Dehradun",
      "lat": 30.3218456,
      "lng": 78.01356059999999,
      "open_now": true
    },
    {
      "place_id": "ChIJ-9S_QxorCTkREiJ83U-Il6I",
      "name": "Bharat Petroleum, Petrol Pump -Anandprakash & Sons",
      "address": "GMS Road, Ballupur, Dehradun",
      "lat": 30.3300589,
      "lng": 78.013309,
      "open_now": null
    },
    {
      "place_id": "ChIJRZgDS70rCTkR8ccYD-dPa04",
      "name": "Reliance Petrol Pump",
      "address": "23, Ballupur Chowk, Vanasthali, Ballupur, Dehradun",
      "lat": 30.33634959999999,
      "lng": 78.0122336,
      "open_now": true
    },
    {
      "place_id": "ChIJgbB0mf8rCTkRLMqx0krDy8k",
      "name": "Nayara Petrol Pump - Sai Fuels",
      "address": "131, Kanwali Road, shivaji marg, Dehradun",
      "lat": 30.3220898,
      "lng": 78.0189798,
      "open_now": true
    },
    {
      "place_id": "ChIJoVofrgUrCTkRnNyxVTtpUX4",
      "name": "Hindustan Petroleum Corporation Limited",
      "address": "Ground Floor, Chakrata Road, Alakapuri, Dehradun",
      "lat": 30.3338146,
      "lng": 78.01804349999999,
      "open_now": true
    },
    {
      "place_id": "ChIJgb_NhgIqCTkRbmZxE6aaaGg",
      "name": "SAGAR FILLING STATION",
      "address": "40, 2, Chakrata Road, Connaught Place, Dehradun",
      "lat": 30.33402180000001,
      "lng": 78.01919319999999,
      "open_now": true
    },
    {
      "place_id": "ChIJrabO4W7VDjkRt8kjKCLLamE",
      "name": "ESSAR",
      "address": "India",
      "lat": 30.3170762,
      "lng": 77.8983334,
      "open_now": null
    },
    {
      "place_id": "ChIJYc0vWwrVCDkRVh2SZSy9fuA",
      "name": "Milestone Filling Station (Bharat Petroleum)",
      "address": "Palawali, Pondha",
      "lat": 30.3714469,
      "lng": 77.9744698,
      "open_now": true
    },
    {
      "place_id": "ChIJDyZ4cgApCTkRsXjACExcdiY",
      "name": "Gas feeling",
      "address": "829M+HM7, Hanuman Chowk, Dehradun",
      "lat": 30.3189245,
      "lng": 78.03416450000002,
      "open_now": null
    },
    {
      "place_id": "ChIJk1nKfsEpCTkRil8xHfdpx7w",
      "name": "Hindustan Petroleum Corporation Limited",
      "address": "Ground Floor, Rajpur Road, Dehradun",
      "lat": 30.3277381,
      "lng": 78.0455439,
      "open_now": true
    },
    {
      "place_id": "ChIJpdk9LsIpCTkRk-ufnYkXVSI",
      "name": "Hindustan Petroleum Retail Office",
      "address": "70, Neshvilla Road, Dobhalwala, Chukkuwala, Dehradun",
      "lat": 30.3295096,
      "lng": 78.0442632,
      "open_now": null
    },
    {
      "place_id": "ChIJ18O58ckpCTkRJBanWz-JStE",
      "name": "YSP Petrol Pump",
      "address": "83F5+VHC, Raipur Road, Old Dalanwala, Karanpur, Dehradun",
      "lat": 30.32469359999999,
      "lng": 78.05888589999999,
      "open_now": true
    },
    {
      "place_id": "ChIJD1t0uTQoCTkR4TB6VPaK_jI",
      "name": "Hindustan Petroleum Corporation Limited",
      "address": "House No 59, Sahastradhara Road, Dehradun",
      "lat": 30.329101,
      "lng": 78.066071,
      "open_now": true
    },
    {
      "place_id": "ChIJIQfrDMzXCDkRvdYOjwGzWcE",
      "name": "IndianOil",
      "address": "Ground Floor, Rajpur Road, Jakhan, Dehradun",
      "lat": 30.3636268,
      "lng": 78.0690335,
      "open_now": true
    },
    {
      "place_id": "ChIJd66LS7jXCDkRhO_X5HMSuUw",
      "name": "IndianOil",
      "address": "Ground Floor, Rajpur Road, Diversion, Malsi, Mussorie",
      "lat": 30.3735984,
      "lng": 78.0783093,
      "open_now": true
    },
    {
      "place_id": "ChIJyWvvO3gpCTkRSNBlKrvvyw4",
      "name": "MAHARISHI AGASTYA FILLING STATION",
      "address": "Rudraprayag Main, Dehradun",
      "lat": 30.3252548,
      "lng": 78.0428539,
      "open_now": true
    },
    {
      "place_id": "ChIJ3epzT7kpCTkRlILIaCmcafA",
      "name": "Abner Fuel Station",
      "address": "next to Indira Market Dehradun, 93, 4x4 rajpur road opposite dhara chowki right, next to Indira Market Dehradun, Dehradun",
      "lat": 30.3254637,
      "lng": 78.04324720000001,
      "open_now": true
    },
    {
      "place_id": "ChIJIcjQOcEpCTkR4xyYju68vv4",
      "name": "Preeti petrol PUMP - AGGARWAL FILLING STATION",
      "address": "HP Dealers, 9/C, Ashtley Hall, Dehradun",
      "lat": 30.3265008,
      "lng": 78.04733970000001,
      "open_now": true
    },
    {
      "place_id": "ChIJAQ0IArYpCTkRCly9ZiLeq6g",
      "name": "Hindustan Petroleum Corporation Limited",
      "address": "No 9/C, Subhash Road, Ashtley Hall, Dehradun",
      "lat": 30.3266771,
      "lng": 78.0473437,
      "open_now": true
    },
    {
      "place_id": "ChIJoWKoFMYpCTkRGKj3p0KUgvc",
      "name": "IndianOil",
      "address": "Ground Floor, 16, Eastern Canal Road, Dehradun",
      "lat": 30.327734,
      "lng": 78.052275,
      "open_now": true
    },
    {
      "place_id": "ChIJ35Kx8ckpCTkRkTkqMBTbiVU",
      "name": "IndianOil",
      "address": "51, Raipur Road, Adhoiwala, Dehradun",
      "lat": 30.324981,
      "lng": 78.058624,
      "open_now": true
    },
    {
      "place_id": "ChIJDZZil6IpCTkRC9zRn7YjUJo",
      "name": "RSD Doon Fuel Station Essar Pump",
      "address": "1&2, Raipur Road, Chunna Bhatta, Adhoiwala, Dehradun",
      "lat": 30.32437149999999,
      "lng": 78.0608111,
      "open_now": true
    },
    {
      "place_id": "ChIJ9WeCW0QoCTkRpxO9iifdCtE",
      "name": "Bharat Petroleum, Petrol Pump -Mahadev Fuels",
      "address": "209, Raipur Road, Rakshapuram, Kailash Vihar, Raipur, Dehradun",
      "lat": 30.31771939999999,
      "lng": 78.0803835,
      "open_now": true
    },
    {
      "place_id": "ChIJ86LRMkQoCTkRh5cIURB1URA",
      "name": "IndianOil",
      "address": "Ground Floor, Ladpur, Dehradun",
      "lat": 30.31909400000001,
      "lng": 78.079597,
      "open_now": true
    },
    {
      "place_id": "ChIJK_6dlU4pCTkRJo4sYwWXwlc",
      "name": "Bharat petroleum",
      "address": "83VF+WP7, Raipur, Dehradun",
      "lat": 30.34477959999999,
      "lng": 78.0743103,
      "open_now": null
    },
    {
      "place_id": "ChIJJX6NA9jXCDkRhwlneRjE5XE",
      "name": "IndianOil",
      "address": "Ground Floor, Sahastradhara Road, Aman Vihar, Dehradun",
      "lat": 30.34835199999999,
      "lng": 78.077202,
      "open_now": true
    },
    {
      "place_id": "ChIJOyw2FAIpCTkRtmr-lPysY-Q",
      "name": "IndianOil",
      "address": "Rajpur Road, 2, Canal Road, Dehradun",
      "lat": 30.343224,
      "lng": 78.062715,
      "open_now": true
    },
    {
      "place_id": "ChIJ-bsMwfopCTkRQpXyJo7_vH8",
      "name": "IndianOil",
      "address": "Police Line, Race Course, Dehradun",
      "lat": 30.3497911,
      "lng": 78.06726019999999,
      "open_now": true
    },
    {
      "place_id": "ChIJBc6yCDDXCDkRucjqsUX3_pQ",
      "name": "Jio-bp pulse",
      "address": "Ground Floor, opposite Tibbati Colony, Sahastradhara Road, Kulhan, Gujrara Mansingh",
      "lat": 30.370421,
      "lng": 78.096502,
      "open_now": true
    },
    {
      "place_id": "ChIJR2QSDQDXCDkRSLF8Cq8hSh4",
      "name": "Aadi Filling Station",
      "address": "Chowk, Sahastradhara Road, Kirsali",
      "lat": 30.3743108,
      "lng": 78.1005215,
      "open_now": true
    },
    {
      "place_id": "ChIJ_20gGADXCDkRxl4fF6jqEcQ",
      "name": "Bharat Petroleum",
      "address": "Kanan Kunj, opp. healing touch hospital, near Nalapani Road, chowk, Sahastradhara Road, Kewal Vihar, Adhoiwala, Dehradun",
      "lat": 30.3745216,
      "lng": 78.1005426,
      "open_now": null
    },
    {
      "place_id": "ChIJ_2jVlRHXCDkR3a0iAoKY-Ms",
      "name": "IndianOil",
      "address": "8, Rajpur Road, Kishanpur, Dehradun",
      "lat": 30.3736051,
      "lng": 78.0783002,
      "open_now": true
    },
    {
      "place_id": "ChIJJ2bAGT7VCDkR8qeowgWQCxo",
      "name": "IndianOil",
      "address": "Khasra No 503504505, Vikasnagar, Rampur Bhauwala",
      "lat": 30.39491289999999,
      "lng": 77.9288921,
      "open_now": true
    },
    {
      "place_id": "ChIJ-alhyM3QCDkRtczto5OPXPQ",
      "name": "Hindustan Petroleum Corporation Limited",
      "address": "Ground Floor, near Mussoorie Road, Dehradun Road, Jheel, Mussoorie",
      "lat": 30.4435866,
      "lng": 78.0788575,
      "open_now": true
    },
    {
      "place_id": "ChIJPSIwCgDXCDkR2yW-EsRAQeM",
      "name": "Cng station",
      "address": "93PF+8M3, Residential colony, Malsi, Dehradun",
      "lat": 30.385622,
      "lng": 78.0738935,
      "open_now": null
    },
    {
      "place_id": "ChIJGeGhiszXCDkRwbz_VArDpa0",
      "name": "IndianOil",
      "address": "Mussoorie Road, Residential colony, Malsi",
      "lat": 30.385701,
      "lng": 78.074097,
      "open_now": true
    },
    {
      "place_id": "ChIJRzNdj8DXCDkRd7-pqWhgzi4",
      "name": "Bharat Petroleum (Mayalka)",
      "address": "Mussoorie Road, Malsi, Dehradun",
      "lat": 30.38532919999999,
      "lng": 78.07454530000001,
      "open_now": true
    },
    {
      "place_id": "ChIJ5WH96wfXCDkRnHzzXa5NCQ0",
      "name": "Hindustan Petroleum Corporation Limited",
      "address": "230, 231/1, Khasra No, 229/3, Mussoorie Road, Bagral, Dehradun",
      "lat": 30.3949748,
      "lng": 78.07515819999999,
      "open_now": true
    },
    {
      "place_id": "ChIJH4bk5frXCDkRZqXXu56TCOY",
      "name": "Shiv Shakti Filling Station - HPCL - Petrol Pump",
      "address": "7, Mussoorie Road, Makka Wala",
      "lat": 30.4021992,
      "lng": 78.078507,
      "open_now": true
    },
    {
      "place_id": "ChIJvRg26_7XCDkRsMVCzxYLkdM",
      "name": "Hindustan Petroleum Corporation Limited",
      "address": "khasra No 7, near DIT College, Pachwadoon, Makka Wala",
      "lat": 30.4018539,
      "lng": 78.0796594,
      "open_now": true
    },
    {
      "place_id": "ChIJFWACDcXQCDkRTF5qqHVvqs4",
      "name": "BPCL",
      "address": "F32H+QJM, near gas godam, Mall Road, Library Road, Mussoorie",
      "lat": 30.4520264,
      "lng": 78.07891599999999,
      "open_now": true
    },
    {
      "place_id": "ChIJXdD5ocXQCDkRNpXNlhA7dyg",
      "name": "IndianOil",
      "address": "Ground Floor Kincraig, Mussoorie",
      "lat": 30.4522908,
      "lng": 78.0796177,
      "open_now": true
    }
  ]
}