{
  "city": "Asansol",
  "state": "West Bengal",
  "count": 124,
  "center": {
    "lat": 23.6889,
    "lng": 86.9661
  },
  "pumps": [
    {
      "place_id": "ChIJqXAz2t_j9jkR-kagh1SKjXM",
      "name": "Best Recharge Shop",
      "address": "Bhuta Buri Mondir, HIRAPUR, SHYMDHI",
      "lat": 23.6303755,
      "lng": 86.9002616,
      "open_now": null
    },
    {
      "place_id": "ChIJOzZl8W3j9jkRmmb7RHxpXDc",
      "name": "Bharat Petroleum Petrol Pump , CROSSWAY PETROL PUMP",
      "address": "VILL & PO - MADHUKONDASALTORA MADHUKONDA, Main Road, Purulia",
      "lat": 23.606222,
      "lng": 86.883812,
      "open_now": true
    },
    {
      "place_id": "ChIJfSuJQw3j9jkR3QVCZtdCsCA",
      "name": "Petrol",
      "address": "Madhukunda, Balitora",
      "lat": 23.6280922,
      "lng": 86.87017929999999,
      "open_now": null
    },
    {
      "place_id": "ChIJRaFCqDPj9jkRG__MaMle2JA",
      "name": "IndianOil",
      "address": "Ground Floor, Adra Market, Near Madhukunda Railway Station, Madhukunda Jagarnathdih, Santuri",
      "lat": 23.624647,
      "lng": 86.86887399999999,
      "open_now": true
    },
    {
      "place_id": "ChIJuRPWaZrj9jkRkFkC_zqFbzw",
      "name": "Bharat Petroleum Petrol Pump , MAA TARA AUTOMOBILES",
      "address": "MADHUKONDA SARBORI ROAD,VILL & PO - MADHUKONDA",
      "lat": 23.630651,
      "lng": 86.852723,
      "open_now": true
    },
    {
      "place_id": "ChIJjYnMXjEf9zkRN4DDlPBLVRY",
      "name": "JEETU FILLING CENTRE",
      "address": "RIVER SIDE, near RAIL BRIDGE, Burnpur, Asansol",
      "lat": 23.6459686,
      "lng": 86.9427846,
      "open_now": true
    },
    {
      "place_id": "ChIJ26eCfwAf9zkRNmFMkroTcbs",
      "name": "Indian oil Petrol pump",
      "address": "JWWV+496, Riverside Road, Burnpur, Asansol",
      "lat": 23.6458915,
      "lng": 86.9428641,
      "open_now": null
    },
    {
      "place_id": "ChIJ_faTfUsf9zkRAOSDebu2WIo",
      "name": "Rahul Shop",
      "address": "Riverside Road, Hirapur, Asansol",
      "lat": 23.6587479,
      "lng": 86.935662,
      "open_now": null
    },
    {
      "place_id": "ChIJFSH4Yicd9zkRZMf0nKNePv4",
      "name": "Hindustan Petroleum Corporation Limited",
      "address": "Ground Floor, Saltora",
      "lat": 23.5612143,
      "lng": 86.9083574,
      "open_now": true
    },
    {
      "place_id": "ChIJv2ETrVPh9jkRWN0wM_Xy4rw",
      "name": "Hindustan Petroleum Corporation Limited",
      "address": "Ground Floor Bonra, Neturia, Madhukunda Road, Ranpur",
      "lat": 23.63900779999999,
      "lng": 86.83264940000001,
      "open_now": true
    },
    {
      "place_id": "ChIJgyOvrVke9zkRfjF7C-jt3bg",
      "name": "Bharat Petroleum, Petrol Pump -Burma Filling Station",
      "address": "BURNPUR,BURDWAN DISTRICT, BARDHAMAN",
      "lat": 23.6712937,
      "lng": 86.9397298,
      "open_now": true
    },
    {
      "place_id": "ChIJdzVOlsUf9zkRO7C6nXN08I0",
      "name": "Gas filling centre",
      "address": "K19, Burnpur, Asansol",
      "lat": 23.6682517,
      "lng": 86.9444033,
      "open_now": null
    },
    {
      "place_id": "ChIJy4mV59Ue9zkR3kOUNoG8pkg",
      "name": "IndianOil",
      "address": "Ground Floor, near Railway Station, Grand Trunk Road, Asansol",
      "lat": 23.684972,
      "lng": 86.977914,
      "open_now": true
    },
    {
      "place_id": "ChIJueSdBwAf9zkRoIW8ySjBTdE",
      "name": "Kamarpukur amna petrol pump",
      "address": "MX96+HWH, Ismile, Hamid Nagar, Asansol",
      "lat": 23.668865,
      "lng": 86.962555,
      "open_now": null
    },
    {
      "place_id": "ChIJ29ka_uMf9zkRZSAucL8CGG4",
      "name": "Rahmatnagar Fuel",
      "address": "Rahmat Nagar, Asansol",
      "lat": 23.6704152,
      "lng": 86.9564719,
      "open_now": null
    },
    {
      "place_id": "ChIJ0-lFG-ce9zkRKRB9fq4edj0",
      "name": "R D Filling Station Bharat Petroleum",
      "address": "MXH6+438, SB Gorai Road, Beni Madhab Nagar, Hamid Nagar, Asansol",
      "lat": 23.6779011,
      "lng": 86.9603455,
      "open_now": true
    },
    {
      "place_id": "ChIJHSJ9mSwZ9zkRDoHQkxk9Ddw",
      "name": "Hindustan Petroleum Corporation Limited",
      "address": "Ground Floor, near Rangania Para, SB Gorai Road, Asansol",
      "lat": 23.6802445,
      "lng": 86.9857284,
      "open_now": true
    },
    {
      "place_id": "ChIJX-7rg8cZ9zkRUZ24R_2CIUY",
      "name": "Khush Fuels",
      "address": "Arambagh Building, SB Gorai Road, Asansol",
      "lat": 23.68058,
      "lng": 86.9844521,
      "open_now": null
    },
    {
      "place_id": "ChIJpcEqNCQZ9zkR8i42FXitnaY",
      "name": "BANI DISTRIBUTORS",
      "address": "GT Rd36, 52a, G T ROAD, DURGAMANDIR, Ushagram, Asansol",
      "lat": 23.679237,
      "lng": 86.99527599999999,
      "open_now": null
    },
    {
      "place_id": "ChIJ4QPvBysZ9zkR_eZYsHA-854",
      "name": "IndianOil",
      "address": "Lock No 12013, Grand Trunk Road, Barddhaman",
      "lat": 23.68277969999999,
      "lng": 86.98479900000001,
      "open_now": true
    },
    {
      "place_id": "ChIJt0dZ9P4e9zkRhz0RTzPUF6E",
      "name": "Patrol Shop",
      "address": "MWJW+X9W, Asansol Court Area, Asansol",
      "lat": 23.6824843,
      "lng": 86.9459644,
      "open_now": null
    },
    {
      "place_id": "ChIJXYhTA7cf9zkR3XmRrMGhlMc",
      "name": "IndianOil",
      "address": "No 472/3, Hill View Park, SB Gorai Road, Chelidanga, Asansol",
      "lat": 23.684911,
      "lng": 86.95490300000002,
      "open_now": true
    },
    {
      "place_id": "ChIJI28-uyMZ9zkR5quBUg7cdPc",
      "name": "HP PETROL PUMP",
      "address": "East N, East, Ushagram, Asansol",
      "lat": 23.6786716,
      "lng": 86.9990258,
      "open_now": true
    },
    {
      "place_id": "ChIJJ1-HJaMZ9zkR9LyRNVemTIY",
      "name": "Bharat Petroleum, Petrol Pump -Eastern Service Station",
      "address": "207, Grand Trunk Road, Ushagram, Asansol",
      "lat": 23.6774684,
      "lng": 87.0029163,
      "open_now": true
    },
    {
      "place_id": "ChIJR5DfmYMf9zkRJfp0dpc4Wu0",
      "name": "Plate Booking",
      "address": "Asansol, Bazar, Asansol",
      "lat": 23.6861865,
      "lng": 86.981224,
      "open_now": null
    },
    {
      "place_id": "ChIJyaUacwAf9zkRihecOWqOTno",
      "name": "Hindustan Petroleum Corporation Limited",
      "address": "Ground Floor, near Chitra Cinema, Burnpur, Asansol",
      "lat": 23.6872056,
      "lng": 86.94302979999999,
      "open_now": true
    },
    {
      "place_id": "ChIJxwl2QQAf9zkRvBmHTktTy1o",
      "name": "POSTO RAJBARI",
      "address": "MWPV+XGM, Burnpur Road, Asansol",
      "lat": 23.6874545,
      "lng": 86.9437919,
      "open_now": null
    },
    {
      "place_id": "ChIJQ-j9qL4Z9zkReLVniZ7OFDg",
      "name": "IndianOil",
      "address": "No 134, NH 2, Grand Trunk Road, Nigha",
      "lat": 23.66916299999999,
      "lng": 87.037704,
      "open_now": true
    },
    {
      "place_id": "ChIJf9cnfykX9zkRAVVnRY62aW4",
      "name": "Hindustan Petroleum Corporation Limited",
      "address": "Ground Floor, NH 2, Searsole, Rajbari",
      "lat": 23.6473201,
      "lng": 87.0996701,
      "open_now": true
    },
    {
      "place_id": "ChIJr97rIB8Z9zkRkGwpv3BDsTQ",
      "name": "Hindustan Petroleum Corporation Limited",
      "address": "Ground Floor, opposite Ma Ghagar Buri Mandir, NH 2, Asansol Bypass, Asansol",
      "lat": 23.6819976,
      "lng": 87.0048035,
      "open_now": true
    },
    {
      "place_id": "ChIJr7bWMhcR9zkR5JPbkJR_Odw",
      "name": "Hindustan Petroleum Corporation Limited",
      "address": "Ground Floor, Netaji Subhas Road, Raniganj",
      "lat": 23.61141409999999,
      "lng": 87.1136474,
      "open_now": true
    },
    {
      "place_id": "ChIJ9TVRX8IZ9zkRe7P4NUH7WRs",
      "name": "Petrol Pump BPCL",
      "address": "M28X+8X3, Chanda Jamuria Road",
      "lat": 23.6657621,
      "lng": 87.04991489999999,
      "open_now": true
    },
    {
      "place_id": "ChIJGzMOvgwZ9zkRBOrLIrpKmRc",
      "name": "IndianOil",
      "address": "Ground Floor, Chanda More, Kalipahari, Nigha",
      "lat": 23.666447,
      "lng": 87.04770300000001,
      "open_now": true
    },
    {
      "place_id": "ChIJK8zqbNMZ9zkRx-ASNi_L7Y4",
      "name": "Hindustan Petroleum Corporation Limited",
      "address": "Ground Floor, NH 2, Devchand Nagar, Bogra Chatti",
      "lat": 23.6648768,
      "lng": 87.0567457,
      "open_now": true
    },
    {
      "place_id": "ChIJzfCRfrsZ9zkRxGXuSZBywQg",
      "name": "Hindustan Petroleum Corporation Limited",
      "address": "Ground Floor, NH 2, Kalipahari, Nigha",
      "lat": 23.6697107,
      "lng": 87.03463219999999,
      "open_now": true
    },
    {
      "place_id": "ChIJQfl23lwX9zkRSUnvpu3ikPM",
      "name": "Indian Oil",
      "address": "India",
      "lat": 23.6610048,
      "lng": 87.07127349999999,
      "open_now": null
    },
    {
      "place_id": "ChIJXSQ2FwAX9zkR-6cZ98NqbZk",
      "name": "FUEL XPRESS",
      "address": "M36C+G7G, NH19",
      "lat": 23.6610434,
      "lng": 87.0712728,
      "open_now": true
    },
    {
      "place_id": "ChIJu18LiPsb9zkRgY0RTNAqdU4",
      "name": "Indian oil",
      "address": "H28F+MWW, Kastara",
      "lat": 23.5667324,
      "lng": 87.0248364,
      "open_now": null
    },
    {
      "place_id": "ChIJNTKPKwAb9zkRjf0TxTjrO2Q",
      "name": "Hindustan Petroleum Corporation Limited",
      "address": "Ground Floor, Saltora - Mejia Road, Kastora, Bankura",
      "lat": 23.561134,
      "lng": 87.0279124,
      "open_now": true
    },
    {
      "place_id": "ChIJFfffdXQX9zkR5Nd-YU7uVJc",
      "name": "IndianOil",
      "address": "Floor 130/5 Mile, Ground, GT Road, NH 2, Satgram, Behala, Bardhaman",
      "lat": 23.653492,
      "lng": 87.08746599999999,
      "open_now": true
    },
    {
      "place_id": "ChIJXc11oCYb9zkRyvOuf21ivgo",
      "name": "IndianOil",
      "address": "Ground Floor, Saltora Mejia Road Sadhana Rangamat, Pabra, More, Ardhagram",
      "lat": 23.560793,
      "lng": 87.017258,
      "open_now": true
    },
    {
      "place_id": "ChIJQ4EdWgAR9zkRZ_9tCeQSxZo",
      "name": "HP Petroleum, CNG & EV Station",
      "address": "J4J6+4P4, Searsole Rajbari, Raniganj",
      "lat": 23.6302744,
      "lng": 87.1118134,
      "open_now": null
    },
    {
      "place_id": "ChIJBQJoOhAR9zkRjoAM4dFeGpg",
      "name": "IndianOil",
      "address": "Raniganj",
      "lat": 23.6040923,
      "lng": 87.1112676,
      "open_now": true
    },
    {
      "place_id": "ChIJacCyf_UZ9zkR1gXzaWjpxgs",
      "name": "Roy Babu",
      "address": "Subham 102, Bogbandhi Road, Asansol",
      "lat": 23.6880502,
      "lng": 87.02055930000002,
      "open_now": null
    },
    {
      "place_id": "ChIJmctXbvUR9zkRkv4Hdu4L9_Q",
      "name": "Hindustan Petroleum Corporation Limited",
      "address": "Ground Floor, Netaji Subhash Road, Raniganj",
      "lat": 23.6158201,
      "lng": 87.11322009999999,
      "open_now": true
    },
    {
      "place_id": "ChIJXXJLyToR9zkRqI_twtSq_uo",
      "name": "JAYSWAL AUTO SERVICE",
      "address": "near ANJANA CINEMA, 37, NSB Road, WEST, Raniganj",
      "lat": 23.6177525,
      "lng": 87.1137907,
      "open_now": true
    },
    {
      "place_id": "ChIJFT4841vg9jkRi-WWwey9CFc",
      "name": "RAKESH FILLING CENTER",
      "address": "Dishergarh - Maithan Road, State Highway 5, Neamatpur",
      "lat": 23.701171,
      "lng": 86.8678383,
      "open_now": true
    },
    {
      "place_id": "ChIJJVw972_g9jkRxE5vKmB0jJU",
      "name": "IndianOil",
      "address": "Burdwan Division, Lock No 11005 Sitarampur, GT Road, Kultora,Lalganj",
      "lat": 23.718987,
      "lng": 86.873093,
      "open_now": true
    },
    {
      "place_id": "ChIJm80IL24f9zkRa-jYCCK05Wk",
      "name": "Hindustan Petroleum Corporation Limited",
      "address": "33 & 34, Plot No 31, Asansol - Gourandi Road, Bardhaman",
      "lat": 23.7179272,
      "lng": 86.95284629999999,
      "open_now": true
    },
    {
      "place_id": "ChIJW0beyDPh9jkR2Xe-b66zcCc",
      "name": "Joy Ma Manasa Petrol Pump",
      "address": "Hijuli",
      "lat": 23.6678754,
      "lng": 86.8260405,
      "open_now": true
    },
    {
      "place_id": "ChIJZQb3jLjf9jkRaesJaMajP2Q",
      "name": "Petrol Pump",
      "address": "Bardhaman",
      "lat": 23.75694529999999,
      "lng": 86.8751454,
      "open_now": null
    },
    {
      "place_id": "ChIJa0rYwdgh9zkRU7mCDyYLQMs",
      "name": "IndianOil",
      "address": "Ground Floor Nuni, Kanyapur, Barabani",
      "lat": 23.73507,
      "lng": 86.956268,
      "open_now": true
    },
    {
      "place_id": "ChIJ6w-8nmHh9jkR9JlOtFAiX6Q",
      "name": "Hindustan Petroleum Corporation Limited",
      "address": "Ground Floor, New Iisco Connector Road, Aldih, Ranisayar, Asansol",
      "lat": 23.6913834,
      "lng": 86.8853864,
      "open_now": true
    },
    {
      "place_id": "ChIJ33nflqTh9jkRAWQWcd8iEGg",
      "name": "IndianOil",
      "address": "Ground Floor, Aldi, Isko Bypass Rood, Aldi",
      "lat": 23.6919059,
      "lng": 86.8852184,
      "open_now": true
    },
    {
      "place_id": "ChIJoSMOdDPh9jkRn-2uh-ZFQUw",
      "name": "Bharat Petroleum",
      "address": "MVXH+5CQ, IISCO By Pass, NH2 Connector",
      "lat": 23.6979519,
      "lng": 86.8786045,
      "open_now": null
    },
    {
      "place_id": "ChIJ392L6kfh9jkRyFUQvXMNCbc",
      "name": "Bharat Petroleum Petrol Pump , GANDHARIR BENI BHARAT PETROL PUMP",
      "address": "ALDIHPS, Kulti",
      "lat": 23.69708499999999,
      "lng": 86.87444800000002,
      "open_now": true
    },
    {
      "place_id": "ChIJc69QIfUf9zkR1bN7xRtI8zI",
      "name": "R N FILLING STATION",
      "address": "01, Dhemomain Dhemomain Road, Santinagar, Asansol",
      "lat": 23.706349,
      "lng": 86.91314349999999,
      "open_now": null
    },
    {
      "place_id": "ChIJe6eirGgf9zkR5A5kx9SRy1k",
      "name": "M Auto petrol Station",
      "address": "PW47+JF6, Grand Trunk Road, Munshi Bazar, Asansol",
      "lat": 23.7065273,
      "lng": 86.9136556,
      "open_now": null
    },
    {
      "place_id": "ChIJV2E8v7_h9jkR85t51fgs4ZQ",
      "name": "Hindustan Petroleum Corporation Limited",
      "address": "Plot No 1591, Kulti",
      "lat": 23.698289,
      "lng": 86.871862,
      "open_now": true
    },
    {
      "place_id": "ChIJeRyJ8RPg9jkRR9YNQBzFwZs",
      "name": "Hindustan Petroleum Corporation Limited",
      "address": "Ground Floor, Old GT Road, Neamatpur",
      "lat": 23.7147974,
      "lng": 86.88636199999999,
      "open_now": true
    },
    {
      "place_id": "ChIJGy6eTxDh9jkRsNEq9VK1TFE",
      "name": "Bharat Petroleum, Petrol Pump -Bengal Auto Stores",
      "address": "NEAMATPUR. BURDWAN DIST, BARDHAMAN",
      "lat": 23.7157443,
      "lng": 86.8856488,
      "open_now": true
    },
    {
      "place_id": "ChIJbajG46Uf9zkRuXY7GZa8cts",
      "name": "Hindustan Petroleum Corporation Limited",
      "address": "Ground Floor, Grand Trunk Road, Gopalpur, Asansol",
      "lat": 23.69843629999999,
      "lng": 86.9370761,
      "open_now": true
    },
    {
      "place_id": "ChIJ7Ts4iBzh9jkRaXausSf_M-s",
      "name": "MAA Bhavani Fuels",
      "address": "PVC9+C82, Neamatpur",
      "lat": 23.7205603,
      "lng": 86.8681903,
      "open_now": true
    },
    {
      "place_id": "ChIJG6vl24gh9zkRddwVxrhShsw",
      "name": "IndianOil - SWAGAT",
      "address": "Ground Floor, Salanpur, Lalganj, Talberia",
      "lat": 23.7342361,
      "lng": 86.9146904,
      "open_now": true
    },
    {
      "place_id": "ChIJPbry4Ibg9jkR9kpRgbk1kM8",
      "name": "Reliance Petroleum",
      "address": "Grand Trunk Road",
      "lat": 23.7240314,
      "lng": 86.8594518,
      "open_now": true
    },
    {
      "place_id": "ChIJD8XUsvUh9zkRXtSU0TDdEgU",
      "name": "Hindustan Petroleum Corporation Limited",
      "address": "Ground Floor, NH 2, Talberia",
      "lat": 23.73313929999999,
      "lng": 86.9183053,
      "open_now": true
    },
    {
      "place_id": "ChIJ38yA3dXh9jkRuvPEiggnT5s",
      "name": "IndianOil",
      "address": "Ground Floor, Chhoto Dhemo, Kulti, Dishergarh",
      "lat": 23.697033,
      "lng": 86.843178,
      "open_now": true
    },
    {
      "place_id": "ChIJD5P3rAUf9zkRnpcaXDCctg8",
      "name": "IndianOil",
      "address": "No 139Mp, Lock, 21002, Grand Trunk Road, Court More, Asansol",
      "lat": 23.694914,
      "lng": 86.94949299999999,
      "open_now": true
    },
    {
      "place_id": "ChIJ44FZp5sh9zkRLIywEooJqT0",
      "name": "Jyoti Highway Plaza",
      "address": "Public School, opposite Delhi, NH2, Talberia",
      "lat": 23.7354088,
      "lng": 86.9139522,
      "open_now": null
    },
    {
      "place_id": "ChIJF3wM8Hzh9jkRvSduNn-dXOQ",
      "name": "Loknath filling station",
      "address": "SH 5",
      "lat": 23.6970648,
      "lng": 86.8428757,
      "open_now": true
    },
    {
      "place_id": "ChIJ5RO2Gwcf9zkRuGKHTOhqZCQ",
      "name": "IndianOil",
      "address": "Grand Trunk Road, Burnpur, Asansol",
      "lat": 23.694352,
      "lng": 86.950628,
      "open_now": true
    },
    {
      "place_id": "ChIJeU5aqNnf9jkRYK2cyyXI2Hc",
      "name": "Bharat Petroleum",
      "address": "India",
      "lat": 23.7354314,
      "lng": 86.87459199999999,
      "open_now": null
    },
    {
      "place_id": "ChIJc-CsEiDf9jkRbH-BAssoXEs",
      "name": "Maa Bagala Fuel Station",
      "address": "PVPF+6R, Chalbalpur",
      "lat": 23.7355129,
      "lng": 86.8745057,
      "open_now": true
    },
    {
      "place_id": "ChIJ88uG2gQf9zkR6xeYG04iSYg",
      "name": "Hindustan Petroleum Corporation Limited",
      "address": "Ground Floor, Shaheed Bhagat Singh Chowk, Asansol",
      "lat": 23.6940883,
      "lng": 86.9516072,
      "open_now": true
    },
    {
      "place_id": "ChIJwTwvB_vf9jkRmKa1D3lHqUQ",
      "name": "Hindustan Petroleum Corporation Limited",
      "address": "Ground Floor, near Debjyoti Pulp And Paper Factory, NH 2, Miliakhola",
      "lat": 23.7409501,
      "lng": 86.8948715,
      "open_now": true
    },
    {
      "place_id": "ChIJjQSNm8wf9zkRxHEOv8MN7F0",
      "name": "IndianOil",
      "address": "Ground Floor, NH 2, Bypass, Kanyapur, Asansol",
      "lat": 23.7065923,
      "lng": 86.94989179999999,
      "open_now": true
    },
    {
      "place_id": "ChIJIWhH6fUf9zkRUuoNKUJ9JrM",
      "name": "Burnpur Petroleum",
      "address": "Shtabdi Park Lower, Chelidanga Main Road, Asansol",
      "lat": 23.6920541,
      "lng": 86.95737280000002,
      "open_now": null
    },
    {
      "place_id": "ChIJhd7vBG4f9zkRa1O_Gt4j-cI",
      "name": "IndianOil",
      "address": "NH 2 Bypass, Kanyapur",
      "lat": 23.716195,
      "lng": 86.953141,
      "open_now": true
    },
    {
      "place_id": "ChIJJ5aleADh9jkRWsFt7bJv2dQ",
      "name": "Hindustan Petroleum Corporation Limited",
      "address": "Ground Floor, State Highway 5, Sanctoria",
      "lat": 23.697235,
      "lng": 86.83172309999999,
      "open_now": true
    },
    {
      "place_id": "ChIJCUNqXxUf9zkR1jDYCrjYVDE",
      "name": "Bharat Petroleum, Petrol Pump -Bharat Automobiles",
      "address": "NH2, ASANSOL BYE-PASS, Palasdiha",
      "lat": 23.7164509,
      "lng": 86.9557154,
      "open_now": true
    },
    {
      "place_id": "ChIJ-4qsQssf9zkRlyJBq-Rz2Tg",
      "name": "Indian oil petrol pump-Tarakeswar Filling Station",
      "address": "PALASHDIHA Road Road, Panchgachia",
      "lat": 23.7195088,
      "lng": 86.9541988,
      "open_now": true
    },
    {
      "place_id": "ChIJm4LjCsff9jkRbb2_E_7RQWY",
      "name": "Hindustan Petroleum Corporation Limited",
      "address": "Ground Floor, NH 2, Marichkota, Khudika",
      "lat": 23.7540503,
      "lng": 86.8750721,
      "open_now": true
    },
    {
      "place_id": "ChIJQYiD_QDf9jkRSsSRUCXzlZ4",
      "name": "Ruma Highway petroleum",
      "address": "near MVI checkpost, Mouza, Rampur NH2, Khudika",
      "lat": 23.7541876,
      "lng": 86.8751066,
      "open_now": true
    },
    {
      "place_id": "ChIJscVmfL8Y9zkR1f0avHJK-k4",
      "name": "IndianOil",
      "address": "Ground Floor, Kalla Road, Kalibazar, Bardhaman",
      "lat": 23.710842,
      "lng": 86.999352,
      "open_now": true
    },
    {
      "place_id": "ChIJl6N1k5gY9zkRNbGko1rIqe4",
      "name": "IndianOil",
      "address": "Ground Floor, Domohani Road, Charanpur, Asansol",
      "lat": 23.7266001,
      "lng": 87.003495,
      "open_now": true
    },
    {
      "place_id": "ChIJi_PCLNsY9zkRgG72ehfPWc0",
      "name": "Asansol Pump Station,HMRBPL, Indian Oil",
      "address": "MXXX+3G6, C H Kalla, Asansol",
      "lat": 23.6976617,
      "lng": 86.9987536,
      "open_now": null
    },
    {
      "place_id": "ChIJJxBpESAZ9zkRpcEqCbVFWn4",
      "name": "IndianOil",
      "address": "NH 2, Paschim Bardhaman, Ghagorbudi",
      "lat": 23.6862593,
      "lng": 87.00155579999999,
      "open_now": true
    },
    {
      "place_id": "ChIJ39qPTjEh9zkRkC7GBlUgIY0",
      "name": "IndianOil",
      "address": "Ground Floor Asansol, Paschim Bardhaman, NH 2, Kanyapur, Raniganj",
      "lat": 23.7437076,
      "lng": 86.9525343,
      "open_now": true
    },
    {
      "place_id": "ChIJm7QTm54X9zkRJ1EIbQXrFnw",
      "name": "Petrol Pump",
      "address": "M3RH+X8M, Jamuria, Asansol",
      "lat": 23.6924517,
      "lng": 87.07828409999999,
      "open_now": null
    },
    {
      "place_id": "ChIJ4TCAMwkX9zkRAg4GXlbBoEU",
      "name": "BIHARIJI AUTO SERVICE STATION (Indianoil Petrol Pump)",
      "address": "Taltore",
      "lat": 23.6884498,
      "lng": 87.0835682,
      "open_now": true
    },
    {
      "place_id": "ChIJyQ-k15IX9zkRoVL07z8YdKg",
      "name": "Hindustan Petroleum Corporation Limited",
      "address": "Ground Floor, Thana More, Jamuria Hat",
      "lat": 23.7114063,
      "lng": 87.0747907,
      "open_now": true
    },
    {
      "place_id": "ChIJS9uVj3EX9zkRzqw_BGTbC44",
      "name": "Bharat Petroleum, Petrol Pump -Babulal Krishnagopal",
      "address": "Jamuria, Asansol",
      "lat": 23.7048095,
      "lng": 87.0806046,
      "open_now": true
    },
    {
      "place_id": "ChIJoRryQQAj9zkR7P5rWkeikMw",
      "name": "BPCL PETROL PUMP",
      "address": "P2VQ+V35, Domohani - Jamuria Road, Jamuria, Asansol",
      "lat": 23.744644,
      "lng": 87.03773989999999,
      "open_now": null
    },
    {
      "place_id": "ChIJ-ZM3R-wj9zkRYCC_j9bFxvE",
      "name": "SHOBHA FILLING STATION",
      "address": "P2VQ+V4, Madantor",
      "lat": 23.7447131,
      "lng": 87.0377694,
      "open_now": true
    },
    {
      "place_id": "ChIJ8WztTX0i9zkRbV322o8VmVE",
      "name": "Bharat Petroleum",
      "address": "P2WC+GPJ, Nazrul Sarani Road, Domohani Bazar",
      "lat": 23.7463394,
      "lng": 87.02177569999999,
      "open_now": null
    },
    {
      "place_id": "ChIJlbWaUDIj9zkRM6FenIc0y_Y",
      "name": "Hemkunja Filling Station",
      "address": "Asansol, Domohani Road, Domohani Bazar",
      "lat": 23.746406,
      "lng": 87.02188989999999,
      "open_now": true
    },
    {
      "place_id": "ChIJMWKVJw0X9zkR2uLmydSk_aM",
      "name": "Hindustan Petroleum Corporation Limited",
      "address": "Plot No 189, P Ranisayer Road, Jamuria",
      "lat": 23.6713565,
      "lng": 87.09787709999999,
      "open_now": true
    },
    {
      "place_id": "ChIJVWvHLGMX9zkRJWezR57KANA",
      "name": "M/S Garg family fuel station",
      "address": "near gagan ferrotech, Jamuria Road, Sekhpur",
      "lat": 23.6981413,
      "lng": 87.1088762,
      "open_now": true
    },
    {
      "place_id": "ChIJK5kGpVEW9zkRkH6DXXLp9-o",
      "name": "Indian Oil",
      "address": "M4X5+8JH, Jamuria Road",
      "lat": 23.6983225,
      "lng": 87.1091064,
      "open_now": null
    },
    {
      "place_id": "ChIJEwJwUeYj9zkRTjM4tpFDF2k",
      "name": "Babu Gromo",
      "address": "Q26H 3WJ, Domohani Bazar",
      "lat": 23.7599952,
      "lng": 87.0310367,
      "open_now": null
    },
    {
      "place_id": "ChIJo5DEVajf9jkRT-IIqS8uAkI",
      "name": "IndianOil",
      "address": "Ground Floor, Dendua Sitarampur, Rupnarayanpur Road, Salanpur",
      "lat": 23.77651,
      "lng": 86.870064,
      "open_now": true
    },
    {
      "place_id": "ChIJTwX6fQHe9jkRUPio5ilQLwI",
      "name": "IndianOil",
      "address": "Ground Floor, Grand Trunk Road, Barakar",
      "lat": 23.734554,
      "lng": 86.826653,
      "open_now": true
    },
    {
      "place_id": "ChIJI_djvLnf9jkRdEnOlVtjPoI",
      "name": "Hindustan Petroleum Corporation Limited",
      "address": "Ground Floor, Chittaranjan - Neamatpur Road, Salanpur",
      "lat": 23.7598705,
      "lng": 86.8740514,
      "open_now": true
    },
    {
      "place_id": "ChIJrc_931Lf9jkRqsChDlp6K2s",
      "name": "IndianOil",
      "address": "Plot No 341, Khatian 806 & 807, 345 & 346, Salanpur",
      "lat": 23.770598,
      "lng": 86.870668,
      "open_now": true
    },
    {
      "place_id": "ChIJxZqUoYbf9jkRz8f3PSu92wU",
      "name": "JAY BABA GHANSHYAM FUEL",
      "address": "CHITTRANJAN ROAD, SALANPUR , DENDUA, Asansol",
      "lat": 23.7709916,
      "lng": 86.87024869999999,
      "open_now": true
    },
    {
      "place_id": "ChIJq-LDhVHe9jkRzfH81tJbomA",
      "name": "IndianOil",
      "address": "Ground Floor, Jamaldih NH 2, Kulti, Kalyaneshwari",
      "lat": 23.769032,
      "lng": 86.8576001,
      "open_now": true
    },
    {
      "place_id": "ChIJBaxAyfUg9zkRut6KhOiKyE8",
      "name": "মীরা সেপ্টিক ট্যাংক",
      "address": "India",
      "lat": 23.7829388,
      "lng": 86.9263541,
      "open_now": null
    },
    {
      "place_id": "ChIJ02BqhFHe9jkR9uzgHe3bK-k",
      "name": "Amal Bikash Service Station.",
      "address": "Amal Bikash Service Station, NH2 Bye Pass Road, Jamaldhi",
      "lat": 23.76955749999999,
      "lng": 86.8568909,
      "open_now": true
    },
    {
      "place_id": "ChIJm7MhX4Lf9jkRq99VCY-3Guc",
      "name": "IndianOil",
      "address": "Khatian No 704/1, J L No 32 Plot No 344/P, Jemari, Achra",
      "lat": 23.795732,
      "lng": 86.87206900000001,
      "open_now": true
    },
    {
      "place_id": "ChIJ6Wny3i7f9jkR83_Bz6aGj90",
      "name": "Bharat Petroleum, Petrol Pump -B N Ojha",
      "address": "Rupnarayanpur Road, Paschim Bardhaman",
      "lat": 23.8006711,
      "lng": 86.87313259999999,
      "open_now": true
    },
    {
      "place_id": "ChIJD6wcOS3f9jkRJP1Qm3pbE8U",
      "name": "IndianOil",
      "address": "Lock No 13016 NH 2, Bypass, Debipur",
      "lat": 23.770297,
      "lng": 86.84189099999999,
      "open_now": true
    },
    {
      "place_id": "ChIJr3i_Kj7f9jkRASCer0fDgTk",
      "name": "Pollution centre",
      "address": "RV5G+3J5, Chittaranjan - Neamatpur Road, Asansol",
      "lat": 23.80764079999999,
      "lng": 86.87662040000001,
      "open_now": null
    },
    {
      "place_id": "ChIJYVpIaWff9jkRj1AV_shia1c",
      "name": "IndianOil",
      "address": "Khatian No 12791264, City Centre, Plot No 4066, JL 26, Nakrajuria, Salanpur",
      "lat": 23.7771992,
      "lng": 86.8425635,
      "open_now": true
    },
    {
      "place_id": "ChIJWXMXNAAh9zkR4OWpa2iiz2w",
      "name": "Indian Oil Petrol Pump",
      "address": "RW66+C6, Kankurkunda",
      "lat": 23.8102075,
      "lng": 86.9106068,
      "open_now": true
    },
    {
      "place_id": "ChIJs8w4XQgh9zkRJs6HdIYudXI",
      "name": "IndianOil",
      "address": "Ground Floor, Amdiha More, Barabani, Lalganj, Amdiha",
      "lat": 23.78326800000001,
      "lng": 86.953796,
      "open_now": true
    },
    {
      "place_id": "ChIJYzxUrHre9jkRXGBCpYJPPWk",
      "name": "Sitaram Auto Service",
      "address": "NH2, Byepass Road, Delhi - Kolkata Highway, Kalyaneswari",
      "lat": 23.7671153,
      "lng": 86.8319118,
      "open_now": true
    },
    {
      "place_id": "ChIJ4W9j4Qgh9zkRim_D8nB09jM",
      "name": "Hindustan Petroleum Corporation Limited",
      "address": "Ground Floor, Lalganj, Barabani, Amdiha",
      "lat": 23.7851643,
      "lng": 86.9547927,
      "open_now": true
    },
    {
      "place_id": "ChIJk95v05Xf9jkRFoDvT5USVgE",
      "name": "Hindusthan Filling Station",
      "address": "Jharkhand, Road, Rupnarayanpur",
      "lat": 23.8179114,
      "lng": 86.88540979999999,
      "open_now": true
    },
    {
      "place_id": "ChIJGeiaVgAh9zkR_G6vZhWpqxQ",
      "name": "Balia",
      "address": "QXH5+6XR, Baliapur",
      "lat": 23.778119,
      "lng": 86.95990549999999,
      "open_now": null
    },
    {
      "place_id": "ChIJZczFotnd9jkR2eEDE0YQ1fg",
      "name": "Hindustan Petroleum Corporation Limited",
      "address": "Ground Floor, NH 2, Barh Jorh, Maithon",
      "lat": 23.7640801,
      "lng": 86.8183701,
      "open_now": true
    },
    {
      "place_id": "ChIJW2mMl1gh9zkRgaI86LW9U0s",
      "name": "IndianOil",
      "address": "Ground Floor Barabani, Panuria, Gourangadih, Jamgram",
      "lat": 23.812807,
      "lng": 86.981918,
      "open_now": true
    },
    {
      "place_id": "ChIJTdA0r4kh9zkRvuCDT4REXAI",
      "name": "IndianOil",
      "address": "Ground Floor Panuria, Barabani",
      "lat": 23.8114664,
      "lng": 86.9724392,
      "open_now": true
    },
    {
      "place_id": "ChIJUSZwBwAj9zkRgLz0nzpTwa8",
      "name": "Indian oil",
      "address": "Q27H+M39, Kelejora",
      "lat": 23.7641651,
      "lng": 87.0277282,
      "open_now": null
    },
    {
      "place_id": "ChIJQ_sRk6Aj9zkR3pqn79LjHFE",
      "name": "Hindustan Petroleum Corporation Limited",
      "address": "Ground Floor, Goradih Road, Domohani Bazar",
      "lat": 23.802091,
      "lng": 87.021311,
      "open_now": true
    }
  ]
}