{
  "city": "Bongaon",
  "state": "West Bengal",
  "count": 199,
  "center": {
    "lat": 22.7833,
    "lng": 88.3667
  },
  "pumps": [
    {
      "place_id": "ChIJLbUZ-3CD-DkRz8KAhwvLMTU",
      "name": "Hindustan Petroleum Corporation Limited",
      "address": "Ground Floor, NH 2, Durgapur Expressway, Dankuni",
      "lat": 22.6917689,
      "lng": 88.291815,
      "open_now": true
    },
    {
      "place_id": "ChIJtbITcheD-DkRFuAxll9NO5I",
      "name": "Hindustan Petroleum Corporation Limited",
      "address": "Ground Floor, NH 2, Durgapur Expressway, Dankuni",
      "lat": 22.6716987,
      "lng": 88.30133699999999,
      "open_now": true
    },
    {
      "place_id": "ChIJ-QgodkmE-DkRTGSkgnEcEL0",
      "name": "Hindustan Petroleum Corporation Limited",
      "address": "Ground Floor, NH 2, Durgapur Expressway, Joykrishnapur",
      "lat": 22.7466101,
      "lng": 88.2680201,
      "open_now": true
    },
    {
      "place_id": "ChIJoRCWUPqD-DkR_tEII-QoCC4",
      "name": "IndianOil",
      "address": "Ground Floor Kalachara, Mahesh 1, Serampore, Chanditala",
      "lat": 22.6972001,
      "lng": 88.2539001,
      "open_now": true
    },
    {
      "place_id": "ChIJ2XfqYSib-DkRTU6HC1-hgTM",
      "name": "Hindustan Petroleum Corporation Limited",
      "address": "Ground Floor, Grand Trunk Road, Serampore, Chinsurah",
      "lat": 22.7513301,
      "lng": 88.3325701,
      "open_now": true
    },
    {
      "place_id": "ChIJOXDkONSa-DkRqFDmQAirEo0",
      "name": "IndianOil",
      "address": "24 GT Road, Bahir Serampore Road",
      "lat": 22.75809,
      "lng": 88.32767299999999,
      "open_now": true
    },
    {
      "place_id": "ChIJ6zra8xCb-DkRMGOaNcyH-u4",
      "name": "Bharat Petroleum -Mukherjee Service Station",
      "address": "224/A, Grand Trunk Road, Mahesh Masirbari, Serampore",
      "lat": 22.74081109999999,
      "lng": 88.3504966,
      "open_now": true
    },
    {
      "place_id": "ChIJpUXrfhqb-DkR4u54-5WqZx0",
      "name": "Hindustan Petroleum Corporation Limited",
      "address": "Ground Floor, Grand Trunk Road, Mahesh, Serampore",
      "lat": 22.7427901,
      "lng": 88.350501,
      "open_now": true
    },
    {
      "place_id": "ChIJh_fQIY-c-DkR798F4iOHhDg",
      "name": "Bharat Petroleum Dharsa Petrol Pump",
      "address": "Hindmotor, Konnagar",
      "lat": 22.6922277,
      "lng": 88.3566973,
      "open_now": true
    },
    {
      "place_id": "ChIJnz7OGd2C-DkRecHl-0VY5t4",
      "name": "IndianOil",
      "address": "Ground Floor, NH 6, Jaipurbill, Liluah, Anandanagar",
      "lat": 22.648166,
      "lng": 88.3060982,
      "open_now": true
    },
    {
      "place_id": "ChIJd6RrqMSF-DkREaeeUvo0oJw",
      "name": "IndianOil",
      "address": "Ground Floor, Singur Durgapur Expressway, NH 2, Borai, Bara Kamalapur",
      "lat": 22.770962,
      "lng": 88.256315,
      "open_now": true
    },
    {
      "place_id": "ChIJZ5b3OwCF-DkRxjAiLUGkpwc",
      "name": "Bharat Petroleum - Sanjay Energy Station",
      "address": "P872+2V6, Bhadua",
      "lat": 22.7125348,
      "lng": 88.30215299999999,
      "open_now": true
    },
    {
      "place_id": "ChIJ60yzbACF-DkRc3Wx-t2z8kY",
      "name": "Petrol Pump",
      "address": "P862+7MQ, Delhi Road, Rishra, Simla",
      "lat": 22.7107091,
      "lng": 88.30174029999999,
      "open_now": null
    },
    {
      "place_id": "ChIJQSk_NgCF-DkRwUzmANQe1kk",
      "name": "Bharst Petrolium",
      "address": "P872+4XM, Delhi Road, Mollaber Village, Bhadua",
      "lat": 22.712503,
      "lng": 88.302441,
      "open_now": null
    },
    {
      "place_id": "ChIJ8zcA352E-DkRyiuRLmYFnW0",
      "name": "Hindustan Petroleum Corporation Limited",
      "address": "Ground Floor, Primary School, near Bhadua, Delhi Road, Mollaber Village, Hooghly",
      "lat": 22.70804009999999,
      "lng": 88.2995301,
      "open_now": true
    },
    {
      "place_id": "ChIJm0rBWACF-DkRp06SgWVv9uI",
      "name": "Bharat Petroleum",
      "address": "P852+FCQ, Chakundi, Konnagar, Satghara",
      "lat": 22.708628,
      "lng": 88.30098,
      "open_now": null
    },
    {
      "place_id": "ChIJ52lvHgCF-DkRK962eWOaMOw",
      "name": "DEF FLUID",
      "address": "SH 2, Mamunali, Konnagar, Bamunari",
      "lat": 22.7147681,
      "lng": 88.3037566,
      "open_now": null
    },
    {
      "place_id": "ChIJCWt_VbyE-DkRvm8jVJMEguo",
      "name": "IndianOil",
      "address": "Ground Floor, Delhi Road, Bamunari, Dankuni",
      "lat": 22.721394,
      "lng": 88.30688099999999,
      "open_now": true
    },
    {
      "place_id": "ChIJBeziJgCF-DkR8r5Sn3ZZTIU",
      "name": "TATA GENUINE DEF STATION",
      "address": "toll plaza, Durgapur Expressway, Gobra, Dankuni",
      "lat": 22.7062724,
      "lng": 88.2851508,
      "open_now": true
    },
    {
      "place_id": "ChIJH4zFgkKF-DkRHigPbfhszfs",
      "name": "EXCEL HIGHWAY SERVICE",
      "address": "P8C4+JXP, State Highway 2, Mollaber Village, Bamunari",
      "lat": 22.72159749999999,
      "lng": 88.3074441,
      "open_now": null
    },
    {
      "place_id": "ChIJr8FnoWWD-DkRyJeyyqnu2_0",
      "name": "IndianOil",
      "address": "Ground Floor, Delhi Road, Chakundi, Pardankuni",
      "lat": 22.69591,
      "lng": 88.297234,
      "open_now": true
    },
    {
      "place_id": "ChIJzfwCJf2D-DkRpxCqe6-jxtY",
      "name": "Morcha Pump Dankuni",
      "address": "M7RR+RM5, Monoharpur, Gobra, Dankuni",
      "lat": 22.6920014,
      "lng": 88.29174359999999,
      "open_now": null
    },
    {
      "place_id": "ChIJA46DOQCD-DkR6h86NB5B5cc",
      "name": "Dankuni fill-ni centre",
      "address": "NH19, Monoharpur, Gobra, Dankuni",
      "lat": 22.6920768,
      "lng": 88.2910141,
      "open_now": true
    },
    {
      "place_id": "ChIJ298jfnGD-DkR9AA-8KZ5ows",
      "name": "Dankuni Fill In Centre",
      "address": "Ground Floor, NH 2, Durgapur Expressway, Dankuni",
      "lat": 22.6919546,
      "lng": 88.29131919999999,
      "open_now": true
    },
    {
      "place_id": "ChIJU6OzLgCD-DkRJ5CZJN5I0T4",
      "name": "TATA. AD BLUE DEF (URIA)",
      "address": "M8P3+HF3, Housing Estate Colony, Dankuni",
      "lat": 22.6863056,
      "lng": 88.30391519999999,
      "open_now": null
    },
    {
      "place_id": "ChIJTYriPkqF-DkRGoO-VSITJsM",
      "name": "Krishna Bhavan",
      "address": "Unnamed Road, Chikrand",
      "lat": 22.71601060000001,
      "lng": 88.2615125,
      "open_now": null
    },
    {
      "place_id": "ChIJr2RAcZKd-DkROpd4rjpQUrs",
      "name": "Arush Service Centre",
      "address": "83, Naity Road, Chakraborty Nagar, Hooghly",
      "lat": 22.7021251,
      "lng": 88.33039289999999,
      "open_now": null
    },
    {
      "place_id": "ChIJA0PG5BSD-DkRKsMSkb1WcBA",
      "name": "IndianOil",
      "address": "Ground Floor, Delhi Road, Dankuni",
      "lat": 22.680571,
      "lng": 88.3018201,
      "open_now": true
    },
    {
      "place_id": "ChIJOa3MopeD-DkRAPmpa1ZBUwU",
      "name": "IndianOil",
      "address": "Ground Floor Ahalyabai Road, Kalipur, Garalgacha",
      "lat": 22.684361,
      "lng": 88.27402599999999,
      "open_now": true
    },
    {
      "place_id": "ChIJUVFkRJOD-DkRHIsMah0hiqM",
      "name": "Chandimata Auto Service",
      "address": "M7Q8+HHP, Kalipur Garal Gacha Chanditala Near Auto Palace, Station Pally, Dankuni,Hooghly",
      "lat": 22.688964,
      "lng": 88.266448,
      "open_now": true
    },
    {
      "place_id": "ChIJDWIntCGD-DkR6vTtjdR5K98",
      "name": "Akash filling station",
      "address": "M7GW+7HW, Dankuni",
      "lat": 22.6757457,
      "lng": 88.296463,
      "open_now": true
    },
    {
      "place_id": "ChIJbWqhF4yD-DkROXy8X9CXTA8",
      "name": "IndianOil",
      "address": "Ground Floor, SH 15, Chanditala",
      "lat": 22.6945316,
      "lng": 88.25872489999999,
      "open_now": true
    },
    {
      "place_id": "ChIJzRS4FwCF-DkRcXwrjVhx_14",
      "name": "TATA DEF STATION ⛽ টাটা ডেপ এসটেসন",
      "address": "P7V9+XJ2, Joykrishnapur",
      "lat": 22.7448816,
      "lng": 88.2690284,
      "open_now": null
    },
    {
      "place_id": "ChIJLbgllhOb-DkRXE2_OCK6L8E",
      "name": "Arabinda Fuels",
      "address": "Ghoramara Road, Serampore",
      "lat": 22.736091,
      "lng": 88.33349969999999,
      "open_now": true
    },
    {
      "place_id": "ChIJWRuiGgCb-DkR_9nXzRsNFok",
      "name": "Indian Oil",
      "address": "D18, Nayabasti, Natun Gram, Rishra, Chinsurah",
      "lat": 22.735993,
      "lng": 88.3335935,
      "open_now": null
    },
    {
      "place_id": "ChIJW5J0pimF-DkRMbSLLOha7KM",
      "name": "Banik Filling Station",
      "address": "S, NH2 Byepass, Delhi Road, Serampore, Dakshin Rajyadharpur",
      "lat": 22.7501118,
      "lng": 88.31833619999999,
      "open_now": true
    },
    {
      "place_id": "ChIJ-1YkSwCF-DkRtuFg43aem3k",
      "name": "DEF W.B AD BIUE",
      "address": "P7W9+V7V, Durgapur Expressway, Bhastara",
      "lat": 22.7472495,
      "lng": 88.2681691,
      "open_now": null
    },
    {
      "place_id": "ChIJUeO1JNaD-DkRp0_VBgehIYg",
      "name": "PRADIP",
      "address": "Belanagar, Howrah",
      "lat": 22.6696704,
      "lng": 88.3066953,
      "open_now": null
    },
    {
      "place_id": "ChIJE-_zpCmb-DkR71SdjeEsWxM",
      "name": "Bharat Petroleum, Petrol Pump -B.Dey (I)Pvt. Ltd",
      "address": "Grand Trunk Road, Serampore",
      "lat": 22.751669,
      "lng": 88.330398,
      "open_now": true
    },
    {
      "place_id": "ChIJM-wTmMqa-DkRlhUv1iKS-3Q",
      "name": "Mishra Brothers",
      "address": "138, Grand Trunk Road, Ghosh Para, Sheoraphuli, Dakshin Rajyadharpur",
      "lat": 22.7517787,
      "lng": 88.3313945,
      "open_now": true
    },
    {
      "place_id": "ChIJEWjHBS-F-DkRRuiM0nPTgSg",
      "name": "IndianOil",
      "address": "No 869/B, A/1, Pearapur Road, Shrirampur, Antisara",
      "lat": 22.7637888,
      "lng": 88.3160623,
      "open_now": true
    },
    {
      "place_id": "ChIJK8ikHe2b-DkRB8g7fwN-mxQ",
      "name": "Reliance Petroleum",
      "address": "No 100, 13, Grand Trunk Road, Bagkhal, Rishra, Hooghly",
      "lat": 22.7157401,
      "lng": 88.3547901,
      "open_now": true
    },
    {
      "place_id": "ChIJl9YweayD-DkRZunjsQvCZeM",
      "name": "G.S. Engineering",
      "address": "M76J+P27, Bhaighachi, Jagadishpur, Howrah",
      "lat": 22.6617972,
      "lng": 88.2800338,
      "open_now": null
    },
    {
      "place_id": "ChIJQROPCgCD-DkRGdfrsfm-Q3c",
      "name": "Annapurna Service Station",
      "address": "Baigachi, Jagadishpur, Howrah",
      "lat": 22.6621614,
      "lng": 88.2786417,
      "open_now": true
    },
    {
      "place_id": "ChIJU0si9qyD-DkRn0H0-nl_qgA",
      "name": "IndianOil",
      "address": "Ground Floor Baigachi, Jagadishpur, Howrah",
      "lat": 22.6613395,
      "lng": 88.2785787,
      "open_now": true
    },
    {
      "place_id": "ChIJiVQJPvyb-DkR4NGyWXB1j14",
      "name": "IndianOil",
      "address": "12 GT Road, Indira Gandhi Road, Hatirkul, Konnagar, Kolkata",
      "lat": 22.7094017,
      "lng": 88.3562967,
      "open_now": true
    },
    {
      "place_id": "ChIJXxg4ydqc-DkRnJHg85yc7nw",
      "name": "Hindustan Petroleum Corporation Limited",
      "address": "Ground Floor, near Birla More, Makhla",
      "lat": 22.6700978,
      "lng": 88.33516089999999,
      "open_now": true
    },
    {
      "place_id": "ChIJ-dSlzrKG-DkRFf6iTLaWHDI",
      "name": "IndianOil",
      "address": "Ground Floor, Ahilyabai Holkar Road, Chanditala",
      "lat": 22.705954,
      "lng": 88.234901,
      "open_now": true
    },
    {
      "place_id": "ChIJrei-pNiH-DkR6BrvyvaQaD8",
      "name": "Bharat Petroleum Petrol Pump , APNA GHAR",
      "address": "KOTULPUR-ARAMBAG ROADOLD, Benaras Road",
      "lat": 22.7063,
      "lng": 88.2325,
      "open_now": true
    },
    {
      "place_id": "ChIJO4qL2beF-DkRMHf62c644Xk",
      "name": "SAHA SERVICE STATION",
      "address": "870/D Pearapore, Delhi Road, Sheoraphuli",
      "lat": 22.7732874,
      "lng": 88.3127514,
      "open_now": true
    },
    {
      "place_id": "ChIJvbi6_u2c-DkR74fTIGQHVEg",
      "name": "Hindustan Petroleum Corporation Limited",
      "address": "Ground Floor, near Bhadrakali High School, ST Road, Bhadrakali, Hooghly",
      "lat": 22.677401,
      "lng": 88.352901,
      "open_now": true
    },
    {
      "place_id": "ChIJp76Kz3-H-DkR8xKZLUPyE24",
      "name": "Hindustan Petroleum Corporation Limited",
      "address": "Ground Floor, SH 15, Janai",
      "lat": 22.7112293,
      "lng": 88.2277948,
      "open_now": true
    },
    {
      "place_id": "ChIJsbYMjoad-DkRHzqSOzQfpis",
      "name": "IndianOil",
      "address": "Ground Floor, NH 2, Bypass Delhi Road, Bally, Howrah",
      "lat": 22.653051,
      "lng": 88.32951399999999,
      "open_now": true
    },
    {
      "place_id": "ChIJqcfyV8qa-DkR5nX-EkgPlpQ",
      "name": "মুথূট ফিনকর্প",
      "address": "Q8GG+7HM, Sheoraphuli",
      "lat": 22.775716,
      "lng": 88.32643329999999,
      "open_now": null
    },
    {
      "place_id": "ChIJMUo9VvGH-DkRTC5iHWc-uZ8",
      "name": "Hindustan Petroleum Corporation Limited",
      "address": "Ground Floor, SH 15, Baksha",
      "lat": 22.7155647,
      "lng": 88.22248139999999,
      "open_now": true
    },
    {
      "place_id": "ChIJRW00kmed-DkRZZwWaNGzGTs",
      "name": "Shyamol petrol shop",
      "address": "M82H+52F, Nischind, Madhyapara, Bally, Howrah",
      "lat": 22.6504328,
      "lng": 88.32754039999999,
      "open_now": true
    },
    {
      "place_id": "ChIJw7PQc2ub-DkR-xYESb38GJM",
      "name": "Bharat Petroleum, Petrol Pump -Mishra Bros",
      "address": "Market, Grand Trunk Road, Sheoraphuli, Ghosha",
      "lat": 22.7791305,
      "lng": 88.3235523,
      "open_now": true
    },
    {
      "place_id": "ChIJn3DSVVyb-DkROGSMhAoqTA4",
      "name": "Hindustan Petroleum Corporation Limited",
      "address": "Ground Floor, Barrackpore Trunk Road, Sukchar, Khardaha",
      "lat": 22.7099901,
      "lng": 88.3737101,
      "open_now": true
    },
    {
      "place_id": "ChIJC3BkAUuF-DkRuOpH3sHYtts",
      "name": "Hindustan Petroleum Corporation Limited",
      "address": "Ground Floor, Grand Trunk Road, Sheoraphuli, Chinsurah",
      "lat": 22.781201,
      "lng": 88.321801,
      "open_now": true
    },
    {
      "place_id": "ChIJ51HPIL2b-DkRu8J0A2qCWdA",
      "name": "IndianOil",
      "address": "161, Barrackpore Trunk Road, Titagarh, Bishalakshi Ghat",
      "lat": 22.733631,
      "lng": 88.37350599999999,
      "open_now": true
    },
    {
      "place_id": "ChIJL5nO5l6Z-DkRmdnFITzqNBU",
      "name": "IndianOil",
      "address": "Ground Floor, Doperia Village, Khardaha",
      "lat": 22.726468,
      "lng": 88.404442,
      "open_now": true
    },
    {
      "place_id": "ChIJlSCkOk-c-DkRCCgfZzkPgVI",
      "name": "IndianOil",
      "address": "M98H+RV8, 30/2, Barrackpore Trunk Road, Kamarhati, Belghoria, Kolkata",
      "lat": 22.6691306,
      "lng": 88.37667859999999,
      "open_now": true
    },
    {
      "place_id": "ChIJK6RFjVaa-DkRmVOlZLjkzaE",
      "name": "Bharat Petroleum, Petrol Pump -Basu&Co",
      "address": "14, Barrackpore",
      "lat": 22.7620001,
      "lng": 88.3658142,
      "open_now": true
    },
    {
      "place_id": "ChIJp_xFd0yc-DkR98uhguhtggM",
      "name": "Hindustan Petroleum Corporation Limited",
      "address": "16, BT Road, Belghoria, Kolkata",
      "lat": 22.663171,
      "lng": 88.377101,
      "open_now": true
    },
    {
      "place_id": "ChIJRV7_dVqa-DkRF4LU6jMW7f0",
      "name": "Hindustan Petroleum Corporation Limited",
      "address": "59, Ghosh Para Road, Chakraborty Para, Barrackpore",
      "lat": 22.766571,
      "lng": 88.369061,
      "open_now": true
    },
    {
      "place_id": "ChIJ3cgDUrGd-DkR43xGfu54wmM",
      "name": "IndianOil",
      "address": "near Dunlop, No 200B T Road Ashokgarh, near Dunlop, More, Kolkata",
      "lat": 22.6526914,
      "lng": 88.3771165,
      "open_now": true
    },
    {
      "place_id": "ChIJ7Zw8Camd-DkRq3FUxCpgpxY",
      "name": "Onkar Service",
      "address": "58, BARANAGAR, KOLKATA",
      "lat": 22.651363,
      "lng": 88.36550989999999,
      "open_now": true
    },
    {
      "place_id": "ChIJPZ4Mt9ee-DkRWrf7roow9lk",
      "name": "IndianOil",
      "address": "Ground Floor, Sajirhat Jugberia Madhyamgram, Sodepur Road, New Barrakpur",
      "lat": 22.6980072,
      "lng": 88.43909599999999,
      "open_now": true
    },
    {
      "place_id": "ChIJ4_GXcLmd-DkRdcXrB-wA-d8",
      "name": "IndianOil",
      "address": "101/2A, Barrackpore Trunk Road, Baranagar, Kolkata",
      "lat": 22.643871,
      "lng": 88.37820099999999,
      "open_now": true
    },
    {
      "place_id": "ChIJ0bJyM_ub-DkRKhbqTh9NNSI",
      "name": "Bharat Petroleum, Petrol Pump -Paul Chaudhry Bros",
      "address": "BT ROAD, 24PARGANA, (n, KHARDAH",
      "lat": 22.7056959,
      "lng": 88.3743051,
      "open_now": true
    },
    {
      "place_id": "ChIJzcsAGaed-DkRiFxCXuXJm8E",
      "name": "Bharat Petroleum, Petrol Pump -Krishna S/Stn",
      "address": "B.T.ROAD, N24PARGA, PANIHATI",
      "lat": 22.7023182,
      "lng": 88.374442,
      "open_now": true
    },
    {
      "place_id": "ChIJzzQ7K3Gc-DkRpavm1A8DqZw",
      "name": "Hindustan Petroleum Corporation Limited",
      "address": "Ground Floor, Barrackpore Trunk Road, Sodepur, Kolkata",
      "lat": 22.7012401,
      "lng": 88.375001,
      "open_now": true
    },
    {
      "place_id": "ChIJPUVj6XGd-DkR4HVh9WssnNQ",
      "name": "Hindustan Petroleum Corporation Limited",
      "address": "No 46/F, 46f, Barrackpore Trunk Road, Ramkrishna Pally, Panihati, Khardaha",
      "lat": 22.696963,
      "lng": 88.374676,
      "open_now": true
    },
    {
      "place_id": "ChIJHfRuNgCd-DkRcbiRBlx8hvA",
      "name": "Hp Petrol Pump",
      "address": "46f, Barrackpore Trunk Road, Ramkrishna Pally, Panihati, Kolkata",
      "lat": 22.6969451,
      "lng": 88.3746906,
      "open_now": null
    },
    {
      "place_id": "ChIJi-vQCACb-DkRH6KPV6FBbMM",
      "name": "Petrol pump",
      "address": "102b, Barrackpore Trunk Road, Titagarh, Kolkata",
      "lat": 22.7340935,
      "lng": 88.37308829999999,
      "open_now": null
    },
    {
      "place_id": "ChIJi_eEEUCd-DkRDMdVOD_nRiw",
      "name": "CESC power distribution Panihati",
      "address": "M9RF+9XH, Panihati, Khardaha",
      "lat": 22.6909341,
      "lng": 88.3749867,
      "open_now": null
    },
    {
      "place_id": "ChIJDet3uqGb-DkRH59sJszUsbw",
      "name": "Biswajit enterprises",
      "address": "7 no goli, dhan math, Milangarh Road, Sodepur, Kolkata",
      "lat": 22.7114409,
      "lng": 88.3965316,
      "open_now": true
    },
    {
      "place_id": "ChIJeX_PAuCb-DkRHlNRVK1SHeQ",
      "name": "Hindustan Petroleum Corporation Limited",
      "address": "Ground Floor, Bandipur, Doperia Village, Khardaha",
      "lat": 22.730401,
      "lng": 88.40150100000001,
      "open_now": true
    },
    {
      "place_id": "ChIJicuP9k2b-DkRPFdphTRtbH4",
      "name": "Bharat Petroleum, Petrol Pump -Haricharan S/Stn",
      "address": "1,BARRACKPORE, Talpukur, Titagarh, N24",
      "lat": 22.7498906,
      "lng": 88.3716675,
      "open_now": true
    },
    {
      "place_id": "ChIJO12IBgCb-DkRcPR5ihdRerM",
      "name": "Petrol Pump",
      "address": "2, Shitalatala Road, Titagarh, Kolkata",
      "lat": 22.7501043,
      "lng": 88.37220649999999,
      "open_now": null
    },
    {
      "place_id": "ChIJL_kYioKd-DkRLGd_mZpI6c4",
      "name": "Fine Oil",
      "address": "Fine Tark Road, Murshidabad",
      "lat": 22.676444,
      "lng": 88.37629629999999,
      "open_now": null
    },
    {
      "place_id": "ChIJjTpDMwCZ-DkRjeeHl-hXAU8",
      "name": "H.P petrol pump",
      "address": "PCM2+JM6, Kalyani Expressway, Ishwarpur Village, Iswaripur",
      "lat": 22.7342001,
      "lng": 88.40202769999999,
      "open_now": null
    },
    {
      "place_id": "ChIJyeDc4-Cb-DkR-zTLKabrfow",
      "name": "Hindustan Petroleum Corporation Limited",
      "address": "Ground Floor, near Khardah, Kalyani Expressway, Bandipur, Khardaha",
      "lat": 22.7342926,
      "lng": 88.4025727,
      "open_now": true
    },
    {
      "place_id": "ChIJbydohRKb-DkRZik8zjg52og",
      "name": "Madhabi Vandar",
      "address": "Harikati, Talpukur, Titagarh",
      "lat": 22.7518466,
      "lng": 88.3748935,
      "open_now": null
    },
    {
      "place_id": "ChIJzzNBHVSa-DkRFrLjZfzsmnE",
      "name": "Hindustan Petroleum Corporation Limited",
      "address": "Ground, Chiriakhana, Barrackpore",
      "lat": 22.760611,
      "lng": 88.367031,
      "open_now": true
    },
    {
      "place_id": "ChIJX9YfTbee-DkR-6PsWMn7XJ8",
      "name": "Hindustan Petroleum Corporation Limited",
      "address": "Ground Floor, Sodepur Madhyamgram, Road, Ghola, Jugberia, Muragachha",
      "lat": 22.6964314,
      "lng": 88.41623609999999,
      "open_now": true
    },
    {
      "place_id": "ChIJ9X2Kae-d-DkRgq8Ib3qeIKE",
      "name": "Bharat Petroleum, Petrol Pump -Belghoria S/Stn",
      "address": "Barrackpore Trunk Road, Belghoria, Kolkata",
      "lat": 22.6648821,
      "lng": 88.37692849999999,
      "open_now": true
    },
    {
      "place_id": "ChIJ2evtlxSb-DkR4HXgsH2p_J8",
      "name": "Little Flower Shop",
      "address": "49 Lakri Mahal Orderly Bazar, Area, Barrackpore",
      "lat": 22.7665851,
      "lng": 88.3635125,
      "open_now": true
    },
    {
      "place_id": "ChIJHW3q8J2d-DkREY5RvCuA5Lc",
      "name": "Suraj Store",
      "address": "39, Ghola Road, Nandan Nagar, Belghoria, Kolkata",
      "lat": 22.6653422,
      "lng": 88.393101,
      "open_now": null
    },
    {
      "place_id": "ChIJr-IeteGf-DkRH8urYnitnsc",
      "name": "Maa Jagadhatri Fuels",
      "address": "MCWF+V85, Muragachha",
      "lat": 22.6971444,
      "lng": 88.42325009999999,
      "open_now": null
    },
    {
      "place_id": "ChIJJ9I6r7Sd-DkRxTukgyvmnmA",
      "name": "Renaissance Auto LPG Private Limited",
      "address": "M95H+J5R, Beehive Garden, Belghoria, Kolkata",
      "lat": 22.65910329999999,
      "lng": 88.3778882,
      "open_now": null
    },
    {
      "place_id": "ChIJY5dNFwCf-DkRXl-2HEy7x8Y",
      "name": "Bharat petroleum Nimta (Shree Sai service station)",
      "address": "MCF7+RFV, Fatullahpur, Nimta, North Dumdum",
      "lat": 22.674614,
      "lng": 88.413562,
      "open_now": true
    },
    {
      "place_id": "ChIJE5A5IwCf-DkRcqkDTEt5mYo",
      "name": "Petrol pump",
      "address": "toto stand, Uttar pratapgarh, Kalyani Expressway, Fatullahpur, Nimta, North Dumdum",
      "lat": 22.6741685,
      "lng": 88.41371819999999,
      "open_now": null
    },
    {
      "place_id": "ChIJ26BvSrGd-DkRJjLO9Ywuc_Q",
      "name": "Dunlop Filling Station",
      "address": "M93G+3RP, Barrackpore Trunk Road, Dunlop, Bonhooghly Government Colony, Kolkata",
      "lat": 22.6527185,
      "lng": 88.37706709999999,
      "open_now": null
    },
    {
      "place_id": "ChIJJbA3Ocud-DkRQ_32pJFolUE",
      "name": "Hindustan Petroleum Corporation Limited",
      "address": "201, Barrackpore Trunk Road, Kolkata",
      "lat": 22.652321,
      "lng": 88.37771099999999,
      "open_now": true
    },
    {
      "place_id": "ChIJNe-6Uzmd-DkRsf9kkT0FvHA",
      "name": "IndianOil",
      "address": "No 7/2/A, 1, Vivekananda Rd, U B Colony, Jorasanko, Baranagar",
      "lat": 22.651476,
      "lng": 88.368645,
      "open_now": true
    },
    {
      "place_id": "ChIJ4csmnEWf-DkRTWfj3Dx1tng",
      "name": "IndianOil",
      "address": "Ground Floor, Madhyamgram, Kolkata",
      "lat": 22.694768,
      "lng": 88.466719,
      "open_now": true
    },
    {
      "place_id": "ChIJxw1BfZaY-DkROpHd0ez6odE",
      "name": "IndianOil",
      "address": "Ground Floor, Barrackpore Road Barasat, Baluria, Nabapally, Bodai",
      "lat": 22.734364,
      "lng": 88.4650879,
      "open_now": true
    },
    {
      "place_id": "ChIJ-djiHUSf-DkRcHevJ6zMri0",
      "name": "Bharat Petroleum Corporation Ltd - Pal Chowdhury Bros",
      "address": "MFR7+7Q5, Jessore Road, Purbalaya, South Bankimpally, Madhyamgram, Kolkata",
      "lat": 22.6906338,
      "lng": 88.4644907,
      "open_now": true
    },
    {
      "place_id": "ChIJV0Ga1Wqf-DkRpb7gXeFt9UQ",
      "name": "IndianOil",
      "address": "Ground Floor, Doltala Road, Doharia, Madhyamgram, Ganganagar",
      "lat": 22.681008,
      "lng": 88.459807,
      "open_now": true
    },
    {
      "place_id": "ChIJ1elkpByf-DkRYcOpY6v1cuA",
      "name": "HP Petrol Pump - Giani Service Station",
      "address": "NEW Jessore Road, Michel Nagar, Kolkata",
      "lat": 22.673014,
      "lng": 88.444805,
      "open_now": true
    },
    {
      "place_id": "ChIJjSUdCAqi-DkRWpzD-qdrUuo",
      "name": "IndianOil",
      "address": "near Lali Cinema Hall, 730, Krishnanagar Road, Barasat, Kolkata",
      "lat": 22.726685,
      "lng": 88.47917699999999,
      "open_now": true
    },
    {
      "place_id": "ChIJ1crE4gmi-DkREqj06PISNEg",
      "name": "Hindustan Petroleum Corporation Limited",
      "address": "Ground Floor, NH 34, Krishnanagar Road, Barasat, Kolkata",
      "lat": 22.7269987,
      "lng": 88.4798244,
      "open_now": true
    },
    {
      "place_id": "ChIJR4BjXQGf-DkR-q965KjStcE",
      "name": "IndianOil",
      "address": "Ground Floor, NH 34, Gouripur Road, Birati, Kolkata",
      "lat": 22.665588,
      "lng": 88.443965,
      "open_now": true
    },
    {
      "place_id": "ChIJH_MZfKqf-DkR6I5CToseKTQ",
      "name": "Indian Oil",
      "address": "MC5V+R6V, Madhusudan Banerjee Road, Majumder Pada, Motilal Colony, Dum Dum, North Dumdum",
      "lat": 22.6596036,
      "lng": 88.4430555,
      "open_now": null
    },
    {
      "place_id": "ChIJwWPnpZqh-DkR5QMo54dkThg",
      "name": "IndianOil",
      "address": "Ground Floor, Thakurpukur Rd, Barasat, Badu",
      "lat": 22.695503,
      "lng": 88.508667,
      "open_now": true
    },
    {
      "place_id": "ChIJ02Q7s0ie-DkRfShsh7k5Jo0",
      "name": "Bharat Petroleum Corporation Ltd Neoti Highway Service",
      "address": "1 no. airport, National Highway 12, Dum Dum, Kolkata",
      "lat": 22.6423705,
      "lng": 88.43165809999999,
      "open_now": true
    },
    {
      "place_id": "ChIJMVm1tEii-DkRhI4kU8B6DPo",
      "name": "Hindustan Petroleum Corporation Limited",
      "address": "Ground Floor, NH 35, Jessore Road, Murali, Bamangachi",
      "lat": 22.738171,
      "lng": 88.50912100000001,
      "open_now": true
    },
    {
      "place_id": "ChIJS_dGGV6f-DkRcc0yyJFVP-s",
      "name": "Abhijit",
      "address": "340/3/1, NS Road, Kolkata",
      "lat": 22.690841,
      "lng": 88.4352734,
      "open_now": null
    },
    {
      "place_id": "ChIJD1RLkhif-DkRO0Sy68NNmyk",
      "name": "NNPC",
      "address": "171/1, Nabapally, East Kodalia, New Barrakpur, Kolkata",
      "lat": 22.6826526,
      "lng": 88.44690039999999,
      "open_now": true
    },
    {
      "place_id": "ChIJqZ-MRACf-DkRjuIgPPZfXn8",
      "name": "Madhyamgram Petrol Pump",
      "address": "MFV8+XQ8, Madhyamgram, Kolkata",
      "lat": 22.6949125,
      "lng": 88.4669531,
      "open_now": null
    },
    {
      "place_id": "ChIJPcW8UKuY-DkRipJeQdz9vfI",
      "name": "Hindustan Petroleum Corporation Limited",
      "address": "Ground Floor, Rathtala, Barasat, Kolkata",
      "lat": 22.708751,
      "lng": 88.47459099999999,
      "open_now": true
    },
    {
      "place_id": "ChIJEbTdHj2f-DkRKr1p-l9DG5E",
      "name": "Bharat Petroleum, Petrol Pump -Pal Chowdhury Bros",
      "address": "NH-34, N24PARGA, MADHYAMGRAM, Kolkata",
      "lat": 22.6816032,
      "lng": 88.4586288,
      "open_now": true
    },
    {
      "place_id": "ChIJLY2wq2iZ-DkRm7pTifTrtTU",
      "name": "Bharat Petroleum Petrol Pump , AZAD SERVICE STATION",
      "address": "VILL : KOKAPURBARASAT, Barrackpore - Barasat Road",
      "lat": 22.7510697,
      "lng": 88.4434943,
      "open_now": true
    },
    {
      "place_id": "ChIJ0zycRwCZ-DkRYwfFuH0Pu64",
      "name": "Kokapur Petrol Pump",
      "address": "QC3R+299, Kokapur",
      "lat": 22.7525375,
      "lng": 88.44098439999999,
      "open_now": null
    },
    {
      "place_id": "ChIJXUV00v-Y-DkR0cVWIH1J4PQ",
      "name": "IndianOil",
      "address": "Ground Floor, Barasat Kokapur, Nilgunge, Beraberia",
      "lat": 22.752792,
      "lng": 88.44089799999999,
      "open_now": true
    },
    {
      "place_id": "ChIJ-7r9bZKZ-DkRbh_afSU0ewM",
      "name": "Indian safety fire solution",
      "address": "PFFH+WH3, Barasat, Kolkata",
      "lat": 22.7247556,
      "lng": 88.4789351,
      "open_now": null
    },
    {
      "place_id": "ChIJaUBZZgCf-DkRITm_EMMY0b8",
      "name": "Hindustan Petroleum Corporation Limited",
      "address": "Ground Floor, New Jessore Road, Michael Nagar, Kolkata",
      "lat": 22.6732101,
      "lng": 88.4449501,
      "open_now": true
    },
    {
      "place_id": "ChIJ5bkdpuOZ-DkRQMTMf-e8enY",
      "name": "Bharat Petroleum Petrol Pump",
      "address": "PFGH+9MC, Krishnanagar Road, Noapara, Kolkata",
      "lat": 22.7259348,
      "lng": 88.4791345,
      "open_now": null
    },
    {
      "place_id": "ChIJIfx0UQCj-DkRQdLsmhkWgHo",
      "name": "Barasat Petrol Pump",
      "address": "PF9M+9RC, Barasat, Kolkata",
      "lat": 22.7184375,
      "lng": 88.4845156,
      "open_now": null
    },
    {
      "place_id": "ChIJsZdUHZmj-DkR_2c1dSSXxRA",
      "name": "IndianOil",
      "address": "Lock No 500, 55 & 56, Jessore Road, Sethpukur, Kolkata",
      "lat": 22.7182556,
      "lng": 88.4845859,
      "open_now": true
    },
    {
      "place_id": "ChIJEVBT7AWi-DkRHljHG7wZm_g",
      "name": "Hindustan Petroleum Corporation Limited",
      "address": "Ground Floor, Police Station, near Barasat, More, Champadali, Kolkata",
      "lat": 22.7188599,
      "lng": 88.4850549,
      "open_now": true
    },
    {
      "place_id": "ChIJ3UHoFgWi-DkRvJCxaYYn5PM",
      "name": "Piyali Gas Service Center",
      "address": "Sumitra abason, 6, Swami Vivekananda Road, Kolkata",
      "lat": 22.71802,
      "lng": 88.487388,
      "open_now": true
    },
    {
      "place_id": "ChIJG_gT1HKh-DkR3Vyw4YHOFF8",
      "name": "Bharat Petroleum Petrol Pump , AUTO ENERGY",
      "address": "Badu Road",
      "lat": 22.6937324,
      "lng": 88.4871704,
      "open_now": true
    },
    {
      "place_id": "ChIJR3D6lmaf-DkRvEhG2khibDk",
      "name": "Uncle Fuel Center (Aegis Autogas)",
      "address": "Badu Road, Madhyamgram, Kolkata",
      "lat": 22.6942541,
      "lng": 88.4888015,
      "open_now": true
    },
    {
      "place_id": "ChIJ4UNLUwCf-DkRxYY553OnM_I",
      "name": "Bijan shil",
      "address": "MFFF+9GM, Madhyamgram, Dariala",
      "lat": 22.6724844,
      "lng": 88.47363229999999,
      "open_now": null
    },
    {
      "place_id": "ChIJL6oxOv2Z-DkRMhuHVaYicKI",
      "name": "Bharat Petroleum Petrol Pump , SINGH SERVICE STATION",
      "address": "VILL & PO BERABERIAPS, Amdanga",
      "lat": 22.7677,
      "lng": 88.445,
      "open_now": true
    },
    {
      "place_id": "ChIJLZUVAuaj-DkR4Afd_iPh6Nk",
      "name": "Output rtx",
      "address": "Gengimale, Barasat, Barasat",
      "lat": 22.725821,
      "lng": 88.49469400000001,
      "open_now": null
    },
    {
      "place_id": "ChIJ4YyDjWMLAjoRTmr2CdZ1pxo",
      "name": "IndianOil",
      "address": "Ground Floor, Kalikapur, Rajarhat, Kashinathpur",
      "lat": 22.6492431,
      "lng": 88.43355439999999,
      "open_now": true
    },
    {
      "place_id": "ChIJM6E2WACj-DkRbpFlX6JgSxk",
      "name": "GO GAS AUTO LPG STATION BARASAT",
      "address": "N 65, Jessore Road, Kazipara, Barasat, Kolkata",
      "lat": 22.7327776,
      "lng": 88.504978,
      "open_now": true
    },
    {
      "place_id": "ChIJbVK7TYii-DkRn8jxLIZBdcI",
      "name": "IndianOil",
      "address": "Ground Floor, NH 34, Barasat, Khilkapur",
      "lat": 22.757762,
      "lng": 88.491137,
      "open_now": true
    },
    {
      "place_id": "ChIJJROUIACh-DkRdEQuRgPDDHY",
      "name": "Subhashis",
      "address": "MGW5+8GJ, Madhyamgram, Badu",
      "lat": 22.6957226,
      "lng": 88.5087551,
      "open_now": null
    },
    {
      "place_id": "ChIJ6ysyY3mP-DkRyvmhrshcuk4",
      "name": "IndianOil",
      "address": "Ground Floor Deshapara, Singur, Antisara",
      "lat": 22.809595,
      "lng": 88.280304,
      "open_now": true
    },
    {
      "place_id": "ChIJbwIQC9uP-DkRMjYre7PDjEs",
      "name": "IndianOil",
      "address": "Delhi Road, Bhadreswar",
      "lat": 22.8332783,
      "lng": 88.3166705,
      "open_now": true
    },
    {
      "place_id": "ChIJSbIyDSuO-DkR3kG-JwDI8Es",
      "name": "MAA MANGALCHANDI FILLING STATION",
      "address": "Old, Delhi Road, Nowapara, Bagdanga",
      "lat": 22.8517735,
      "lng": 88.3202874,
      "open_now": true
    },
    {
      "place_id": "ChIJrWT9NlmF-DkRMK8RKlPSPkU",
      "name": "EDS বাচ্চার বাজ",
      "address": "India",
      "lat": 22.7973988,
      "lng": 88.309806,
      "open_now": null
    },
    {
      "place_id": "ChIJNTyiME2F-DkRSut3EcFLe5A",
      "name": "Chowmatha Petrol Pump",
      "address": "Q8QF+58G, Grand Trunk Road, Baidyabati",
      "lat": 22.7879398,
      "lng": 88.3233425,
      "open_now": true
    },
    {
      "place_id": "ChIJ26y4pC-P-DkR4VXJ0o24jFo",
      "name": "SASHADHAR FILLING STATION(INDIAN OIL)",
      "address": "Bighati",
      "lat": 22.8131852,
      "lng": 88.31465109999999,
      "open_now": true
    },
    {
      "place_id": "ChIJ1S5y312P-DkRL2mCLSyxrTk",
      "name": "Hindustan Petroleum Corporation Limited",
      "address": "Ground Floor, Desha Para, Diara, Hooghly",
      "lat": 22.8110154,
      "lng": 88.2730924,
      "open_now": true
    },
    {
      "place_id": "ChIJt6lJceOF-DkRMpPwRTHYWa8",
      "name": "IndianOil",
      "address": "Ground Floor Ajabnagar, Mollasimla, Singur",
      "lat": 22.7865386,
      "lng": 88.2499223,
      "open_now": true
    },
    {
      "place_id": "ChIJEYpK5liJ-DkR3vw6O6CrBx4",
      "name": "Nivedita Fill in centre",
      "address": "Ghanashyampur, Singur",
      "lat": 22.8040847,
      "lng": 88.2434461,
      "open_now": true
    },
    {
      "place_id": "ChIJT7itIKGP-DkR1ewQaW8koD8",
      "name": "IndianOil",
      "address": "Ground Floor, Purushottampur, Singur, Singur",
      "lat": 22.8169368,
      "lng": 88.24571619999999,
      "open_now": true
    },
    {
      "place_id": "ChIJZQ_IdwCJ-DkRJYE9pr-RLxs",
      "name": "Malikpur pamp",
      "address": "R69W+28P, Malikpur, Singur, Jamirberia",
      "lat": 22.817535,
      "lng": 88.24607329999999,
      "open_now": null
    },
    {
      "place_id": "ChIJBfgXCmmP-DkREnpR13vDSXc",
      "name": "Hindustan Petroleum Corporation Limited",
      "address": "Ground Floor, Old, Delhi Road, Garji More, Mankundu, Chandannagar",
      "lat": 22.8430765,
      "lng": 88.3193614,
      "open_now": true
    },
    {
      "place_id": "ChIJd7kf5UCJ-DkRy2QD_GOXYJk",
      "name": "Bharat Petroleum, Petrol Pump -Aditya Fuel Centre",
      "address": "Singur",
      "lat": 22.81494709999999,
      "lng": 88.23450249999999,
      "open_now": true
    },
    {
      "place_id": "ChIJOZpiLaCJ-DkRS9DZgOXkcu0",
      "name": "Bharat Petroleum Petrol pump",
      "address": "R6CP+QRR, Malikpur, Singur, Singur",
      "lat": 22.8219839,
      "lng": 88.2370165,
      "open_now": true
    },
    {
      "place_id": "ChIJ98t87BCa-DkRS0NnC-ln3Ek",
      "name": "IndianOil",
      "address": "Lock No 411, T/T, Babanpurp, Kalyani Express Highway, Bengal",
      "lat": 22.7870283,
      "lng": 88.39070099999999,
      "open_now": true
    },
    {
      "place_id": "ChIJy1s6_pCQ-DkRrnZjnsKGo0Q",
      "name": "IndianOil",
      "address": "Ground Floor, Barrackpore, Pinkal",
      "lat": 22.8171048,
      "lng": 88.3752075,
      "open_now": true
    },
    {
      "place_id": "ChIJG0_WuqyQ-DkR80fjMlRuctY",
      "name": "IndianOil",
      "address": "Ground Floor, Jagaddal, Gurdah, Shyamnagar, Hansia",
      "lat": 22.809161,
      "lng": 88.401085,
      "open_now": true
    },
    {
      "place_id": "ChIJIa6IBUqX-DkRDCzuocV-fQs",
      "name": "Hindustan Petroleum Corporation Limited",
      "address": "Ground Floor, Jagatdal, Shyamnagar, Rahuta P",
      "lat": 22.8258745,
      "lng": 88.4060805,
      "open_now": true
    },
    {
      "place_id": "ChIJp9_3Tymb-DkRMceCjTNlOog",
      "name": "Dev SOLUTION",
      "address": "189, Bhim Rao Ambedkar, Sreepally, North Barrackpur",
      "lat": 22.7847144,
      "lng": 88.3760113,
      "open_now": null
    },
    {
      "place_id": "ChIJfxhHepCQ-DkROA6vvt0SOhY",
      "name": "Bharat Petroleum, Petrol Pump -Balaji Energy Station",
      "address": "NOAPARA,GARULIA,N24PARGANA, NORTH 24 PARGANAS",
      "lat": 22.8148219,
      "lng": 88.374517,
      "open_now": true
    },
    {
      "place_id": "ChIJAYSBHuuR-DkR1zp3qWtP6Ts",
      "name": "NRL PUMP",
      "address": "Hansia",
      "lat": 22.8053364,
      "lng": 88.39892569999999,
      "open_now": null
    },
    {
      "place_id": "ChIJEVgrErWR-DkRoCYoe5xV2Vo",
      "name": "Omni Agency Pvt Ltd IOCL",
      "address": "Hansia",
      "lat": 22.8092164,
      "lng": 88.4010598,
      "open_now": true
    },
    {
      "place_id": "ChIJBXhI-eqQ-DkRiDg4UxoWJpk",
      "name": "Lala Service Station",
      "address": "20, Ghosh Para Road, Noapara, Shyamnagar, Kolkata",
      "lat": 22.828738,
      "lng": 88.3800181,
      "open_now": null
    },
    {
      "place_id": "ChIJ8_1YyEuX-DkReKftdCf4AtM",
      "name": "Bharat Petroleum, Petrol Pump -Poddar Filling Station",
      "address": "RCF3+CXX, Shyamnagar, BASUDEVPUR",
      "lat": 22.822944,
      "lng": 88.4055666,
      "open_now": true
    },
    {
      "place_id": "ChIJWy804VWQ-DkRyOoCCOyF1oI",
      "name": "Hindustan Petroleum Corporation Limited",
      "address": "Ground Floor, Grand Trunk Road, Mankundu, Chandannagar",
      "lat": 22.8441001,
      "lng": 88.3618901,
      "open_now": true
    },
    {
      "place_id": "ChIJPYdIXOeQ-DkRQ9GDfah3QpA",
      "name": "Authpur Petrol Pump",
      "address": "West Ghosh Para Rd, State Highway 1, Authpur, Shyamnagar, Bhatpara",
      "lat": 22.8428244,
      "lng": 88.3817819,
      "open_now": true
    },
    {
      "place_id": "ChIJw1l8ajeX-DkRF8XQCXVIqsQ",
      "name": "Reliance Pump",
      "address": "RCJ6+84J, Kolkata, Gurdah, Shyamnagar",
      "lat": 22.8308403,
      "lng": 88.4102631,
      "open_now": true
    },
    {
      "place_id": "ChIJL4zOSuyb-DkRQEmB3W3FlnM",
      "name": "Reliance Petroleum",
      "address": "1313 & 1310, Barackpore Kalyani Hwy, 17, Ucchagarh, Bidyadharpur, Jagatdal, Kolkata",
      "lat": 22.830912,
      "lng": 88.4102468,
      "open_now": true
    },
    {
      "place_id": "ChIJv1KJYlWQ-DkRrBcQBLRwaaA",
      "name": "পাঞ্জাব ন্যাশনাল ব্যাংক",
      "address": "India",
      "lat": 22.8459812,
      "lng": 88.362179,
      "open_now": null
    },
    {
      "place_id": "ChIJQ-96IwCX-DkRYMJ157hjIDA",
      "name": "SWASTIKA ENERGY HUB (HP PETROL PUMP)",
      "address": "VC2G+CWG, Bhatpara",
      "lat": 22.8510687,
      "lng": 88.4273189,
      "open_now": null
    },
    {
      "place_id": "ChIJX4kTXl2X-DkRKwce_Wv6HYo",
      "name": "Ganesh enterprises",
      "address": "Ganesh Cyber, Jagatdal, Bhatpara",
      "lat": 22.8462303,
      "lng": 88.405191,
      "open_now": null
    },
    {
      "place_id": "ChIJf46cOR2S-DkRKZZok2Qil28",
      "name": "BABA PANCHANAN SERVICE STATION",
      "address": "Kamdebpur",
      "lat": 22.8989471,
      "lng": 88.3343354,
      "open_now": true
    },
    {
      "place_id": "ChIJn2zI1tyI-DkRYTYImp99wYc",
      "name": "IndianOil",
      "address": "Ground Floor, Harris, NH 2, Durgapur Expressway, Gopal Nagar, Singur, Sinher Bheri",
      "lat": 22.83682599999999,
      "lng": 88.229385,
      "open_now": true
    },
    {
      "place_id": "ChIJuYVE9x6P-DkRX9sLpfSVYd0",
      "name": "Souvik Oil And fuel",
      "address": "R7V9, GQF",
      "lat": 22.8680591,
      "lng": 88.27921610000001,
      "open_now": null
    },
    {
      "place_id": "ChIJ4Rbo3WiP-DkRY2VXoXEy66I",
      "name": "Hindustan Petroleum Corporation Limited",
      "address": "Ground Floor, SH 13, Old, Delhi Road, Hooghly",
      "lat": 22.861717,
      "lng": 88.32346799999999,
      "open_now": true
    },
    {
      "place_id": "ChIJ22pu_wCR-DkR3dqHZWEELtc",
      "name": "IndianOil",
      "address": "Monarchy highway servicveErenga, Delhi Road, Khalsani, Jarura",
      "lat": 22.891487,
      "lng": 88.33019300000001,
      "open_now": true
    },
    {
      "place_id": "ChIJ74H3A5iN-DkRKgT8uFeoQt4",
      "name": "IndianOil",
      "address": "Ground Floor Alinagar, Polba, Kaswara, Kamdebpur",
      "lat": 22.91384,
      "lng": 88.3048001,
      "open_now": true
    },
    {
      "place_id": "ChIJJzYmPACR-DkRIxhUOoA7r_4",
      "name": "Chandannagar Auto house",
      "address": "V968+9PM, Bagbazar, Sukhsanatantala, Chandannagar",
      "lat": 22.8610133,
      "lng": 88.3669273,
      "open_now": null
    },
    {
      "place_id": "ChIJR2NAqwiR-DkRNffr9vQvXCg",
      "name": "Hindustan Petroleum Corporation Limited",
      "address": "Ground Floor, Grand Trunk Road, Chandannagar",
      "lat": 22.86204009999999,
      "lng": 88.36774009999999,
      "open_now": true
    },
    {
      "place_id": "ChIJg8_hB2eR-DkR8VJ9K52i25k",
      "name": "Bharat Petroleum Fuel Station (Bansi Service Station)",
      "address": "Grand Trunk Road, Chinsurah R S, Chinsurah",
      "lat": 22.8888218,
      "lng": 88.38037609999999,
      "open_now": true
    },
    {
      "place_id": "ChIJSTl3GxKR-DkRnt--jqXx6bI",
      "name": "IndianOil",
      "address": "Ground Floor, Kundughat Road, Chandannagar",
      "lat": 22.86833,
      "lng": 88.373289,
      "open_now": true
    },
    {
      "place_id": "ChIJqcHX9BKR-DkRE4KmSECw2p4",
      "name": "Hindustan Petroleum Corporation Limited",
      "address": "Ground Floor, Grand Trunk Road, Chandannagar",
      "lat": 22.8705601,
      "lng": 88.3739501,
      "open_now": true
    },
    {
      "place_id": "ChIJccts21KR-DkR2BR8owWcFyU",
      "name": "Hindustan Petroleum Corporation Limited",
      "address": "Ground Floor, Chinsurah R S, Chinsurah",
      "lat": 22.8883401,
      "lng": 88.4007401,
      "open_now": true
    },
    {
      "place_id": "ChIJCebjlOSW-DkRsYSJV1spLAE",
      "name": "Hindustan Petroleum Corporation Limited",
      "address": "No 200, Barrackpore - Kalyani Expressway, Bhatpara",
      "lat": 22.857951,
      "lng": 88.42938099999999,
      "open_now": true
    },
    {
      "place_id": "ChIJ7QRdO-uT-DkRHIPhI1ko890",
      "name": "Bharat petroleum Petrol Pump",
      "address": "State Highway 6, Keota, Bandel",
      "lat": 22.9204841,
      "lng": 88.3851358,
      "open_now": true
    },
    {
      "place_id": "ChIJFwIfKtGR-DkR4lY1WLrauyI",
      "name": "Rohit Petrol Supplier",
      "address": "East Ghoshpara Road, Kankinara, Bhatpara",
      "lat": 22.8653717,
      "lng": 88.3981274,
      "open_now": null
    },
    {
      "place_id": "ChIJx2pwwc6R-DkRZpKHgYNAY3w",
      "name": "BPCL Petrol Pump",
      "address": "Shop Number 1, Ghoshpara Road, Bhatpara",
      "lat": 22.865761,
      "lng": 88.39888549999999,
      "open_now": null
    },
    {
      "place_id": "ChIJ4d8wR6yR-DkRb3BwYqdOnLc",
      "name": "BHARAT FUEL",
      "address": "H/N 31, East Ghoshpara Road, Kankinara, Bhatpara",
      "lat": 22.8664446,
      "lng": 88.4002507,
      "open_now": null
    },
    {
      "place_id": "ChIJo7yguCSR-DkRikKqEijPE9Y",
      "name": "Hindustan Fuel",
      "address": "Line 11, East Ghoshpara Road, Kankinara, Jagatdal, Bhatpara",
      "lat": 22.8665832,
      "lng": 88.40059989999999,
      "open_now": null
    },
    {
      "place_id": "ChIJkwhppMyW-DkRwKUE8DFsFBY",
      "name": "Hindustan Petroleum Corporation Limited",
      "address": "7, East Ghoshpara Road, Kankinara, Bhatpara",
      "lat": 22.8677346,
      "lng": 88.40239,
      "open_now": true
    },
    {
      "place_id": "ChIJvT4qjmRnAjoRykAFNjmXI2c",
      "name": "Jio-bp",
      "address": "DAG NO 648, 649, 651, JL NO 2, SH-1, VILLAGE RAJARHAT, MOUZA AYODHYANAGAR PS US Amtala II",
      "lat": 22.871502,
      "lng": 88.40532499999999,
      "open_now": true
    },
    {
      "place_id": "ChIJhbfkBeCT-DkRM2m-civHLdg",
      "name": "IndianOil",
      "address": "Ground Floor, Rabindranagar Bazar, Debi Das Tala, Grand Trunk Road, Chinsurah R S, Chinsurah",
      "lat": 22.8982786,
      "lng": 88.38258379999999,
      "open_now": true
    },
    {
      "place_id": "ChIJh09WwVKR-DkRn4eeWB55msI",
      "name": "BP Petrol Pump",
      "address": "VCQ2+FFC, Chinsurah R S, Chinsurah",
      "lat": 22.8886998,
      "lng": 88.40114729999999,
      "open_now": true
    },
    {
      "place_id": "ChIJd5O4KgCX-DkRK7iICkLBkZg",
      "name": "Toilet",
      "address": "VCW3+JJP, River Side Main Road, Chinsurah R S, Chinsurah",
      "lat": 22.8965806,
      "lng": 88.40409129999999,
      "open_now": null
    },
    {
      "place_id": "ChIJqVNLasWX-DkRp8BplMcPc2Y",
      "name": "IndianOil",
      "address": "Ground Floor, Bhatpara, Madrail",
      "lat": 22.8663682,
      "lng": 88.43158729999999,
      "open_now": true
    },
    {
      "place_id": "ChIJe4s6OKKW-DkRBeVDCXVDleI",
      "name": "Bharat Petroleum, Naihati Filling Station",
      "address": "Rishi Bankim Chandra Road, Naihati",
      "lat": 22.8909883,
      "lng": 88.4193119,
      "open_now": true
    },
    {
      "place_id": "ChIJr6acMhKT-DkRv59e2JKr1Ts",
      "name": "MULLICK AUTO SERVICE",
      "address": "More, Grand Trunk Road, Bandel",
      "lat": 22.9190297,
      "lng": 88.38500979999999,
      "open_now": true
    },
    {
      "place_id": "ChIJu5k_4SGX-DkRkkgyHJY5VZU",
      "name": "Nigam Go Gas",
      "address": "VCPM+4JM, 743165, Naihati - Habra Road, Kultala, Naihati, Kolkata",
      "lat": 22.885348,
      "lng": 88.434043,
      "open_now": null
    },
    {
      "place_id": "ChIJwSbRA-2V-DkR1U55uXPXnxM",
      "name": "Irfan General Store",
      "address": "14, Ishaque Sardar Road, Kolkata",
      "lat": 22.9096857,
      "lng": 88.4124044,
      "open_now": false
    },
    {
      "place_id": "ChIJIyuubsaV-DkR6JstQ2NT5hk",
      "name": "Hindustan Petroleum Corporation Limited",
      "address": "P.o & Vill:, Chandua Road, Ps, Jetia",
      "lat": 22.9172343,
      "lng": 88.4517079,
      "open_now": true
    },
    {
      "place_id": "ChIJy8KS4g6X-DkRBdictL17pho",
      "name": "M/S DIAMOND K S K",
      "address": "73 Habra Road, ROAD, Adhata",
      "lat": 22.8821261,
      "lng": 88.4458014,
      "open_now": null
    },
    {
      "place_id": "ChIJS1rthbOX-DkREES02Dq_RK8",
      "name": "IndianOil",
      "address": "Ground Floor Mamudpur, Naihati, Bora",
      "lat": 22.8824196,
      "lng": 88.4458104,
      "open_now": true
    },
    {
      "place_id": "ChIJfcEbRC-X-DkRpOtHnSfqG3w",
      "name": "BHARAT PETROLEUM DEVOKE",
      "address": "ON 73 BUS ROUTE , NAIHATI, TO, HABRA ROUTE, Mamudpur",
      "lat": 22.8822789,
      "lng": 88.45045999999999,
      "open_now": true
    },
    {
      "place_id": "ChIJ6zAIlG6W-DkRECzD2o5ZwLE",
      "name": "পূজা ভ্যারাইটিসাটাল",
      "address": "India",
      "lat": 22.8823905,
      "lng": 88.4539698,
      "open_now": null
    },
    {
      "place_id": "ChIJTWwBoIiX-DkRpQfaGCL_XlY",
      "name": "SUDHA NARAYAN SERVICE STATION",
      "address": "VCWP+79V, Naihati",
      "lat": 22.8957454,
      "lng": 88.4359251,
      "open_now": true
    },
    {
      "place_id": "ChIJLb2NH8eV-DkRzTMdqD1d4Mo",
      "name": "IndianOil",
      "address": "Ground Floor, Bijpur Chendua, Barajonepur, Kanchrapara",
      "lat": 22.919486,
      "lng": 88.453637,
      "open_now": true
    },
    {
      "place_id": "ChIJb5u9F7K9-DkRq7bUEsP7xqQ",
      "name": "Shikra BHARAT Petrol Pump",
      "address": "Shikra, R.O.P, Fulkalmi Road, Sikra",
      "lat": 22.86459259999999,
      "lng": 88.51369749999999,
      "open_now": null
    }
  ]
}