{
  "city": "Cooch Behar",
  "state": "West Bengal",
  "count": 51,
  "center": {
    "lat": 26.3254,
    "lng": 89.4451
  },
  "pumps": [
    {
      "place_id": "ChIJHf8lxlAD4zkRvTerUWozO1o",
      "name": "Bharat Petroleum",
      "address": "Chandamari",
      "lat": 26.2392861,
      "lng": 89.32723659999999,
      "open_now": true
    },
    {
      "place_id": "ChIJSXfGRmIC4zkR5De-nMPssd4",
      "name": "Rai Mustard Oil",
      "address": "79HP+878, Chilkirhat Road, Ekmukha",
      "lat": 26.2782999,
      "lng": 89.3857093,
      "open_now": null
    },
    {
      "place_id": "ChIJTywiQCD94jkR2USbGeoemSU",
      "name": "IndianOil",
      "address": "Rasidanga 1 & 2, No 819 & 222 No 1677 & 1697, Cooch Behar",
      "lat": 26.2376361,
      "lng": 89.4076171,
      "open_now": true
    },
    {
      "place_id": "ChIJHRzrUQD94jkRengTW9Mwec0",
      "name": "Pakurtola Petrol Pump",
      "address": "6CM4+XH, Rasidanga Pratham Khanda",
      "lat": 26.2349895,
      "lng": 89.4063896,
      "open_now": null
    },
    {
      "place_id": "ChIJZetmeI0D4zkRRjwWpzbf2no",
      "name": "Hindustan Petroleum Corporation Limited",
      "address": "Ground Floor, SH 16, 7th Mile, Ghughumari, Elejanerkuthi",
      "lat": 26.2845655,
      "lng": 89.3535636,
      "open_now": true
    },
    {
      "place_id": "ChIJJUDkJt8D4zkRpNRry5FiQE0",
      "name": "IndianOil",
      "address": "Ground Floor, Chandamari,Akrarhat Bandar, Chandamari",
      "lat": 26.237165,
      "lng": 89.327431,
      "open_now": true
    },
    {
      "place_id": "ChIJUTlzwMEb4zkRf-h6X8rIYtw",
      "name": "Bharat Petroleum, Petrol Pump -Mahakal Service Station",
      "address": "AKRAHAT, NISHIGANJ, COOCHBEHAR",
      "lat": 26.2946741,
      "lng": 89.3360076,
      "open_now": true
    },
    {
      "place_id": "ChIJFRqPTwAD4zkRn3-Jpy-CGSY",
      "name": "Kanibil Kankanguri, Akrarhat",
      "address": "78XQ+86Q, Kanibil Kankanguri",
      "lat": 26.298332,
      "lng": 89.3381105,
      "open_now": null
    },
    {
      "place_id": "ChIJ7VIbzLID4zkRyGX2PG7DGHM",
      "name": "Hindustan Petroleum Corporation Limited",
      "address": "Ground Floor, Akrarhat Hat, Phalimari",
      "lat": 26.2964758,
      "lng": 89.32713,
      "open_now": true
    },
    {
      "place_id": "ChIJsRyyHVMD4zkR8DFyW1-N0Bw",
      "name": "Akrahat",
      "address": "78WG+JV7, Falimari",
      "lat": 26.2965372,
      "lng": 89.3271615,
      "open_now": true
    },
    {
      "place_id": "ChIJhc7rI1f84jkRU4kwliULZ08",
      "name": "IndianOil",
      "address": "Ground Floor, Ghugumari, Kotwali,Akrarhat Bandar, Sutkabari Road, Cooch Behar",
      "lat": 26.281237,
      "lng": 89.443703,
      "open_now": true
    },
    {
      "place_id": "ChIJ64duI1f84jkRuazbsz6R2DQ",
      "name": "Jamtala Petrol Pump",
      "address": "7CJV+GHX, Cooch Behar",
      "lat": 26.28136739999999,
      "lng": 89.4439761,
      "open_now": true
    },
    {
      "place_id": "ChIJCzjSggsE4zkRsuwLiiMZx-o",
      "name": "IndianOil",
      "address": "Ground Floor, Akrarhat, Bandar, Phalimari",
      "lat": 26.302787,
      "lng": 89.318787,
      "open_now": true
    },
    {
      "place_id": "ChIJPWsvp9394jkRg0PFI4ANclY",
      "name": "Residual Islam",
      "address": "11, Fasirghat Rode Tapurhate Chupptti, Cooch Behar",
      "lat": 26.3030662,
      "lng": 89.4338152,
      "open_now": true
    },
    {
      "place_id": "ChIJGage5qD-4jkRL_dGZOO5qqk",
      "name": "IndianOil",
      "address": "Ground Floor, Nripendra Narayan Road, Rail Ghumty, Cooch Behar",
      "lat": 26.325925,
      "lng": 89.4586247,
      "open_now": true
    },
    {
      "place_id": "ChIJHWdCUFf74jkR7RIAT76-nnA",
      "name": "IndianOil",
      "address": "Ground Floor, Kotwali Nawabganj Balashi, Dewanhat, Bhetaguri",
      "lat": 26.2529595,
      "lng": 89.4856834,
      "open_now": true
    },
    {
      "place_id": "ChIJ6zAJzVn74jkRkj8jz-wYAlI",
      "name": "SUKHLAL FILLING STATION, BPCL PETROL PUMP CNG STATION",
      "address": "near KALACHAD MORE, Shishabguri",
      "lat": 26.2485867,
      "lng": 89.4851147,
      "open_now": null
    },
    {
      "place_id": "ChIJPw9s_x3l4jkRgRmKEcEvP0M",
      "name": "Hindustan Petroleum Corporation Limited",
      "address": "536, 537, Plot No 523, Dinhata Main Road, Singimari Bhetaguri",
      "lat": 26.2212875,
      "lng": 89.48332769999999,
      "open_now": true
    },
    {
      "place_id": "ChIJ3TFxOK394jkRNIcUyqSU6tw",
      "name": "IndianOil",
      "address": "Plot No 2598, J L No 71, Sahebganj, Bhulki",
      "lat": 26.3170661,
      "lng": 89.4442296,
      "open_now": true
    },
    {
      "place_id": "ChIJOWK76SH84jkR6e3n5ro-HXE",
      "name": "Hindustan Petroleum Corporation Limited",
      "address": "Ground Floor, Nara Narayan Road, Cooch Behar",
      "lat": 26.319331,
      "lng": 89.454543,
      "open_now": true
    },
    {
      "place_id": "ChIJ0WUUulr74jkRZediCC9AKM4",
      "name": "Anima gas service",
      "address": "8F8F+VVF, Pilkhana Road, Cooch Behar",
      "lat": 26.3171965,
      "lng": 89.47467639999999,
      "open_now": null
    },
    {
      "place_id": "ChIJjcTsNKf-4jkRMoEhWoXI93E",
      "name": "NARPAT AUTOMOBILES Railghumti Petrol Pump",
      "address": "8FG5+7VR, Rail Ghumty, Cooch Behar",
      "lat": 26.325736,
      "lng": 89.45964719999999,
      "open_now": true
    },
    {
      "place_id": "ChIJ7x5rbsH_4jkRGfyqTMudmI0",
      "name": "Bharat Petroleum, Petrol Pump -Narpat Automobiles",
      "address": "N N ROAD COOCHBEHAR, Cooch Behar",
      "lat": 26.32572,
      "lng": 89.460043,
      "open_now": true
    },
    {
      "place_id": "ChIJUaTpXy3w4jkRUhwbffi64BQ",
      "name": "IndianOil",
      "address": "Ground Floor, Balarampur,Balairhat, Balarampur",
      "lat": 26.240072,
      "lng": 89.583954,
      "open_now": true
    },
    {
      "place_id": "ChIJP4TzIUzv4jkRgUlRRI378uA",
      "name": "MR SUBRATA BARMAN",
      "address": "Balarampur, Glakata Birish Chakadara",
      "lat": 26.21904079999999,
      "lng": 89.5678257,
      "open_now": null
    },
    {
      "place_id": "ChIJGXT6Egn74jkRqf03VZd9vco",
      "name": "Reliance Petroleum",
      "address": "2681P, 2685P, Jl No 119, Plot No 2672P, Kotwali, Dawaguri",
      "lat": 26.31769439999999,
      "lng": 89.51733689999999,
      "open_now": true
    },
    {
      "place_id": "ChIJnWQMitT74jkR82XxfJ6ivys",
      "name": "IndianOil",
      "address": "Ground Floor NH 31, Dawaguri",
      "lat": 26.3189068,
      "lng": 89.5100243,
      "open_now": true
    },
    {
      "place_id": "ChIJmU2j_i3x4jkRO9a1BS9nFfw",
      "name": "Hoque Digital Seva",
      "address": "6HPP C5J, Balarampur",
      "lat": 26.2363715,
      "lng": 89.5854071,
      "open_now": true
    },
    {
      "place_id": "ChIJp4ngi-nx4jkRrTQHU6cXSH4",
      "name": "Maruganj Petrol Pump",
      "address": "Unnamed Road, Airani Chitalia",
      "lat": 26.3161381,
      "lng": 89.556946,
      "open_now": true
    },
    {
      "place_id": "ChIJoxVFD48B4zkR6rwzkgjV8IM",
      "name": "Sanjay Store",
      "address": "Shop No 1, Nishiganj Road, near Harimandir, Bajar, Cooch Behar",
      "lat": 26.3497353,
      "lng": 89.3552821,
      "open_now": null
    },
    {
      "place_id": "ChIJB6YtAgD_4jkRRcleBEVi3ko",
      "name": "ARIYAN ENERGY STATION (Indian Oil)",
      "address": "Rajarhat, Cooch Behar",
      "lat": 26.3506997,
      "lng": 89.41577529999999,
      "open_now": true
    },
    {
      "place_id": "ChIJmaG8SAD_4jkRIbW5vkCS8zE",
      "name": "Hindustan Petroleum Corporation Limited",
      "address": "Ground Floor, Madhupur, Pundibari, Matikata",
      "lat": 26.366055,
      "lng": 89.3994227,
      "open_now": true
    },
    {
      "place_id": "ChIJjePqNn8B4zkRwarH7-IGkho",
      "name": "Highway Queen BPCL Ro",
      "address": "Bharat Petroleum, Road, Pundibari",
      "lat": 26.3846104,
      "lng": 89.3893318,
      "open_now": true
    },
    {
      "place_id": "ChIJFwBCMCUA4zkR_NeB54ePGgY",
      "name": "Highway Queen BPCL Petrol Pump",
      "address": "Digha Pul, Danapur Main Road, Mithila Colony, Patna",
      "lat": 26.3847798,
      "lng": 89.38957479999999,
      "open_now": true
    },
    {
      "place_id": "ChIJnzwnOM3_4jkR16V0rgqJUNw",
      "name": "IndianOil",
      "address": "Ground Floor, Keshav Road, Gunjwadi, Cooch Behar",
      "lat": 26.331812,
      "lng": 89.444267,
      "open_now": true
    },
    {
      "place_id": "ChIJl_xIw1sF4zkRqaukTC2BfJs",
      "name": "Nur Hp Gas Gramin Vitrak",
      "address": "SH12, Chakiar Chhara",
      "lat": 26.31504899999999,
      "lng": 89.3035688,
      "open_now": null
    },
    {
      "place_id": "ChIJdy2Yl5L-4jkR8mZGAAon83g",
      "name": "Fuel Station with CNG gas",
      "address": "Khagrabari, Cooch Behar",
      "lat": 26.34576779999999,
      "lng": 89.4464603,
      "open_now": true
    },
    {
      "place_id": "ChIJhWiEqpP-4jkRob2u656M_so",
      "name": "IndianOil",
      "address": "Ph No 22605, Rtkm 106 Kms,Bangchatra, Cooch Behar",
      "lat": 26.344734,
      "lng": 89.448312,
      "open_now": true
    },
    {
      "place_id": "ChIJ5UcuShD_4jkR3JYdh0LB7iQ",
      "name": "IndianOil",
      "address": "Ground Floor, East Khagrabari, Kharija Kakribari",
      "lat": 26.3431564,
      "lng": 89.45349569999999,
      "open_now": true
    },
    {
      "place_id": "ChIJ8Q0C4pr_4jkRSo3nUWt6a_E",
      "name": "LALJI MOHAN KSHITISH CHANDRA SAHA & SONS",
      "address": "LALJI COMMERCIAL COMPLEX. PHASE - I EAST, Khagrabari, Cooch Behar",
      "lat": 26.3431438,
      "lng": 89.45399239999999,
      "open_now": true
    },
    {
      "place_id": "ChIJBcZJNwD54jkRo92672ECz4Y",
      "name": "ড্রাইভার পাড়া",
      "address": "8GR8+PMQ, Khapaidanga",
      "lat": 26.3418447,
      "lng": 89.5167298,
      "open_now": null
    },
    {
      "place_id": "ChIJoxYZYxD54jkRgSFgKhcJBxw",
      "name": "IndianOil",
      "address": "Ground Floor, Khapaidanga Toward, Chakchaka Indl Estate,Bangchatra",
      "lat": 26.362906,
      "lng": 89.520198,
      "open_now": true
    },
    {
      "place_id": "ChIJk1gTeMTw4jkReTyLbfsVJa8",
      "name": "IndianOil",
      "address": "Lr No 892865896897898903 Bhelakopa 2, Tufanganj",
      "lat": 26.306993,
      "lng": 89.57471900000002,
      "open_now": true
    },
    {
      "place_id": "ChIJY32IXI7x4jkRaEev52Mcc5k",
      "name": "Eyanur Hossain",
      "address": "Indian Oil, Chhat Bhelakopa",
      "lat": 26.3065911,
      "lng": 89.57516559999999,
      "open_now": null
    },
    {
      "place_id": "ChIJ08J8mLf54jkRwMPvpOhGmC4",
      "name": "Kabita Roy Shop",
      "address": "9GVP X5J, Rode, Ambari",
      "lat": 26.3933818,
      "lng": 89.53870599999999,
      "open_now": null
    },
    {
      "place_id": "ChIJLU0yQvQB4zkRYRIm5S5mIeQ",
      "name": "Petrol Pump",
      "address": "Kalarayerkuthi",
      "lat": 26.4053295,
      "lng": 89.3806199,
      "open_now": null
    },
    {
      "place_id": "ChIJR2OLFUIB4zkRjx_qzWGNJDw",
      "name": "Hindustan Petroleum Corporation Limited",
      "address": "Ground Floor NH 17, Kalarayerkuthi, Pundibari",
      "lat": 26.4100039,
      "lng": 89.3688519,
      "open_now": true
    },
    {
      "place_id": "ChIJkzJS2Sur4zkRslaPro8KV9A",
      "name": "IndianOil",
      "address": "Ground Floor, Chandanchaura, Kalarayerkuthi",
      "lat": 26.4286,
      "lng": 89.3762419,
      "open_now": true
    },
    {
      "place_id": "ChIJXxl3AgD54jkR1Z906KApzNo",
      "name": "Baneswar M L Roy Energy Station",
      "address": "9FWV+RCH, Baneswar",
      "lat": 26.3970554,
      "lng": 89.4936127,
      "open_now": null
    },
    {
      "place_id": "ChIJH-hSu6z54jkRAPZXMiby6GE",
      "name": "IndianOil",
      "address": "Ground Floor Kutipara, Kotwali, Baneswar",
      "lat": 26.4063407,
      "lng": 89.49959799999999,
      "open_now": true
    },
    {
      "place_id": "ChIJm-TZsW734jkRVGeuFU6pHtE",
      "name": "Bharat petroleum",
      "address": "9HVJ+VV5, Debottar Charaljani",
      "lat": 26.3946479,
      "lng": 89.5822324,
      "open_now": true
    }
  ]
}