{
  "city": "Durgapur",
  "state": "West Bengal",
  "count": 112,
  "center": {
    "lat": 23.5333,
    "lng": 87.3333
  },
  "pumps": [
    {
      "place_id": "ChIJx6rBCD909zkRE4MraI5WK9A",
      "name": "Hindustan Petroleum Corporation Limited",
      "address": "Bankura, Ground Floor Durgapur Bankura Road Near Barjora More",
      "lat": 23.4266154,
      "lng": 87.28327879999999,
      "open_now": true
    },
    {
      "place_id": "ChIJURz6O3Jx9zkRiZvUuDrEiFo",
      "name": "IndianOil",
      "address": "Lock, 11006, Durgapur Station Road, Durgapur",
      "lat": 23.492565,
      "lng": 87.317651,
      "open_now": true
    },
    {
      "place_id": "ChIJeaqZBoNx9zkRKJ9vmD__J0I",
      "name": "Bharat Petroleum Petrol Pump",
      "address": "BC ROY AVE,DURGAPUR,BURDWA, BARDHAMAN",
      "lat": 23.5053038,
      "lng": 87.30914430000001,
      "open_now": true
    },
    {
      "place_id": "ChIJX4Bktad19zkR-C0pEGpvXtQ",
      "name": "IndianOil",
      "address": "Ground Floor Durgapur, Bankura Road, Jambediap, Barjora",
      "lat": 23.392696,
      "lng": 87.264231,
      "open_now": true
    },
    {
      "place_id": "ChIJUVd7ypx09zkRFhZlcAIbsZ8",
      "name": "IndianOil",
      "address": "Ground Floor, Durlabhpur Road Shraboni, Ghutgoria, Barjora",
      "lat": 23.449432,
      "lng": 87.251717,
      "open_now": true
    },
    {
      "place_id": "ChIJnS0_vkd19zkRR84QeaPX2CU",
      "name": "Bharat Petroleum Corporation Limited (BPCL)",
      "address": "Barjora, Ghutgoria Durlavpur, Road, Barjora",
      "lat": 23.4387766,
      "lng": 87.2586127,
      "open_now": true
    },
    {
      "place_id": "ChIJw95Z5vpz9zkRZtzwa8j5zJ4",
      "name": "Petrol Pump",
      "address": "Building Name, Barrage, Durgapur",
      "lat": 23.4707421,
      "lng": 87.2928987,
      "open_now": null
    },
    {
      "place_id": "ChIJvwbQRaZz9zkRsDHKJt81NCA",
      "name": "PSBrightSolutionPvtLtd",
      "address": "near Bus Stopage, Barjora, near Bus Stopage, Pratappur",
      "lat": 23.4669532,
      "lng": 87.29674539999999,
      "open_now": null
    },
    {
      "place_id": "ChIJmdgYyrNz9zkRynDi0SxFDRE",
      "name": "AD Food Store",
      "address": "Durgapur - Purulia - Raghunathpur Road, Pratappur",
      "lat": 23.4667662,
      "lng": 87.29679770000001,
      "open_now": null
    },
    {
      "place_id": "ChIJC4Lj-BB09zkRyoO17X953PQ",
      "name": "Hindustan Petroleum Corporation Limited",
      "address": "Bankura, Ground Floor Durgapur Bankura Road, Ronalejora Near Barjora More",
      "lat": 23.4391044,
      "lng": 87.28967349999999,
      "open_now": true
    },
    {
      "place_id": "ChIJ_xAiAAB19zkRBi7iQQAhsRA",
      "name": "Ray colony",
      "address": "Barjora",
      "lat": 23.42585679999999,
      "lng": 87.2854565,
      "open_now": null
    },
    {
      "place_id": "ChIJS9dmcABz9zkR5pNXicuTZgA",
      "name": "Dibya Rishi mini fuel centre",
      "address": "G73P+VM9, DCL Colony, Industrial Area, Durgapur",
      "lat": 23.5046627,
      "lng": 87.28674370000002,
      "open_now": true
    },
    {
      "place_id": "ChIJoxONyVlx9zkR-jqycvONnRk",
      "name": "Sujayjee",
      "address": "Labour Hut, Dr, Doctor Bidhan Chandra Roy Avenue, Durgapur",
      "lat": 23.5052574,
      "lng": 87.3086024,
      "open_now": null
    },
    {
      "place_id": "ChIJz9ciq4Nx9zkR18BI3nJ3Vxs",
      "name": "Shark Petroleum",
      "address": "G845+3H6, Doctor Bidhan Chandra Roy Avenue, Industrial Area, Durgapur",
      "lat": 23.505158,
      "lng": 87.30887609999999,
      "open_now": null
    },
    {
      "place_id": "ChIJz1eCZLV19zkR_hD5gptKzsc",
      "name": "Bharat petroleum",
      "address": "C73C+FM9, Dejuri",
      "lat": 23.4036658,
      "lng": 87.27173680000001,
      "open_now": null
    },
    {
      "place_id": "ChIJHZjIi18N9zkR_G1ErOEpJdg",
      "name": "IndianOil",
      "address": "J L No 17, Khatian 442/4 Plot No 157P, Ghanashyampur, Krishnanagar",
      "lat": 23.47107399999999,
      "lng": 87.197734,
      "open_now": true
    },
    {
      "place_id": "ChIJdd48XoNx9zkRGKg4o0g9_ZM",
      "name": "Hindustan Petroleum Corporation Limited",
      "address": "Ground Floor, Coke Oven, near Doctor Bidhan Chandra Roy Avenue, PCBL More, Durgapur",
      "lat": 23.5077431,
      "lng": 87.3103237,
      "open_now": true
    },
    {
      "place_id": "ChIJnRklJwBx9zkRU655bsVms3o",
      "name": "D P L",
      "address": "L Housing Complex, D.P, Industrial Area, Durgapur",
      "lat": 23.5115595,
      "lng": 87.3114258,
      "open_now": null
    },
    {
      "place_id": "ChIJSYLlbYNx9zkR6hOSPxVKdUs",
      "name": "IndianOil",
      "address": "Lock No 11013, Dr BC Roy Avenue Paschim Bardhaman, Industrial Area",
      "lat": 23.512094,
      "lng": 87.3110125,
      "open_now": true
    },
    {
      "place_id": "ChIJH8xLhJpx9zkR1kBDbDZ0xwM",
      "name": "Indane Bottling Plant",
      "address": "G877+CFC, Lenin Sarani, Industrial Area, Durgapur",
      "lat": 23.5135615,
      "lng": 87.313651,
      "open_now": true
    },
    {
      "place_id": "ChIJE5QTMQlx9zkR6B0XwDu3MKo",
      "name": "IndianOil",
      "address": "GF, JP Avenue, Sagarbhanga, NH 60 Zonal Centre,Durgapur, Sagarbhanga, Col",
      "lat": 23.496804,
      "lng": 87.328171,
      "open_now": true
    },
    {
      "place_id": "ChIJX86CmAhx9zkRLZ9fSDs2vlg",
      "name": "Hindustan Petroleum Corporation Limited",
      "address": "Ground Floor, Zonal Centre, Jadabendra Panja Avenue, Sagarbhanga, Durgapur",
      "lat": 23.497931,
      "lng": 87.33078100000002,
      "open_now": true
    },
    {
      "place_id": "ChIJkxnCqq1x9zkRuBr9VFaBlG8",
      "name": "IndianOil",
      "address": "No 112, Lock No 12006, HP GT Road, Barddhaman, Khayrasole, Durgapur",
      "lat": 23.511513,
      "lng": 87.338753,
      "open_now": true
    },
    {
      "place_id": "ChIJYSVp001w9zkRQGMEwSauZIY",
      "name": "IndianOil",
      "address": "C 415, Ssb Sarani, Bidhannagar, Durgapur",
      "lat": 23.5173718,
      "lng": 87.3458909,
      "open_now": true
    },
    {
      "place_id": "ChIJU1RlUT569zkRtlOlaxVrZlo",
      "name": "IndianOil",
      "address": "",
      "lat": 23.476452,
      "lng": 87.4029558,
      "open_now": true
    },
    {
      "place_id": "ChIJuddLiVhw9zkRa755PA1gBQw",
      "name": "Hindustan Petroleum Corporation Limited",
      "address": "Ground Floor, Muchipara, Grand Trunk Road, Durgapur",
      "lat": 23.503911,
      "lng": 87.354061,
      "open_now": true
    },
    {
      "place_id": "ChIJfQf8EPZx9zkRVP6KFpcKxYc",
      "name": "IndianOil",
      "address": "Lock No 11009 Bamunara, Bidhannagar, Banskopa",
      "lat": 23.492351,
      "lng": 87.37308349999999,
      "open_now": true
    },
    {
      "place_id": "ChIJH0qjoI5x9zkRVpC1SQy5I_4",
      "name": "Surya Lakshmi Service Station",
      "address": "NH-02, Banskopa",
      "lat": 23.4919176,
      "lng": 87.3748863,
      "open_now": null
    },
    {
      "place_id": "ChIJzVWYx4Rw9zkRc2j_fiaWwSE",
      "name": "HP Petrol Pump - Gorai Fuel Centre",
      "address": "Ground Floor, Bamunara Industrial, More, Estate, Banskopa",
      "lat": 23.4922194,
      "lng": 87.3748016,
      "open_now": true
    },
    {
      "place_id": "ChIJkTdVDcd79zkRY6VKaFUsKOM",
      "name": "BHARAT PETROLEUM - MAA KAMAKSHA SERVICE STATION",
      "address": "Chatty, Rajbandh",
      "lat": 23.4873816,
      "lng": 87.38266999999999,
      "open_now": true
    },
    {
      "place_id": "ChIJA5RuELBx9zkRnyuXv9VSmSA",
      "name": "HP Petrol Pump - Auto Care Centre",
      "address": "Indo American More, Ground Floor NH 2, Durgapur",
      "lat": 23.51517309999999,
      "lng": 87.33213839999999,
      "open_now": true
    },
    {
      "place_id": "ChIJq6J40lV39zkRcIN-RlxRkQA",
      "name": "Jharna Fuel Services",
      "address": "C9JH+3F, Pakhanna Bhairabpur",
      "lat": 23.4301771,
      "lng": 87.3786956,
      "open_now": null
    },
    {
      "place_id": "ChIJjQWKMQBx9zkRJfB_jX_I8vg",
      "name": "durgapur city center",
      "address": "G8C6+5QF, Durgapur",
      "lat": 23.5204443,
      "lng": 87.3119227,
      "open_now": null
    },
    {
      "place_id": "ChIJ2XKCKMJ39zkRzfr6dzCgVik",
      "name": "IndianOil",
      "address": "Plot No 438, Barjora Pakhanna, Palashbani",
      "lat": 23.4046973,
      "lng": 87.3695043,
      "open_now": true
    },
    {
      "place_id": "ChIJ4bTUDNF39zkRkj5kj86NzRI",
      "name": "IndianOil Petrol Pump",
      "address": "Pakhana ,Palashbani, Natungram, Para",
      "lat": 23.4042748,
      "lng": 87.36889839999999,
      "open_now": null
    },
    {
      "place_id": "ChIJv71vcQB39zkRDQs77LotKkM",
      "name": "Bharat Petroleum (Fual Plaza)",
      "address": "99X3+H79, Suratpur",
      "lat": 23.3982741,
      "lng": 87.35418729999999,
      "open_now": null
    },
    {
      "place_id": "ChIJgQ9vjxN79zkRcd-khPR9SRk",
      "name": "Bharat Petroleum, Petrol Pump -Rajlaxmi Auto Filling Stn.",
      "address": "opp. DITM, Grand Trunk Road, RAJBANDH",
      "lat": 23.4741908,
      "lng": 87.40853349999999,
      "open_now": true
    },
    {
      "place_id": "ChIJ6UjsLYJ79zkRBGFssC5KDPo",
      "name": "IndianOil",
      "address": "GF, Trilokchandrapur, Kanksha Near Barddhaman, NH 60 4 Mile More, Gram Exp Hwy, Bidhannagar, Durgapur",
      "lat": 23.503185,
      "lng": 87.454765,
      "open_now": true
    },
    {
      "place_id": "ChIJ_XwHXNZ79zkRPLKtZrIrdk0",
      "name": "Maa Sarada Service Station",
      "address": "FC97+VWM, National Highway 19",
      "lat": 23.4697174,
      "lng": 87.4147887,
      "open_now": true
    },
    {
      "place_id": "ChIJecP-jjF69zkRlvv5h5lL8EA",
      "name": "Hindustan Petroleum Corporation Limited",
      "address": "Ground Floor, near KM Stone 511, NH 2, Birudiha",
      "lat": 23.4703912,
      "lng": 87.4153097,
      "open_now": true
    },
    {
      "place_id": "ChIJRRnnRQ579zkRT-pWKi3k4ZQ",
      "name": "IndianOil",
      "address": "Lock No 13014, RTKM 8 GT Road, Burdwan, Birudiha",
      "lat": 23.4619358,
      "lng": 87.4308599,
      "open_now": true
    },
    {
      "place_id": "ChIJ50RMqFp59zkRIdD5wM-ss5A",
      "name": "Akash Lohani",
      "address": "Panagarh Bazar, Panagarh",
      "lat": 23.4535712,
      "lng": 87.4475143,
      "open_now": null
    },
    {
      "place_id": "ChIJ1RJ9TY179zkRaoebI2JragY",
      "name": "IndianOil",
      "address": "Ground Floor, Kanksa",
      "lat": 23.4600341,
      "lng": 87.4555817,
      "open_now": true
    },
    {
      "place_id": "ChIJJ2Xv0ap59zkRX-kUDtf_Jh0",
      "name": "Bharat Petroleum Petrol Pump , MAA ANNAPURNA FILLING STATION",
      "address": "SHILAMPUR, KANKSA, Paschim Gangarampur",
      "lat": 23.426611,
      "lng": 87.44024,
      "open_now": true
    },
    {
      "place_id": "ChIJzZHqqFJ59zkRShL_HAwdBVg",
      "name": "Panagarh Petrol Pump",
      "address": "Panagarh Bazar, Kanksa",
      "lat": 23.4454119,
      "lng": 87.45986219999999,
      "open_now": true
    },
    {
      "place_id": "ChIJGS4qMAB99zkRnPNslfRRSTE",
      "name": "COCO KANKSA",
      "address": "FF58+724, Kanksa",
      "lat": 23.4581396,
      "lng": 87.46508349999999,
      "open_now": null
    },
    {
      "place_id": "ChIJp8MK_Ot99zkRteEzklTLDJQ",
      "name": "IndianOil",
      "address": "Ground Floor, NH 2, Bypass, Panagarh",
      "lat": 23.4589409,
      "lng": 87.465797,
      "open_now": true
    },
    {
      "place_id": "ChIJa5n7ALp-9zkRxqMXebROSuk",
      "name": "IndianOil",
      "address": "Lock No 11019, Grand Trunk Road, Panagarh Bazar, Bidhannagar, Durgapur",
      "lat": 23.43997599999999,
      "lng": 87.469915,
      "open_now": true
    },
    {
      "place_id": "ChIJi5jx4Lt-9zkR9t5xSwLPyws",
      "name": "IndianOil",
      "address": "Ground Floor, Matix Road, Panagarh Bazar, Natunpara, Panagarh",
      "lat": 23.439749,
      "lng": 87.474159,
      "open_now": true
    },
    {
      "place_id": "ChIJd71V9zJ_9zkRJ7IdrLnr-mU",
      "name": "Hindustan Petroleum Corporation Limited",
      "address": "Ground Floor Sonai, Pondali",
      "lat": 23.4420216,
      "lng": 87.4775602,
      "open_now": true
    },
    {
      "place_id": "ChIJBeAuLPxt9zkRF2Z9em9fJV4",
      "name": "IndianOil",
      "address": "Lock, 11010, Mahatma Gandhi Road, Durgapur",
      "lat": 23.555965,
      "lng": 87.299469,
      "open_now": true
    },
    {
      "place_id": "ChIJ_1VvQnZy9zkR3kV9Qe_xo2w",
      "name": "Raja Service Station Bharat Petroleum",
      "address": "Delhi - Kolkata Highway, Benachity, Durgapur",
      "lat": 23.547108,
      "lng": 87.275454,
      "open_now": true
    },
    {
      "place_id": "ChIJr3_3oQxy9zkRxq9Lg3HLmEk",
      "name": "Hindustan Petroleum Corporation Limited",
      "address": "Ground Floor, Grand Trunk Road, Bhiringi, Bardhaman",
      "lat": 23.543031,
      "lng": 87.282911,
      "open_now": true
    },
    {
      "place_id": "ChIJg9lRkERz9zkRbDgiS3lV3Hw",
      "name": "Bharat Petroleum, Petrol Pump -Paul Auto Services",
      "address": "DSP GATE,NH2,DURGAPUR,BURD, BARDHAMAN",
      "lat": 23.560404,
      "lng": 87.2552788,
      "open_now": true
    },
    {
      "place_id": "ChIJfXUcbuxt9zkRL4GeCrGrarc",
      "name": "IndianOil",
      "address": "Lock No 12016, Rtkm/38, Akbar Road, Benachity, Durgapur",
      "lat": 23.566603,
      "lng": 87.284988,
      "open_now": true
    },
    {
      "place_id": "ChIJI_NBiWpt9zkR71GW6OrN1hM",
      "name": "HP Petrol Pump",
      "address": "H69V+V43, Delhi - Kolkata Highway, Main Gate, Durgapur",
      "lat": 23.569633,
      "lng": 87.242803,
      "open_now": true
    },
    {
      "place_id": "ChIJEx8goedt9zkRhL57OApa3G8",
      "name": "Bharat Petroleum, Super Service Station",
      "address": "A-Zone, Durgapur",
      "lat": 23.5717582,
      "lng": 87.2941827,
      "open_now": true
    },
    {
      "place_id": "ChIJJVAfeUBt9zkRNK5rcwnS40E",
      "name": "IndianOil",
      "address": "Ground Floor Gopalmath Durgapur, Oyaria",
      "lat": 23.571998,
      "lng": 87.239786,
      "open_now": true
    },
    {
      "place_id": "ChIJNwjXSXZy9zkR99y5ZJYW814",
      "name": "Hindustan Petroleum Corporation Limited",
      "address": "Ground Floor, Grand Trunk Road, Bhiringee More, Durgapur",
      "lat": 23.5476305,
      "lng": 87.27457419999999,
      "open_now": true
    },
    {
      "place_id": "ChIJQ04uJ7Nz9zkRyX15dbpnNoo",
      "name": "SUJOY",
      "address": "Faridpur, 713213, School Para, Durgapur",
      "lat": 23.5401392,
      "lng": 87.28318879999999,
      "open_now": null
    },
    {
      "place_id": "ChIJY1q0UABt9zkRSKhxmeweWkk",
      "name": "G D ENERGIES, HP PETROL PUMP",
      "address": "Old Court, Grand Trunk Road, Industrial Area, Durgapur",
      "lat": 23.5570615,
      "lng": 87.25969669999999,
      "open_now": true
    },
    {
      "place_id": "ChIJBy48D5Zz9zkR_wX3K_y6zjQ",
      "name": "IndianOil",
      "address": "JL No 74, Touzi No 20, Kh No 737128, Plot No 854 & 856, Faridpur Road, Bardhaman",
      "lat": 23.538063,
      "lng": 87.28931399999999,
      "open_now": true
    },
    {
      "place_id": "ChIJTaFx-6Vz9zkRlHBWnQcJARo",
      "name": "IndianOil",
      "address": "Ground Floor, NH 2, Gandhi More, Durgapur",
      "lat": 23.5380461,
      "lng": 87.28983,
      "open_now": true
    },
    {
      "place_id": "ChIJz_MOSFdt9zkRC3B2zjXSoL0",
      "name": "Durgapur Highway Service",
      "address": "116, Grand Trunk Road, Faridpur, Durgapur",
      "lat": 23.55944749999999,
      "lng": 87.25604899999999,
      "open_now": true
    },
    {
      "place_id": "ChIJ9cXA0Rpy9zkRLYx8hI1mUMk",
      "name": "IndianOil",
      "address": "Saheed, Shahid Khudiram Sarani, City Center, Durgapur",
      "lat": 23.536922,
      "lng": 87.29356399999999,
      "open_now": true
    },
    {
      "place_id": "ChIJb8ZdsuFt9zkRiC-ET9cH2xk",
      "name": "Bharat Petroleum, Petrol Pump -Raja S/Station",
      "address": "Main Gate, Durgapur",
      "lat": 23.5651823,
      "lng": 87.2488468,
      "open_now": true
    },
    {
      "place_id": "ChIJ9XsVC79t9zkRnoyGZzPIQyU",
      "name": "Jio BP Filling Station",
      "address": "H77P+CHW, Prantika, Michael Sarani, Bhiringi, A-Zone, Durgapur",
      "lat": 23.5636008,
      "lng": 87.2864417,
      "open_now": null
    },
    {
      "place_id": "ChIJlW-EOQBt9zkRBl8S4eFcMhA",
      "name": "Reliance petrol pump",
      "address": "Fine Arts Club, Tagore Avenue, Tagore Place, A-Zone, Durgapur",
      "lat": 23.5636067,
      "lng": 87.28644299999999,
      "open_now": null
    },
    {
      "place_id": "ChIJG1UvSABt9zkR6cPoT5-48Zs",
      "name": "Mini petrol pump (Afjol fuel centre)",
      "address": "125, SN Banerjee Road, Rishi Aurobindo Nagar, Durgapur",
      "lat": 23.5744549,
      "lng": 87.275976,
      "open_now": null
    },
    {
      "place_id": "ChIJXQy6m11x9zkRsjlPTE-oUWk",
      "name": "Bharat Petroleum, Petrol Pump -Super Filling Station",
      "address": "Kabiguru Sarani, SAIL Co-operative, City Center, Durgapur",
      "lat": 23.5474437,
      "lng": 87.31094900000001,
      "open_now": true
    },
    {
      "place_id": "ChIJXyHxaT9t9zkRHWxuw8V7sGM",
      "name": "Hindustan Petroleum Corporation Limited",
      "address": "Ground Floor, Gopalmath, Andal Gram",
      "lat": 23.57311099999999,
      "lng": 87.23811099999999,
      "open_now": true
    },
    {
      "place_id": "ChIJM1-KFDhx9zkRrLPMhl9iHfA",
      "name": "Indianoil-Adani Gas Pvt Ltd CNG Station",
      "address": "G8W6+XCM, Kabiguru Sarani, City Center, Durgapur",
      "lat": 23.5474657,
      "lng": 87.31104599999999,
      "open_now": null
    },
    {
      "place_id": "ChIJnylAqeJx9zkRrqh5h0UDwV4",
      "name": "Hindustan Petroleum Corporation Limited",
      "address": "Ground Floor Bhagatsingh, Chowk, Kabiguru Sarani, Durgapur",
      "lat": 23.5494585,
      "lng": 87.31193329999999,
      "open_now": true
    },
    {
      "place_id": "ChIJhSh8E_Bx9zkRo933qKC6lJg",
      "name": "Oil Co Service centre",
      "address": "G8X7+JGW, Jawahar Lal Nehru Road, City Center, Durgapur",
      "lat": 23.5491062,
      "lng": 87.31383199999999,
      "open_now": true
    },
    {
      "place_id": "ChIJfdDsr9Nt9zkRVXth39WBFKs",
      "name": "Vai Vai Petrol service",
      "address": "AMRAI JABUNA ROAD, 3, Durgapur",
      "lat": 23.5874497,
      "lng": 87.260224,
      "open_now": null
    },
    {
      "place_id": "ChIJkd3-6_5t9zkRujHUpt7Afdg",
      "name": "S. S. FUEL SERVICE (Gov. Reg.) এস এস ফুয়েল সা্রবিস -পেটোল পাম্প",
      "address": "Raghunathpur, Durgapur",
      "lat": 23.5804682,
      "lng": 87.2971626,
      "open_now": true
    },
    {
      "place_id": "ChIJJerjNRFu9zkRr2kl3AA3SWE",
      "name": "Anjali Filling Station",
      "address": "H888+CFX, Sarath Chandra Avenue, B-Zone, Durgapur",
      "lat": 23.5661017,
      "lng": 87.3162266,
      "open_now": null
    },
    {
      "place_id": "ChIJHR2JdUJt9zkR-tJUFjPpmVc",
      "name": "Bharat Petroleum, Petrol Pump -Saikat Automobile",
      "address": "ANDAL ON NH-2 LHS TOWARDS, BARDHAMAN",
      "lat": 23.5826482,
      "lng": 87.22352629999999,
      "open_now": true
    },
    {
      "place_id": "ChIJsXNP2m9t9zkROWfjQyvj1Xs",
      "name": "IndianOil",
      "address": "No 3056, Lr Khatian, Plot No 5126 5127 & 5128, Andal",
      "lat": 23.58317,
      "lng": 87.22317,
      "open_now": true
    },
    {
      "place_id": "ChIJe926TnJl9zkRwMoRO-3IiMY",
      "name": "Rajat Store",
      "address": "Akandara More, Road, More, Akandara",
      "lat": 23.5719824,
      "lng": 87.3874104,
      "open_now": null
    },
    {
      "place_id": "ChIJFYXrRCJv9zkRlvjC_7d0u2M",
      "name": "Hindustan Petroleum Corporation Limited",
      "address": "Ground Floor, Parulia",
      "lat": 23.5990236,
      "lng": 87.3200226,
      "open_now": true
    },
    {
      "place_id": "ChIJ_xPBGQBv9zkRg6l-3IC3pM0",
      "name": "Chatterjee Filling Centre",
      "address": "H9V8+958, Dhabani",
      "lat": 23.5937289,
      "lng": 87.3653975,
      "open_now": null
    },
    {
      "place_id": "ChIJb4O9BDll9zkRrYwnVJkJnvo",
      "name": "IndianOil",
      "address": "Ground Floor Shivpur Road, Kanksa, Malandighi, Durgapur",
      "lat": 23.566881,
      "lng": 87.40386199999999,
      "open_now": true
    },
    {
      "place_id": "ChIJ76sFhjxl9zkRwuy9l5P3ops",
      "name": "Essar Oil, Durgapur",
      "address": "Durgapur",
      "lat": 23.5699175,
      "lng": 87.4087411,
      "open_now": true
    },
    {
      "place_id": "ChIJoWxhu8p79zkR9AccwCCiLDk",
      "name": "IndianOil",
      "address": "Domra",
      "lat": 23.5256875,
      "lng": 87.45531249999999,
      "open_now": true
    },
    {
      "place_id": "ChIJo3EYbkd79zkRilJ1o6PGii4",
      "name": "Bharat Petroleum, Petrol Pump -Balaji S/Station",
      "address": "DOMRA,SH-5,BURDWAN DIST, BARDHAMAN",
      "lat": 23.5277332,
      "lng": 87.455646,
      "open_now": true
    },
    {
      "place_id": "ChIJB9YFs1N79zkRa9GQ0gU94D4",
      "name": "IndianOil",
      "address": "Ground Floor, Kanksa, Panagarh Moregram Expressway, Domra, Bidhannagar, Durgapur",
      "lat": 23.530941,
      "lng": 87.45819499999999,
      "open_now": true
    },
    {
      "place_id": "ChIJ862rXl979zkR0rul6K8x3-w",
      "name": "Hindustan Petroleum Corporation Limited",
      "address": "Ground Floor, near Panagarh, Illambazar Road, Trilokchandpur, Domra",
      "lat": 23.5334238,
      "lng": 87.45996679999999,
      "open_now": true
    },
    {
      "place_id": "ChIJEU-LY1ls9zkRtWqlQenCoD8",
      "name": "IndianOil",
      "address": "Ground Floor, Hattala, Icchapur, Laodoha",
      "lat": 23.61213,
      "lng": 87.266621,
      "open_now": true
    },
    {
      "place_id": "ChIJN26DIuIS9zkRcE-CaduzSyE",
      "name": "IndianOil",
      "address": "Ground Floor, Bhadur Gram, NH 2, Andal",
      "lat": 23.593966,
      "lng": 87.196739,
      "open_now": true
    },
    {
      "place_id": "ChIJOz9mZVls9zkRth5Fsjaz-84",
      "name": "Laxmi Narayan Pump",
      "address": "J768+VFX, Ichapur",
      "lat": 23.6122418,
      "lng": 87.2662198,
      "open_now": null
    },
    {
      "place_id": "ChIJl7OJgExt9zkRcTevxPH-ry0",
      "name": "IndianOil",
      "address": "45, 64, Plot No 44, 65, Tamla Road, Andal",
      "lat": 23.5982884,
      "lng": 87.2293955,
      "open_now": true
    },
    {
      "place_id": "ChIJRZ-vYABt9zkRf9EHchnZRD4",
      "name": "TEWARY PETROL PUMP",
      "address": "J7QG+H2, Sorpi",
      "lat": 23.6388799,
      "lng": 87.2750835,
      "open_now": true
    },
    {
      "place_id": "ChIJf7TnK40T9zkRO7fbeK0Ol68",
      "name": "Manish Automobiles",
      "address": "Indianoil petrol pump, DakshinKhand",
      "lat": 23.6110394,
      "lng": 87.2178797,
      "open_now": true
    },
    {
      "place_id": "ChIJq7ACzzMT9zkRkztJ2bJwVXU",
      "name": "IndianOil",
      "address": "Ground Floor Dakshin Khanda, Andal",
      "lat": 23.611049,
      "lng": 87.21746499999999,
      "open_now": true
    },
    {
      "place_id": "ChIJcSXgfXVr9zkRPUPSq0wJ4bw",
      "name": "IndianOil",
      "address": "Plot No 1686/3770/P, Ukhra",
      "lat": 23.6468596,
      "lng": 87.2604459,
      "open_now": true
    },
    {
      "place_id": "ChIJSakIaKJr9zkRb9ILn0dNkYI",
      "name": "B M Fuel Station",
      "address": "J7W6+W49, Pandaveswar Road, Ukhra",
      "lat": 23.6472963,
      "lng": 87.2603515,
      "open_now": true
    },
    {
      "place_id": "ChIJZQxbI1ET9zkR1zboW48LtGQ",
      "name": "Dakshin khanda Mini Petrol pump",
      "address": "Dakshin khanda, kalibari more Paschim",
      "lat": 23.6179736,
      "lng": 87.21750349999999,
      "open_now": true
    },
    {
      "place_id": "ChIJaTR-Zatt9zkRhmxR8C_N1rQ",
      "name": "Hindustan Petroleum Corporation Limited",
      "address": "Ground Floor, near Masjid, Andal",
      "lat": 23.6288865,
      "lng": 87.2226979,
      "open_now": true
    },
    {
      "place_id": "ChIJT6CiXsdr9zkRnGO7zTiedB8",
      "name": "SUNRISE SERVICE STATION সানরাইজ সার‌ভিস স্টেশন Petrol Pump",
      "address": "J7XG+FGG, Sarpi",
      "lat": 23.6486875,
      "lng": 87.2763281,
      "open_now": true
    },
    {
      "place_id": "ChIJ14lAFcAT9zkRy7LR6KR8PwE",
      "name": "Fast Food Corner",
      "address": "ANDAL MORE, Hospital Rd, Grand Trunk Road, Durgapur",
      "lat": 23.5873238,
      "lng": 87.2112369,
      "open_now": null
    },
    {
      "place_id": "ChIJS4dAHdwS9zkR9r0RsStNuHM",
      "name": "Bharat Petroleum",
      "address": "India",
      "lat": 23.5894246,
      "lng": 87.2063893,
      "open_now": null
    },
    {
      "place_id": "ChIJ81LYHNwS9zkRanavB3MNVhU",
      "name": "National Highway service station",
      "address": "Andal",
      "lat": 23.5893194,
      "lng": 87.2064106,
      "open_now": true
    },
    {
      "place_id": "ChIJy9UAGTlr9zkROcguvzJJ9nM",
      "name": "IndianOil",
      "address": "Lock No 12015 Rtkm 64, Ukhra, Balijuri",
      "lat": 23.652859,
      "lng": 87.23612299999999,
      "open_now": true
    },
    {
      "place_id": "ChIJvT3W0d0S9zkRw8gkn7w8bN4",
      "name": "LPG Supplier (BP)",
      "address": "H6Q3+FMR, Dighnala, Andal",
      "lat": 23.58873629999999,
      "lng": 87.2041471,
      "open_now": null
    },
    {
      "place_id": "ChIJWRhiEdJr9zkRZpBY6r57-Fk",
      "name": "Hindustan Petroleum Corporation Limited",
      "address": "Ground Floor, Khandra, Ukhra",
      "lat": 23.6521778,
      "lng": 87.2326508,
      "open_now": true
    },
    {
      "place_id": "ChIJ6c4Mcf4T9zkR0JLYyb1sOcA",
      "name": "Reliance Petroleum",
      "address": "National Highway 19, Andal",
      "lat": 23.5943082,
      "lng": 87.19535069999999,
      "open_now": null
    },
    {
      "place_id": "ChIJ9XA8N41v9zkRk6L7NfxUjcs",
      "name": "Tara Maa Enterprises",
      "address": "J96C+C29, Unnamed Road, Kataberia",
      "lat": 23.6110329,
      "lng": 87.37012089999999,
      "open_now": null
    },
    {
      "place_id": "ChIJux9GH2Nv9zkR2QOkFUAyVak",
      "name": "Essar maintenance Workshop",
      "address": "J96H+R7V, Chak Bishnupur",
      "lat": 23.6121223,
      "lng": 87.37816049999999,
      "open_now": true
    },
    {
      "place_id": "ChIJlajcd6xp9zkRfs7B89SONhY",
      "name": "IndianOil",
      "address": "Ground Floor, Jamgara, Faridpur, Madhaiganj",
      "lat": 23.65243,
      "lng": 87.336163,
      "open_now": true
    },
    {
      "place_id": "ChIJ7R1DucZl9zkRhmgVjhSYGvA",
      "name": "IndianOil",
      "address": "Ground Floor, Durgapur- Bamunara- Arra- Malandighi- Shibpur- Joydev Kenduli- Khagra Road, Bidhannagar, Shibpur",
      "lat": 23.627522,
      "lng": 87.406554,
      "open_now": true
    },
    {
      "place_id": "ChIJeeTUA5Bm9zkRpeYH5D3BrNw",
      "name": "Petrol Pump",
      "address": "Tikarbeta",
      "lat": 23.659175,
      "lng": 87.4308277,
      "open_now": true
    }
  ]
}