{
  "city": "Howrah",
  "state": "West Bengal",
  "count": 265,
  "center": {
    "lat": 22.5868,
    "lng": 88.311
  },
  "pumps": [
    {
      "place_id": "ChIJRRt6lxV5AjoRQHJf9CYl7-o",
      "name": "Bartala Pertol Pump",
      "address": "G7V8+4G2, SA Farooquie Road, Bartala, Metiabruz, Kolkata",
      "lat": 22.5427681,
      "lng": 88.2662505,
      "open_now": true
    },
    {
      "place_id": "ChIJGT-xzJ1hUjoR2U22DdQNjGA",
      "name": "IndianOil",
      "address": "Budge Budge Trunk Road, Sarkarpool, Gopalpur",
      "lat": 22.5152863,
      "lng": 88.2890261,
      "open_now": true
    },
    {
      "place_id": "ChIJu3qzbIR5AjoRkgamnjHk12I",
      "name": "IndianOil",
      "address": "opposite Nature Park, Plate No D/832, Taratala Road, Makalhati, Kolkata",
      "lat": 22.522939,
      "lng": 88.290745,
      "open_now": true
    },
    {
      "place_id": "ChIJ8YwhW455AjoRhbccDFgsYrs",
      "name": "IndianOil",
      "address": "Plot No D/167, Sonarpur Road, Paharpur, Kolkata",
      "lat": 22.524888,
      "lng": 88.29830109999999,
      "open_now": true
    },
    {
      "place_id": "ChIJgQjykZd5AjoR1nlC1xZdjio",
      "name": "Bharat Petroleum Petrol Pump, BP Garden Reach",
      "address": "KPT,CIRCLR GARDENREACH RD,, Kolkata",
      "lat": 22.5377427,
      "lng": 88.29527069999999,
      "open_now": true
    },
    {
      "place_id": "ChIJvc93X-d4AjoRiozv5EKtKbs",
      "name": "IndianOil",
      "address": "Ground Floor, mouri, Panchpara, Andul, Radhadasi",
      "lat": 22.57020009999999,
      "lng": 88.26580009999999,
      "open_now": true
    },
    {
      "place_id": "ChIJFZdMwx96AjoRuUqtkfitZsQ",
      "name": "Spice Gas",
      "address": "G884+6GR, 14, Taratala Road, CPT Colony, Taratala, Kolkata",
      "lat": 22.5148564,
      "lng": 88.3059719,
      "open_now": true
    },
    {
      "place_id": "ChIJi6dO5vJ5AjoRHV9TO2roNBw",
      "name": "Hindustan Petroleum Corporation Limited",
      "address": "Ground Floor, Hide Road, Kolkata",
      "lat": 22.525161,
      "lng": 88.306201,
      "open_now": true
    },
    {
      "place_id": "ChIJUwMru1R4AjoRNquLf2FxoNs",
      "name": "Hindustan Petroleum Corporation Limited",
      "address": "15, Andul Road, Howrah",
      "lat": 22.564121,
      "lng": 88.288821,
      "open_now": true
    },
    {
      "place_id": "ChIJv_eUxm16AjoRBORnf-OuUgg",
      "name": "IndianOil",
      "address": "No 122/A3, Diamond Harbour Road, Sanjib Pally, Behala, Kolkata",
      "lat": 22.4865761,
      "lng": 88.3113588,
      "open_now": true
    },
    {
      "place_id": "ChIJUTNai1p5AjoRK9SacvcHFew",
      "name": "KEROSENE OIL SHOP",
      "address": "Dakhin, Kankhuli, Kolkata",
      "lat": 22.5244101,
      "lng": 88.2570217,
      "open_now": null
    },
    {
      "place_id": "ChIJXSbtXOR7AjoRWjdEYnpWSpQ",
      "name": "IBP Petrol Pump",
      "address": "Budge Budge Trunk Road, Gauripur, Maheshtala",
      "lat": 22.507267,
      "lng": 88.25880409999999,
      "open_now": null
    },
    {
      "place_id": "ChIJdceSDDl8AjoR7baMGZOGDgo",
      "name": "Suporna filling station BPCL Petrol Pump",
      "address": "F6W9+3WF, opp. ESI Hospital, Parbangla, Budge Budge, Maheshtala",
      "lat": 22.4951984,
      "lng": 88.2197893,
      "open_now": true
    },
    {
      "place_id": "ChIJ9f7LJ-t7AjoRQqVhFkTltqw",
      "name": "HP Petrol Pump - Central Service Station",
      "address": "27, Jatindra Mohan Avenue Road, Sova Bazar, Darjipara, Maheshtala",
      "lat": 22.492176,
      "lng": 88.263018,
      "open_now": true
    },
    {
      "place_id": "ChIJt_6OnTd8AjoRMBeWDHwSdlo",
      "name": "Hindustan Petroleum Corporation Limited",
      "address": "Ground Floor, Budge Budge Trunk Road, Maheshtala",
      "lat": 22.4937327,
      "lng": 88.2162072,
      "open_now": true
    },
    {
      "place_id": "ChIJbc_bDr97AjoRCJne2WR4xJ8",
      "name": "IndianOil",
      "address": "80, Ho Chi Minh Sarani, Sarsuna, Kolkata",
      "lat": 22.48941,
      "lng": 88.26837,
      "open_now": true
    },
    {
      "place_id": "ChIJJRj4oUp8AjoRQ46RCXZI7TA",
      "name": "Hindustan Petroleum Corporation Limited",
      "address": "Ground Floor, Road, Sarangabad, Budge Budge, Kolkata",
      "lat": 22.4903983,
      "lng": 88.2083429,
      "open_now": true
    },
    {
      "place_id": "ChIJk7ZAdCB5AjoRONMcPZIi03A",
      "name": "Bharat Petroleum, Petrol Pump -Gill Service Station",
      "address": "Z.3/151, DR. A.K. ROAD, RAJABAGAN, Badartala, Kolkata",
      "lat": 22.5529019,
      "lng": 88.2601201,
      "open_now": true
    },
    {
      "place_id": "ChIJeyi_qrd9AjoRxU0O_RwwHQQ",
      "name": "K.C Paul Service Station",
      "address": "58, 1, Ashutosh Mukherjee Road, Shyampur, Budge Budge, Maheshtala",
      "lat": 22.4878213,
      "lng": 88.19994679999999,
      "open_now": true
    },
    {
      "place_id": "ChIJb4q75XV5AjoRBwvA4x0XOKs",
      "name": "Sakina Service Station",
      "address": "S.N, Satyen Bose Road, Panchpara, Howrah",
      "lat": 22.5657742,
      "lng": 88.2552283,
      "open_now": null
    },
    {
      "place_id": "ChIJ5TJQ8Xl5AjoR2HsqPddPkOY",
      "name": "IndianOil",
      "address": "No 1/14, Regent Park, Azadgarh, Paharpur, Kolkata",
      "lat": 22.5360961,
      "lng": 88.2960216,
      "open_now": true
    },
    {
      "place_id": "ChIJiytiGgB5AjoRxeo5zO6IuP0",
      "name": "NSD",
      "address": "G321, Garden Reach Road, Alif Nagar, Ramnagar Lane Basti, Garden Reach, Kolkata",
      "lat": 22.54481999999999,
      "lng": 88.29213,
      "open_now": null
    },
    {
      "place_id": "ChIJI_nlq056AjoR67ezhtjkm04",
      "name": "IndianOil",
      "address": "545, Ho Chi Minh Sarani, New Shakuntala Park, Kolkata",
      "lat": 22.485439,
      "lng": 88.29045099999999,
      "open_now": true
    },
    {
      "place_id": "ChIJkQD0DIB5AjoRezsdAyaf2TA",
      "name": "Bharat Petroleum, Petrol Pump -Md. Sharif Service Station",
      "address": "GARDEN REACH ROAD,KOLKATA, Kolkata",
      "lat": 22.5474888,
      "lng": 88.2913688,
      "open_now": true
    },
    {
      "place_id": "ChIJhQLnGxZ5AjoRc3tecagW65Q",
      "name": "HPCL Ramnagar Terminal",
      "address": "G7RW+H68, Netaji Subhas Dock, Garden Reach, Kolkata",
      "lat": 22.5414102,
      "lng": 88.2955688,
      "open_now": null
    },
    {
      "place_id": "ChIJx2I1F715AjoROEurWa084kg",
      "name": "Hindustan Petroleum Corporation Limited",
      "address": "1, Hari Mohan Ghosh Road, Kolkata",
      "lat": 22.541521,
      "lng": 88.296201,
      "open_now": true
    },
    {
      "place_id": "ChIJhzaAFc15AjoR8QryN_HHvJM",
      "name": "Hindustan Petroleum Corporation Limited",
      "address": "E1/1, Garden Reach Road, Kolkata",
      "lat": 22.546024,
      "lng": 88.29469759999999,
      "open_now": true
    },
    {
      "place_id": "ChIJYdskIvN5AjoR6eLvCutvxck",
      "name": "28.No Petrol Pump",
      "address": "63-77, Garden Reach Road, Ramnagar Kumar Para Basti, Garden Reach, Kolkata",
      "lat": 22.5459538,
      "lng": 88.2947444,
      "open_now": true
    },
    {
      "place_id": "ChIJbbwz8v17AjoREbG0T2mErpg",
      "name": "Surbhi BPCL Petrolpump",
      "address": "7, Ho Chi Minh Sarani, Sarsuna, Kolkata",
      "lat": 22.485042,
      "lng": 88.293185,
      "open_now": true
    },
    {
      "place_id": "ChIJf6NfeQB5AjoRt146zqFwGfQ",
      "name": "Loading gate",
      "address": "H7C7+FWW, Duillya, Howrah",
      "lat": 22.5712482,
      "lng": 88.2648143,
      "open_now": null
    },
    {
      "place_id": "ChIJ6xRfrTd5AjoRCz0gJfaQYuQ",
      "name": "Hindustan Petroleum Corporation Limited",
      "address": "Jl No 37, 1008 & 1010, Plot No 1007, Andul Road, Panchpara, Sankrail, Howrah",
      "lat": 22.573032,
      "lng": 88.263346,
      "open_now": true
    },
    {
      "place_id": "ChIJ90OIZPV5AjoRp3QcX7WlV0o",
      "name": "IndianOil",
      "address": "16, Taratala Road, Taratala, Kolkata",
      "lat": 22.516106,
      "lng": 88.306007,
      "open_now": true
    },
    {
      "place_id": "ChIJMeroHt14AjoRudFkZkRYZuk",
      "name": "HP Petrol Pump Adhoc Shroff Brothers Mourigram",
      "address": "H79C+33H, Panchpara, Andul Road, Panchpara, Mourigram, Howrah",
      "lat": 22.5735246,
      "lng": 88.26330349999999,
      "open_now": true
    },
    {
      "place_id": "ChIJCfysW5N9AjoRayu08DIes0M",
      "name": "Mundial Export Import Finame Pvt Ltd",
      "address": "F5QJ+RW9, Joychandipur, Budge Budge, Kolkata",
      "lat": 22.4895349,
      "lng": 88.1823635,
      "open_now": true
    },
    {
      "place_id": "ChIJ963HCpR9AjoRdSZPJPWZW9g",
      "name": "RADHARANI FILLING STATION",
      "address": "165, Mahatma Gandhi Road, Budge Budge, Kolkata",
      "lat": 22.4862323,
      "lng": 88.1830227,
      "open_now": true
    },
    {
      "place_id": "ChIJDd9mwOx5AjoRXqSOd96sXKQ",
      "name": "Sibaprasad Jana",
      "address": "4th Bye Lane, Mourigram, Howrah",
      "lat": 22.5645513,
      "lng": 88.284815,
      "open_now": null
    },
    {
      "place_id": "ChIJq2hO5LV7AjoRTSNDwgnFaUk",
      "name": "Indane Gas Godown (Cooking Gas)",
      "address": "F7JW+3WF, Badam Tala, Sarsuna, Kolkata",
      "lat": 22.480187,
      "lng": 88.297291,
      "open_now": false
    },
    {
      "place_id": "ChIJscNSjup5AjoRPNTtU404vEs",
      "name": "Hindustan Petroleum Corporation Limited",
      "address": "No 3, Nimak Mahal Road, Khidirpur, Kolkata",
      "lat": 22.538299,
      "lng": 88.3064293,
      "open_now": true
    },
    {
      "place_id": "ChIJIxoD1ZN9AjoRL0-yvjUXb7A",
      "name": "BPCL Budge Budge Installation",
      "address": "No 04, near KPT Gate, 2, Graham Road, Budge Budge, Kolkata",
      "lat": 22.4845752,
      "lng": 88.18052399999999,
      "open_now": true
    },
    {
      "place_id": "ChIJk4G7IOp5AjoRih6ZF2t65Ws",
      "name": "Hide Road Petrol Pump",
      "address": "94, Garden Reach Road, BNR South Colony, Khidirpur, Kolkata",
      "lat": 22.5379364,
      "lng": 88.30937349999999,
      "open_now": null
    },
    {
      "place_id": "ChIJb0Hmg5Z5AjoRMAx7Mk-idsM",
      "name": "Mini World",
      "address": "2, Andul Road, Andul Mauri, Andul, Howrah",
      "lat": 22.5835945,
      "lng": 88.249265,
      "open_now": null
    },
    {
      "place_id": "ChIJuVExpDV_AjoRhtI89kz98g0",
      "name": "Hindustan Petroleum Corporation Limited",
      "address": "Ground Floor, Andul Road, Duillya, Howrah",
      "lat": 22.584351,
      "lng": 88.24326099999999,
      "open_now": true
    },
    {
      "place_id": "ChIJb-bZOwB_AjoRGJ96lYGFstY",
      "name": "Andol bus stop, HP petrol pump",
      "address": "H6MV+W77, Andul Road, Andul Bus Stop, Kamrangu, Duillya, Howrah",
      "lat": 22.58470329999999,
      "lng": 88.2431233,
      "open_now": null
    },
    {
      "place_id": "ChIJx-7_1bF5AjoRXoLvIUWPdnk",
      "name": "Indian Oil Petrol Pump",
      "address": "G8Q6+6HM, Dumayne Avenue, Tikiapara, Garden Reach, Kolkata",
      "lat": 22.5379556,
      "lng": 88.3113965,
      "open_now": true
    },
    {
      "place_id": "ChIJzXDodQCHAjoRjrDfgPd1yKQ",
      "name": "Bappa oil services",
      "address": "G548+XXH, Bauria Railway Level Crossing, Chakmadhu, Bauria, Howrah",
      "lat": 22.5074332,
      "lng": 88.1674965,
      "open_now": null
    },
    {
      "place_id": "ChIJEcXZ7zd_AjoRjQfDzx-aTUs",
      "name": "SADHUKHAN BROTHERS",
      "address": "Andul Road, Andul Mauri, Andul, Mahiari",
      "lat": 22.585521,
      "lng": 88.2370286,
      "open_now": true
    },
    {
      "place_id": "ChIJa11gYQx_AjoR4WPn8TIph50",
      "name": "IndianOil",
      "address": "Ground Floor, NH 6, Korela, Alampur",
      "lat": 22.5828757,
      "lng": 88.2125894,
      "open_now": true
    },
    {
      "place_id": "ChIJj3U59wx_AjoRRB3kyPQjSYE",
      "name": "Alampur Service Station",
      "address": "Andul, Alampur",
      "lat": 22.583485,
      "lng": 88.2137671,
      "open_now": true
    },
    {
      "place_id": "ChIJ2549DFt3AjoRd1P0v8oKJXk",
      "name": "Hindustan Petroleum Corporation Limited",
      "address": "8/1, Alipore Road, Alipore, Kolkata",
      "lat": 22.532311,
      "lng": 88.33166100000001,
      "open_now": true
    },
    {
      "place_id": "ChIJMfWzA1l3AjoRe7D0L65mVIk",
      "name": "Bharat Petroleum Ladies COCO Pump Alipore",
      "address": "3, Alipore Road, Alipore, Kolkata",
      "lat": 22.5293592,
      "lng": 88.33179109999999,
      "open_now": true
    },
    {
      "place_id": "ChIJGXlk8D53AjoRSu5WyW8L1Ts",
      "name": "Hindustan Petroleum Corporation Limited",
      "address": "No 1C, Ashutosh Mukherjee Road, Kolkata",
      "lat": 22.5373045,
      "lng": 88.3466395,
      "open_now": true
    },
    {
      "place_id": "ChIJ67JWQ-d5AjoRwWtaqUGyt80",
      "name": "Hindustan Petroleum Corporation Limited",
      "address": "No 77B, 43, Garden Reach Road, Kolkata",
      "lat": 22.54412899999999,
      "lng": 88.31329199999999,
      "open_now": true
    },
    {
      "place_id": "ChIJk1U7fAB6AjoRSGz96pqq__Y",
      "name": "IndianOil",
      "address": "No 39, B Block, New Alipore, Kolkata",
      "lat": 22.51318719999999,
      "lng": 88.3236347,
      "open_now": true
    },
    {
      "place_id": "ChIJ6QVyoxd3AjoRQJbPiTCFJ9Y",
      "name": "IndianOil",
      "address": "12B, Camac Street, Kolkata",
      "lat": 22.54196349999999,
      "lng": 88.35150379999999,
      "open_now": true
    },
    {
      "place_id": "ChIJUyk_ae9wAjoRh8LzbPX33wc",
      "name": "Hindustan Petroleum Corporation Limited",
      "address": "No 1, Netaji Subhas, Netaji Subhash Chandra Bose Road, Tollygunge, Kolkata",
      "lat": 22.492391,
      "lng": 88.345491,
      "open_now": true
    },
    {
      "place_id": "ChIJueElZM1wAjoRtXXInwwQKHI",
      "name": "Hindustan Petroleum Corporation Limited",
      "address": "21, Sarat Bose Road, Kolkata",
      "lat": 22.513741,
      "lng": 88.35280100000001,
      "open_now": true
    },
    {
      "place_id": "ChIJ6eBOGa5wAjoRoDE0sNEX4kw",
      "name": "New Alipore Petrol Pump - HP",
      "address": "P-540, Tollygunge Circular Road, Block N, New Alipore, Kolkata",
      "lat": 22.5088218,
      "lng": 88.333333,
      "open_now": true
    },
    {
      "place_id": "ChIJwac1AxR3AjoRN19msjfCScY",
      "name": "IndianOil",
      "address": "46/1 Chowringhee Road, Elgin Road, Kolkata",
      "lat": 22.54529699999999,
      "lng": 88.34798119999999,
      "open_now": true
    },
    {
      "place_id": "ChIJfQv_8AB6AjoRa0kJFAKSj7g",
      "name": "Hindustan Petroleum Corporation Limited",
      "address": "Plot No 46, Block C, New Alipore, Kolkata",
      "lat": 22.512301,
      "lng": 88.322301,
      "open_now": true
    },
    {
      "place_id": "ChIJ5SO2W0t3AjoRc5ug4P9lJ3E",
      "name": "IndianOil",
      "address": "CGR Road, opposite Dumayune Avenue, Plot No A70, Chetla Central Road, Kolkata",
      "lat": 22.5167716,
      "lng": 88.3390452,
      "open_now": true
    },
    {
      "place_id": "ChIJ00qAA1l3AjoRK6qGKQGeFvU",
      "name": "IndianOil",
      "address": "58, Diamond Harbour Road, Mominpore, Kolkata",
      "lat": 22.5313484,
      "lng": 88.32661039999999,
      "open_now": true
    },
    {
      "place_id": "ChIJA4F7dFJ3AjoRTej2ZqZUYRM",
      "name": "IndianOil",
      "address": "18, Chetla Hat Road, Alipore, Kolkata",
      "lat": 22.5202235,
      "lng": 88.3335328,
      "open_now": true
    },
    {
      "place_id": "ChIJ1wGt--Z5AjoR5wC_Ia7s0bI",
      "name": "IndianOil",
      "address": "Plate No D, 709, Dock Eastern Boundary Road, Khidirpur, Kolkata",
      "lat": 22.538174,
      "lng": 88.31719199999999,
      "open_now": true
    },
    {
      "place_id": "ChIJozQoXed5AjoRMM2qdEO6sck",
      "name": "Bharat Petroleum",
      "address": "99, Karl Marx Sarani Road, Andaman Dock, Khidirpur, Kolkata",
      "lat": 22.5389054,
      "lng": 88.3183093,
      "open_now": true
    },
    {
      "place_id": "ChIJjfY-g0V3AjoR5vEEgG9eHQ0",
      "name": "IndianOil",
      "address": "7, Belvedere Road, Alipore, Kolkata",
      "lat": 22.528481,
      "lng": 88.3363801,
      "open_now": true
    },
    {
      "place_id": "ChIJrVauS0N3AjoRfNVRKhWtIRU",
      "name": "IndianOil",
      "address": "No 34, 1, Belvedere Road, Alipore, Kolkata",
      "lat": 22.53484,
      "lng": 88.333839,
      "open_now": true
    },
    {
      "place_id": "ChIJzeRq-7lwAjoREgg7mmoBAzg",
      "name": "Bharat Petroleum cng",
      "address": "No.36, Tollygunge Circular Road, Tollygunge Phari, Ajoy Nagar, Block O, Behala, Kolkata",
      "lat": 22.5036635,
      "lng": 88.3387413,
      "open_now": true
    },
    {
      "place_id": "ChIJc9lgHzR3AjoRW73Pk-vBNhw",
      "name": "Hindustan Petroleum Corporation Limited",
      "address": "77, Shyama Prasad Mukherjee Road, Kolkata",
      "lat": 22.521421,
      "lng": 88.34713099999999,
      "open_now": true
    },
    {
      "place_id": "ChIJKYeENDt3AjoRg1pEtrEwv0Q",
      "name": "Hindustan Petroleum Corporation Limited",
      "address": "72/1A, Sarat Bose Road, Kolkata",
      "lat": 22.528871,
      "lng": 88.352921,
      "open_now": true
    },
    {
      "place_id": "ChIJ3REGLspwAjoRHfU3T9_ekyY",
      "name": "Bharat Petroleum, Petrol Pump",
      "address": "India",
      "lat": 22.5262697,
      "lng": 88.3462155,
      "open_now": true
    },
    {
      "place_id": "ChIJ3WtqUT93AjoR6ASwN8URTBk",
      "name": "Bharat Petroleum, Petrol Pump -Harish Motors",
      "address": "HARISH MUKHERJEE RD., KOLK, Kolkata",
      "lat": 22.534473,
      "lng": 88.3437718,
      "open_now": true
    },
    {
      "place_id": "ChIJoQ7JYDJ3AjoRoXOuFe6AFd0",
      "name": "Car-Fil",
      "address": "170, Sarat Bose Road, Manoharpukur, Ballygunge, Kolkata",
      "lat": 22.5164926,
      "lng": 88.3526831,
      "open_now": true
    },
    {
      "place_id": "ChIJCRcif81wAjoRa7ZWsL2Agow",
      "name": "Hindustan Petroleum Corporation Limited",
      "address": "99, Southern Avenue, Kolkata",
      "lat": 22.513361,
      "lng": 88.352851,
      "open_now": true
    },
    {
      "place_id": "ChIJz2ES8T53AjoR_2Tc8xv6Dx0",
      "name": "United Service Station",
      "address": "1C, Ashutosh Mukherjee Road, Bhowanipore, Kolkata",
      "lat": 22.537695,
      "lng": 88.3468223,
      "open_now": true
    },
    {
      "place_id": "ChIJ82A9IzJ3AjoRFmio2fxCUJU",
      "name": "Bharat Petroleum Petrol Pump",
      "address": "22A, Sarat Bose Road, Hazra, Bhowanipore, Kolkata",
      "lat": 22.5246599,
      "lng": 88.3526146,
      "open_now": null
    },
    {
      "place_id": "ChIJE9TJPxZ3AjoRfSeM1Cfzmnw",
      "name": "Hindustan Petroleum Corporation Limited",
      "address": "236, Acharya Jagdish Chandra Bose Road, Kolkata",
      "lat": 22.541081,
      "lng": 88.349571,
      "open_now": true
    },
    {
      "place_id": "ChIJ1yIv3SJ3AjoRz3vZi-bPVtg",
      "name": "IndianOil",
      "address": "No 15/1 Elgin Road, Sarat Bose Road, Bhowanipore, Kolkata",
      "lat": 22.537596,
      "lng": 88.354057,
      "open_now": true
    },
    {
      "place_id": "ChIJ-ZevciR3AjoRpoIFN4V7E3w",
      "name": "Hindustan Petroleum Corporation Limited",
      "address": "19, Ballygunge Circular Road, Kolkata",
      "lat": 22.533261,
      "lng": 88.356661,
      "open_now": true
    },
    {
      "place_id": "ChIJYU-tlCN3AjoR-kdKKSU_LP8",
      "name": "Hindustan Petroleum Corporation Limited",
      "address": "13, Ballygunge Circular Road, Kolkata",
      "lat": 22.535331,
      "lng": 88.356741,
      "open_now": true
    },
    {
      "place_id": "ChIJKyVlLdR2AjoRazGA4rBAQjU",
      "name": "IndianOil",
      "address": "No 14/9A Gariahat Road, Ballygunge, Gariahat, Kolkata",
      "lat": 22.521512,
      "lng": 88.365291,
      "open_now": true
    },
    {
      "place_id": "ChIJa2WU9iF3AjoRdjrryWxPPlo",
      "name": "Hindustan Petroleum Corporation Limited",
      "address": "opp. Bank of India, 1B, Ballygunge Circular Road, Ballygunge, Kolkata",
      "lat": 22.538911,
      "lng": 88.35833099999999,
      "open_now": true
    },
    {
      "place_id": "ChIJky2IjydxAjoReVNbd7Odhb8",
      "name": "IndianOil",
      "address": "No 377/B, Prince Anwar Shah Road, Jadavpur, Jodhpur Park, Kolkata",
      "lat": 22.5022639,
      "lng": 88.3630058,
      "open_now": true
    },
    {
      "place_id": "ChIJNazYsB53AjoRf1eh87LqHis",
      "name": "Bharat Petroleum",
      "address": "G9V5+X9C, Sarojini Naidu Sarani, Mullick Bazar, Park Street area, Kolkata",
      "lat": 22.54493,
      "lng": 88.358387,
      "open_now": true
    },
    {
      "place_id": "ChIJt6Godht3AjoRTSndzw3QQcg",
      "name": "Hindustan Petroleum Corporation Limited",
      "address": "69, Park Street, Kolkata",
      "lat": 22.551411,
      "lng": 88.35416099999999,
      "open_now": true
    },
    {
      "place_id": "ChIJa9HlVh53AjoRvdI7h-XWNvg",
      "name": "T & S Station",
      "address": "208/1A, 208, Acharya Jagdish Chandra Bose Road, Hobdypur, Elgin, Kolkata",
      "lat": 22.5435622,
      "lng": 88.3600982,
      "open_now": true
    },
    {
      "place_id": "ChIJhex19g93AjoR4fTfM3AloCg",
      "name": "IndianOil",
      "address": "No 57, Taltala, Kolkata",
      "lat": 22.553003,
      "lng": 88.353073,
      "open_now": true
    },
    {
      "place_id": "ChIJGTHVf4x6AjoRAxKej-ARMms",
      "name": "Hindustan Petroleum Corporation Limited",
      "address": "Ground Floor, Diamond Harbour Road, Thakurpukur, Kolkata",
      "lat": 22.462021,
      "lng": 88.307261,
      "open_now": true
    },
    {
      "place_id": "ChIJs0S1GPtwAjoRxuGW9HwTko8",
      "name": "IndianOil",
      "address": "Indian Oil Petrol Pump-Gachtala, 178, Netaji Subhash Chandra Bose Road, Netaji Nagar, Kolkata",
      "lat": 22.4788135,
      "lng": 88.3556878,
      "open_now": true
    },
    {
      "place_id": "ChIJr3verj53AjoRLWlUkVyh2LQ",
      "name": "Bharat Petroleum, Petrol Pump",
      "address": "Syed Amir Ali Avenue, Lower Range, Beck Bagan, Ballygunge, Kolkata",
      "lat": 22.5427588,
      "lng": 88.3662883,
      "open_now": true
    },
    {
      "place_id": "ChIJ59sZF6J3AjoRcPeSrOOu0IE",
      "name": "Hindustan Petroleum",
      "address": "Hindustan Petroleum Retail Regional Office (2nd Floor), 6, Church Lane, Kolkata",
      "lat": 22.570225,
      "lng": 88.3447076,
      "open_now": true
    },
    {
      "place_id": "ChIJLbra0AB3AjoRg6GIMc_SWEQ",
      "name": "Bharat Petroleum",
      "address": "H965+G9Q, Surendra Nath Banerjee Rd, Rani Rashmoni Road, Wellington, Taltala, Kolkata",
      "lat": 22.5613355,
      "lng": 88.358486,
      "open_now": true
    },
    {
      "place_id": "ChIJ9RgYsqh3AjoRZPzxgHJu7Co",
      "name": "Central Services",
      "address": "3 & 5, Ganesh Chandra Avenue,, Kolkata",
      "lat": 22.568523,
      "lng": 88.352651,
      "open_now": true
    },
    {
      "place_id": "ChIJ64X5Jvx2AjoRGizedc7NOlc",
      "name": "IndianOil",
      "address": "160, Acharya Jagdish Chandra Bose Road, Maula Ali, Bowbazar, Kolkata",
      "lat": 22.55801599999999,
      "lng": 88.366013,
      "open_now": true
    },
    {
      "place_id": "ChIJCahR8TVxAjoRZXzS4TUwimM",
      "name": "IndianOil",
      "address": "2, Kasba Road, Kolkata",
      "lat": 22.5114936,
      "lng": 88.3819366,
      "open_now": true
    },
    {
      "place_id": "ChIJT4ASrqh3AjoRh1oTMSIcjeE",
      "name": "Bharat Petroleum",
      "address": "2, Ganesh Chandra Avenue, Bara Bazar, Bowbazar, Kolkata",
      "lat": 22.5694513,
      "lng": 88.3537875,
      "open_now": true
    },
    {
      "place_id": "ChIJF_-8TOV2AjoRif_RxnmakCI",
      "name": "Bharat Petroleum Petrol Pump",
      "address": "120, CIT Road, Paddapukur, Entally, Kolkata",
      "lat": 22.552089,
      "lng": 88.37177,
      "open_now": true
    },
    {
      "place_id": "ChIJOz6EL_l2AjoRvSO7qJmy-8Y",
      "name": "IndianOil",
      "address": "P9, Doctor Suresh Sarkar Road, Scheme 4, Maula Ali, Raja Bazar, Kolkata",
      "lat": 22.5604338,
      "lng": 88.3681656,
      "open_now": true
    },
    {
      "place_id": "ChIJSdySCrF3AjoRMR2ogWwAx3Q",
      "name": "Petrol Pump",
      "address": "H9F3+P56, India Exchange Place Road, Chitpur, Barabazar Market, Kolkata",
      "lat": 22.5742931,
      "lng": 88.352904,
      "open_now": null
    },
    {
      "place_id": "ChIJiVZkCFVxAjoRcMp1be5iLFo",
      "name": "Fuel point- Bharat petroleum",
      "address": "46, Rash Behari Avenue, Sector C, Kasba, Kolkata",
      "lat": 22.5138095,
      "lng": 88.3999584,
      "open_now": true
    },
    {
      "place_id": "ChIJA3U0ylh2AjoR9g8oN6ExopA",
      "name": "Lakshman Trading Co",
      "address": "Beleghata Main Road, Subhas Sarobar Park, Phool Bagan, Beleghata, Kolkata",
      "lat": 22.5625096,
      "lng": 88.3980888,
      "open_now": true
    },
    {
      "place_id": "ChIJH_l42EVxAjoRCipokOfOimE",
      "name": "IndianOil",
      "address": "Prince Anwar Shah Road, Naskar Para, Garfa, Kolkata",
      "lat": 22.502481,
      "lng": 88.386871,
      "open_now": true
    },
    {
      "place_id": "ChIJg6h0G1pxAjoRyoxZFz1jdag",
      "name": "Bharat Petroleum Petrol Pump",
      "address": "G93W+GG5, Prince Anwar Shah Road, Shrihari Pally, North Purbachal, Haltu, Kolkata",
      "lat": 22.5037697,
      "lng": 88.39636650000001,
      "open_now": null
    },
    {
      "place_id": "ChIJaZIH0Ox2AjoRFMOOZqqL2C0",
      "name": "IndianOil",
      "address": "No 37, 1, Christopher Road, Seal Lane, Tangra, Kolkata",
      "lat": 22.548599,
      "lng": 88.381699,
      "open_now": true
    },
    {
      "place_id": "ChIJXbdF3wpxAjoRJ7iipaktxbI",
      "name": "IndianOil",
      "address": "No 970 & 971, Baroda Avenue, Connector, Baishnabghata, Patuli, Kolkata",
      "lat": 22.471603,
      "lng": 88.381203,
      "open_now": true
    },
    {
      "place_id": "ChIJaZL-Fw5xAjoR-oWbKpgY-EE",
      "name": "IndianOil",
      "address": "3, Gouranga Mandir Road, Kolkata",
      "lat": 22.479843,
      "lng": 88.376106,
      "open_now": true
    },
    {
      "place_id": "ChIJOR-ihwlxAjoR-lqPAd5xJHY",
      "name": "Bharat Petroleum Pump- Digbijoy Energy",
      "address": "Raja Subodh Chandra Mullick Rd 45 No. More, Baishnabghata, Dskshin Raipur, Baishnabghata Patuli Township, Kolkata",
      "lat": 22.4711192,
      "lng": 88.3771821,
      "open_now": true
    },
    {
      "place_id": "ChIJ5a-TFn12AjoRH2Ntuux9_as",
      "name": "Hindustan Petroleum Corporation Limited",
      "address": "No 9, 1/1A, Surah East Road, Beleghata, Kolkata",
      "lat": 22.566051,
      "lng": 88.39298099999999,
      "open_now": true
    },
    {
      "place_id": "ChIJYx6GO6JxAjoRbzE919HXbqQ",
      "name": "IndianOil",
      "address": "Ground Floor, Garia, Kolkata",
      "lat": 22.461884,
      "lng": 88.38054699999999,
      "open_now": true
    },
    {
      "place_id": "ChIJtfNXPqJxAjoRCM-vdOgQc6s",
      "name": "Hindustan Petroleum Corporation Limited",
      "address": "Ground Floor, Mathurapur Rd, Garia, Diamond Harbour",
      "lat": 22.4616901,
      "lng": 88.380901,
      "open_now": true
    },
    {
      "place_id": "ChIJyW5Qknt2AjoR1D4RSh_8jGc",
      "name": "Bharat Petroleum Fuel Station",
      "address": "S, 73, 1, Narkeldanga Main Road, Subhas Sarobar Park, Phool Bagan, Beleghata, Kolkata",
      "lat": 22.5710201,
      "lng": 88.3953066,
      "open_now": true
    },
    {
      "place_id": "ChIJC-xhwUV2AjoRIMNW91an8Qs",
      "name": "Bharat Gas",
      "address": "H9HF+FGG, Acharya Prafulla Chandra Road, Rajabazar, Garpar, Machuabazar, Kolkata",
      "lat": 22.5786873,
      "lng": 88.37383679999999,
      "open_now": true
    },
    {
      "place_id": "ChIJlfAnrm92AjoRzhdyUpQe6wk",
      "name": "Bharat Petroleum, Kankurgachi",
      "address": "P, 327, CIT Road, Scheme VI-M, Kankurgachi, Kolkata",
      "lat": 22.578695,
      "lng": 88.3900275,
      "open_now": true
    },
    {
      "place_id": "ChIJT7WCOF1_AjoRNpamjdbk2Xc",
      "name": "Hindustan Petroleum Corporation Limited",
      "address": "Ground Floor, NH 6, Mahiari",
      "lat": 22.599201,
      "lng": 88.2278601,
      "open_now": true
    },
    {
      "place_id": "ChIJ21NPsG1_AjoRBONoeSWKlvU",
      "name": "IndianOil",
      "address": "Lock No 516, NH 6, Biparnna Para, Jangalpur",
      "lat": 22.5900351,
      "lng": 88.2187953,
      "open_now": true
    },
    {
      "place_id": "ChIJEdzt5Kh4AjoRu-S58bmFB5A",
      "name": "Hindustan Petroleum Corporation Limited",
      "address": "Ground Floor, NH 6, Kolkata - Mumbai Highway, Domjur, Nibra",
      "lat": 22.6067701,
      "lng": 88.2537301,
      "open_now": true
    },
    {
      "place_id": "ChIJW2ZMsfJ4AjoRVSYG8r64hkI",
      "name": "Hindustan Petroleum Corporation Limited",
      "address": "No 01, Unsani, Moukhali, GIP Colony, Jagacha, Howrah",
      "lat": 22.5863911,
      "lng": 88.276215,
      "open_now": true
    },
    {
      "place_id": "ChIJZ_dcuu6B-DkRfftIaVqCnXo",
      "name": "IndianOil",
      "address": "Lock No 439, Domjur, Baluhati",
      "lat": 22.6268105,
      "lng": 88.2321552,
      "open_now": true
    },
    {
      "place_id": "ChIJ1RdxSNCB-DkRQyk3KNurfvM",
      "name": "IndianOil",
      "address": "Ground Floor, Domjur Begri Road, Domjur, Howrah",
      "lat": 22.619078,
      "lng": 88.21314199999999,
      "open_now": true
    },
    {
      "place_id": "ChIJ0yCO_rOB-DkRX5V8DdKWoos",
      "name": "IndianOil",
      "address": "Ground Floor South Japardah, Motijheel, Domjur, Baluhati",
      "lat": 22.640005,
      "lng": 88.21171009999999,
      "open_now": true
    },
    {
      "place_id": "ChIJi05zLbOB-DkRW3eJ34A3VxE",
      "name": "Hindustan Petroleum Corporation Limited",
      "address": "Ground Floor, Dakshin, Domjur, Jhapardah",
      "lat": 22.642021,
      "lng": 88.207291,
      "open_now": true
    },
    {
      "place_id": "ChIJ17S6hniAAjoRMUKSHrGbw70",
      "name": "IndianOil",
      "address": "Lock I 468 NH 6, Mouri, Andul, Howrah",
      "lat": 22.5703728,
      "lng": 88.1678316,
      "open_now": true
    },
    {
      "place_id": "ChIJ0Sfu7-qC-DkRX5wAMvxucqs",
      "name": "IndianOil",
      "address": "Ground Floor, NH 6, Bombay Road, Chamrail, Howrah",
      "lat": 22.631577,
      "lng": 88.300722,
      "open_now": true
    },
    {
      "place_id": "ChIJQb8WgVB_AjoRs1Xak9V_Vac",
      "name": "IndianOil",
      "address": "Ground Floor, Ankurhati Road, Andul, Howrah",
      "lat": 22.6016254,
      "lng": 88.2365041,
      "open_now": true
    },
    {
      "place_id": "ChIJVYpPMzV_AjoRs-3Jfh_Lrm8",
      "name": "Gill Service Station Bharat Petroleum petrol pump â›½",
      "address": "NH 6, Jangalpur",
      "lat": 22.5940461,
      "lng": 88.22354109999999,
      "open_now": true
    },
    {
      "place_id": "ChIJc4jAa6l4AjoRC53ofa8FKR4",
      "name": "IndianOil",
      "address": "J64W+9R3, Ground Floor Andul, Mouri, Prasastha, Domjur, Ankurhati, Howrah",
      "lat": 22.605813,
      "lng": 88.247009,
      "open_now": true
    },
    {
      "place_id": "ChIJ-xVxgwt5AjoRwu35wFp6izQ",
      "name": "IndianOil",
      "address": "Unsani, On, Kona Expressway, Howrah",
      "lat": 22.59407939999999,
      "lng": 88.263464,
      "open_now": true
    },
    {
      "place_id": "ChIJ7_pEUNV_AjoRS6y8df3yZ0o",
      "name": "IndianOil",
      "address": "Ground Floor NH 6, New Korola, Mouri, Andul, Howrah",
      "lat": 22.581258,
      "lng": 88.204382,
      "open_now": true
    },
    {
      "place_id": "ChIJm8haNAB5AjoRHAeqaIkA9Pg",
      "name": "Bharat Petroleum, Petrol Pump -Atulanand S/S",
      "address": "SALAP, HOWRAH, Howrah",
      "lat": 22.6110415,
      "lng": 88.2684312,
      "open_now": true
    },
    {
      "place_id": "ChIJNc-Wk_CB-DkRWla373PeS9k",
      "name": "Hindustan Petroleum Corporation Limited",
      "address": "Ground Floor, Domjur, Makardah, Howrah",
      "lat": 22.623421,
      "lng": 88.239671,
      "open_now": true
    },
    {
      "place_id": "ChIJ03HqRReD-DkRUwrSf2fvD3U",
      "name": "BGCL LCNG cum Mother Station, Salap More",
      "address": "J76C+P5F, Salap, Howrah",
      "lat": 22.61180539999999,
      "lng": 88.2704342,
      "open_now": null
    },
    {
      "place_id": "ChIJ0aaq5rp_AjoRnGvElkEA8Cw",
      "name": "Hindustan Petroleum Corporation Limited",
      "address": "Ground Floor, NH 6, Kolkata - Mumbai Highway, New Korolla, Howrah",
      "lat": 22.5765601,
      "lng": 88.19591009999999,
      "open_now": true
    },
    {
      "place_id": "ChIJa5-Mg_9_AjoRJ36BlviD_30",
      "name": "IndianOil",
      "address": "Lock No 1009 Dhulagarh, mouri, Andul, Howrah",
      "lat": 22.573661,
      "lng": 88.19209699999999,
      "open_now": true
    },
    {
      "place_id": "ChIJrcIoQ6R5AjoRqjHVwjs8ZfU",
      "name": "Hindustan Petroleum Corporation Limited",
      "address": "Dag No 1085, Amta Road, Dasnagar, Balitikuri, Howrah",
      "lat": 22.6058454,
      "lng": 88.2896641,
      "open_now": true
    },
    {
      "place_id": "ChIJbX2lrpJ5AjoRGJOpdY7fa2Y",
      "name": "Kumar Shop",
      "address": "Dashnagar, Balitikuri, Howrah",
      "lat": 22.610594,
      "lng": 88.2874843,
      "open_now": null
    },
    {
      "place_id": "ChIJd0GGHw5_AjoRVqQDBjAyuIE",
      "name": "IndianOil",
      "address": "Ground Floor Mallikpara, Panchla, Andul, Jujarsaha",
      "lat": 22.5786145,
      "lng": 88.18846099999999,
      "open_now": true
    },
    {
      "place_id": "ChIJz7pUqGd_AjoR0jkK4s0oJ6M",
      "name": "Bharat Petroleum, Petrol Pump -Raibarielly Service Station",
      "address": "DHULAGORI,NH-6, Howrah",
      "lat": 22.5750983,
      "lng": 88.188189,
      "open_now": true
    },
    {
      "place_id": "ChIJ7UlcW5OB-DkROCwWDGrqkME",
      "name": "Maa Annapurna Service Station",
      "address": "South Jhapordah, Garbagan, Domjur, Howrah",
      "lat": 22.6323969,
      "lng": 88.2144101,
      "open_now": null
    },
    {
      "place_id": "ChIJ72N1gsh_AjoR6NMVEvPBKzk",
      "name": "IndianOil",
      "address": "Jaladhulagori Toll Plaza, Lock No 539 NH 6, Andul Mouri Road, Howrah",
      "lat": 22.57375499999999,
      "lng": 88.184803,
      "open_now": true
    },
    {
      "place_id": "ChIJaTL7P3F4AjoR2jEmhwLdszo",
      "name": "Total Oil Depot - C.O.D. - Das Enterprise",
      "address": "J73X+99R, Howrah Amta Road, Balitikuri, Howrah",
      "lat": 22.6034787,
      "lng": 88.2983768,
      "open_now": null
    },
    {
      "place_id": "ChIJSRDPZEh4AjoRp-wbvBTEX_s",
      "name": "Aparna Energy Station",
      "address": "H8F2+QX3, KONA EXP. II, Chatterjihat, Shibpur, Howrah",
      "lat": 22.5744149,
      "lng": 88.302447,
      "open_now": true
    },
    {
      "place_id": "ChIJ4ZOBtRiD-DkRKi-QNG8hmT0",
      "name": "IndianOil",
      "address": "Lock No I/485, NH 6, Pakuria - Laxmanpur Road, Howrah",
      "lat": 22.6236858,
      "lng": 88.2896713,
      "open_now": true
    },
    {
      "place_id": "ChIJjyB9VWN_AjoR7T-WDnmQrlI",
      "name": "Bharat Petroleum, Petrol Pump -Bhambra Auto Centre",
      "address": "JALADHULAGORI,HOWRAH, Howrah",
      "lat": 22.5740138,
      "lng": 88.1793618,
      "open_now": true
    },
    {
      "place_id": "ChIJFcFG-nJ4AjoRsFlzNLipgjc",
      "name": "IndianOil",
      "address": "Makardah Road, Balitikuri, Amta",
      "lat": 22.601564,
      "lng": 88.302498,
      "open_now": true
    },
    {
      "place_id": "ChIJGTm8aUh4AjoRA5_YOh7S2qg",
      "name": "IndianOil",
      "address": "Plot No 28, Kona Expressway, Jagacha, Chatterjihat, Shibpur, Howrah",
      "lat": 22.5738286,
      "lng": 88.30307049999999,
      "open_now": true
    },
    {
      "place_id": "ChIJb9nSOY-C-DkRhfjACc3F1hY",
      "name": "IndianOil",
      "address": "Ground Floor NH 6, Kona, Chamrail, Howrah",
      "lat": 22.6240673,
      "lng": 88.2906393,
      "open_now": true
    },
    {
      "place_id": "ChIJCcAjXj54AjoRL8qM-ejtXSk",
      "name": "IndianOil",
      "address": "Doctor Bholanath Chakraborty Sarani, Bantra, Shibpur, Howrah",
      "lat": 22.5844487,
      "lng": 88.30811279999999,
      "open_now": true
    },
    {
      "place_id": "ChIJRStpO-yD-DkRkFgcFzp-NH4",
      "name": "Hindustan Petroleum Corporation Limited",
      "address": "Ground Floor, Liluah, Chamrail, Eksara",
      "lat": 22.627325,
      "lng": 88.291949,
      "open_now": true
    },
    {
      "place_id": "ChIJO3IZdhJ4AjoRl_78o_Ihrz4",
      "name": "Hindustan Petroleum Corporation Limited",
      "address": "Ground Floor, Dasnagar, Howrah",
      "lat": 22.5990854,
      "lng": 88.3078839,
      "open_now": true
    },
    {
      "place_id": "ChIJi8fy1DV4AjoRk3eQht-ZmXU",
      "name": "Bharat Petroleum, Petrol Pump -Harisadhan Service Station",
      "address": "31/1SHAIKPARA LANE SHIBPUR, Howrah",
      "lat": 22.5689594,
      "lng": 88.3068421,
      "open_now": true
    },
    {
      "place_id": "ChIJ1ejIBCqB-DkRBpfrbFf-QpI",
      "name": "Quadink Media",
      "address": "Hp Petrol Pump, opposite Domjur, Howrah - Amta Road, Domjur, Howrah",
      "lat": 22.64280399999999,
      "lng": 88.2074382,
      "open_now": true
    },
    {
      "place_id": "ChIJZ8setmh5AjoRy2HwkwoxT9U",
      "name": "Karunamoyee Service (BPCL)",
      "address": "159, Andul Road, Area, Shalimar, Howrah",
      "lat": 22.5621843,
      "lng": 88.3053436,
      "open_now": true
    },
    {
      "place_id": "ChIJe4xIpvt3AjoRaOXiBqF9TQ8",
      "name": "Bharat Petroleum - Balaji Enterprise",
      "address": "94, Benaras Road, Bamangachi, Salkia, Howrah",
      "lat": 22.6029966,
      "lng": 88.33102889999999,
      "open_now": true
    },
    {
      "place_id": "ChIJP2KxXR94AjoRLPAI4RqJeBE",
      "name": "Hindustan Petroleum Corporation Limited",
      "address": "No 126/2, Narasinha Dutt Road, Howrah",
      "lat": 22.5878101,
      "lng": 88.3201201,
      "open_now": true
    },
    {
      "place_id": "ChIJTZ2D9cF3AjoRhljtTw8WvWI",
      "name": "IndianOil",
      "address": "No 135/2, Road, Salkia, Howrah",
      "lat": 22.59338730000001,
      "lng": 88.34423249999999,
      "open_now": true
    },
    {
      "place_id": "ChIJx8BKArh3AjoRrBnAEf33U98",
      "name": "Posta Petrol Pump",
      "address": "207, Maharshi Debendra Road, Jorabagan, Kolkata",
      "lat": 22.58725,
      "lng": 88.3528043,
      "open_now": null
    },
    {
      "place_id": "ChIJvzCmQrF3AjoRKxzN-JV9AY0",
      "name": "Hindustan Petroleum Corporation Limited",
      "address": "116B, Rabindra Sarani, Bara Bazar, Kolkata",
      "lat": 22.580241,
      "lng": 88.35720099999999,
      "open_now": true
    },
    {
      "place_id": "ChIJpVpFpzN2AjoRcJmPbVjETPo",
      "name": "Bharat Petroleum, Petrol Pump -B D Auto Corner",
      "address": "62, Jatindra Mohan Avenue, Ward Number 10, Kolkata",
      "lat": 22.595603,
      "lng": 88.36527,
      "open_now": true
    },
    {
      "place_id": "ChIJLxnC6TV2AjoR1x30qMpTQNA",
      "name": "Hindustan Petroleum Corporation Limited",
      "address": "17, Abhedananda Road, Kolkata",
      "lat": 22.589131,
      "lng": 88.366861,
      "open_now": true
    },
    {
      "place_id": "ChIJgWP8ZjJ2AjoRCDRtHRz5o1g",
      "name": "Hindustan Petroleum Corporation Limited",
      "address": "69, Jatindra Mohan Avenue, Bankura",
      "lat": 22.598391,
      "lng": 88.365641,
      "open_now": true
    },
    {
      "place_id": "ChIJi0pH4DN2AjoRA1al7hH7cao",
      "name": "The Bengal Petroleum Company",
      "address": "65, Sri Arvind Sarani, Kolkata",
      "lat": 22.5950398,
      "lng": 88.3675347,
      "open_now": null
    },
    {
      "place_id": "ChIJ21MbKDd2AjoRkBbXd4TqSRw",
      "name": "IndianOil",
      "address": "151, Bidhan Sarani Road, Hati Bagan, Shobhabazar, Kolkata",
      "lat": 22.5933047,
      "lng": 88.37030349999999,
      "open_now": true
    },
    {
      "place_id": "ChIJU5spNy52AjoRa90qR16JHek",
      "name": "Super Avenue Service Station",
      "address": "Shyambazar Metro, 80/1, Bhupendra Bose Avenue, Station Gate 4, Kolkata",
      "lat": 22.600708,
      "lng": 88.3696182,
      "open_now": true
    },
    {
      "place_id": "ChIJa6ihMyl2AjoRYy2GxmXW94Y",
      "name": "IndianOil",
      "address": "P - 38, Khirode Bidya Binode Avenue, Baghbazar, Kolkata",
      "lat": 22.6058454,
      "lng": 88.36925389999999,
      "open_now": true
    },
    {
      "place_id": "ChIJnVxuTEV2AjoRIXj0vVZZONU",
      "name": "IndianOil",
      "address": "120/2, Acharya Prafulla Chandra Road, Machuabazar, Kolkata",
      "lat": 22.5834643,
      "lng": 88.3742357,
      "open_now": true
    },
    {
      "place_id": "ChIJA5lvUEZ2AjoRbOdPFHL9_FU",
      "name": "Hindustan Petroleum - Manicktola Service Station",
      "address": "near IndianOil, 120/2, Acharya Prafulla Chandra Road, Manicktala, Goa Bagan, Machuabazar, Kolkata",
      "lat": 22.5842788,
      "lng": 88.374386,
      "open_now": null
    },
    {
      "place_id": "ChIJP4PZjTB2AjoRxIlIhPyALeY",
      "name": "Bharat Petroleum Pump Manasa Sree Autocrafts",
      "address": "182, Acharya Prafulla Chandra Road, Fariapukur, Shyam Bazar, Kolkata",
      "lat": 22.5990909,
      "lng": 88.37424279999999,
      "open_now": true
    },
    {
      "place_id": "ChIJKwipmiV2AjoRQsfpJLOfX5Y",
      "name": "IndianOil",
      "address": "122, Bidhan Sarani Road, Shyambazar, Baghbazar, Bankura",
      "lat": 22.603439,
      "lng": 88.373161,
      "open_now": true
    },
    {
      "place_id": "ChIJ37Kz2Dp2AjoRE8a5oWQeoJE",
      "name": "HP PETROL PUMP - M. M. BISWAS",
      "address": "229, Acharya Prafulla Chandra Road, Shyambazar, Fariapukur, Kolkata",
      "lat": 22.5984829,
      "lng": 88.3747717,
      "open_now": true
    },
    {
      "place_id": "ChIJDYF-Bjt2AjoRjXaO0zQG_oc",
      "name": "Hindustan Petroleum Corporation Limited",
      "address": "1, Ultadanga, Kolkata",
      "lat": 22.5972193,
      "lng": 88.3754534,
      "open_now": true
    },
    {
      "place_id": "ChIJnz7OGd2C-DkRecHl-0VY5t4",
      "name": "IndianOil",
      "address": "Ground Floor, NH 6, Jaipurbill, Liluah, Anandanagar",
      "lat": 22.648166,
      "lng": 88.3060982,
      "open_now": true
    },
    {
      "place_id": "ChIJ8e6Qm-d1AjoRszmhN8MSEfQ",
      "name": "IndianOil",
      "address": "No DD/29, Salt Lake Bypass, Sector 1, Kolkata",
      "lat": 22.58909,
      "lng": 88.409218,
      "open_now": true
    },
    {
      "place_id": "ChIJARglf3J2AjoRYHTia2GePn0",
      "name": "IndianOil",
      "address": "CIT Scheme 7/M, 91A, Bagmari Road, Ghose Bagan, Kolkata",
      "lat": 22.584852,
      "lng": 88.392067,
      "open_now": true
    },
    {
      "place_id": "ChIJYepCGBae-DkRL2OQ91G2ZMg",
      "name": "Hindustan Petroleum Corporation Limited",
      "address": "Ground Floor 470, 1 Jessore Road, Kolkata",
      "lat": 22.611511,
      "lng": 88.409301,
      "open_now": true
    },
    {
      "place_id": "ChIJG3WY2f91AjoRo_dCPb9aIMs",
      "name": "IndianOil",
      "address": "281, Jessore Road, Lake Town, Kolkata",
      "lat": 22.609879,
      "lng": 88.401772,
      "open_now": true
    },
    {
      "place_id": "ChIJyVNIkxx2AjoRQphZ7ZbQxlM",
      "name": "Gopal Auto Service",
      "address": "Belgachia Road,Dutta Bagan, 38/D/H, Khudiram Bose Road, Tala, MIG Housing, Kolkata",
      "lat": 22.6074222,
      "lng": 88.39026129999999,
      "open_now": true
    },
    {
      "place_id": "ChIJq_ZdNoqd-DkREq4gTB3VlPo",
      "name": "Bharat Petrol Pump",
      "address": "61, Barrackpore Trunk Road, Rishi, Paikpara, Kolkata",
      "lat": 22.6143474,
      "lng": 88.3785199,
      "open_now": null
    },
    {
      "place_id": "ChIJxeCMnIud-DkRL4y_1FRfshU",
      "name": "Hindustan Petroleum Corporation Limited",
      "address": "59B, Barrackpore Trunk Road, Kolkata",
      "lat": 22.616791,
      "lng": 88.37954099999999,
      "open_now": true
    },
    {
      "place_id": "ChIJhQQSXZKd-DkRgb77Kb5-MnE",
      "name": "Gujral Service Station and Pollution Testing Center",
      "address": "beside Rabindrabharti University, Barrackpore Trunk Road, Kolkata",
      "lat": 22.625399,
      "lng": 88.3789,
      "open_now": true
    },
    {
      "place_id": "ChIJTQl6FZqd-DkRSx7scAKdL6Q",
      "name": "IndianOil",
      "address": "36B, Cossipore Road, Satchasi Para, Kolkata",
      "lat": 22.62817799999999,
      "lng": 88.37140699999999,
      "open_now": true
    },
    {
      "place_id": "ChIJJ0YTB7B1AjoR21g9tlrvnw8",
      "name": "Hindustan Petroleum Corporation Limited",
      "address": "No DN/60, Sector V, Bidhannagar, Kolkata",
      "lat": 22.5763878,
      "lng": 88.4302947,
      "open_now": true
    },
    {
      "place_id": "ChIJoSi2VGCd-DkRYoKGtn3bUZM",
      "name": "Bharat Petroleum, Petrol Pump -Amar Service Station",
      "address": "Barrackpore Trunk Road, Sinthi More, Kolkata",
      "lat": 22.6337109,
      "lng": 88.37807099999999,
      "open_now": true
    },
    {
      "place_id": "ChIJIw3dGRae-DkR9sN2ih3Xur0",
      "name": "Bharat Petroleum",
      "address": "JCH9+6P7, Vivekananda Road, Girish Park, Golpark, Dum Dum, North Dumdum",
      "lat": 22.6280406,
      "lng": 88.4193099,
      "open_now": null
    },
    {
      "place_id": "ChIJ4_GXcLmd-DkRdcXrB-wA-d8",
      "name": "IndianOil",
      "address": "101/2A, Barrackpore Trunk Road, Baranagar, Kolkata",
      "lat": 22.643871,
      "lng": 88.37820099999999,
      "open_now": true
    },
    {
      "place_id": "ChIJoRCWUPqD-DkR_tEII-QoCC4",
      "name": "IndianOil",
      "address": "Ground Floor Kalachara, Mahesh 1, Serampore, Chanditala",
      "lat": 22.6972001,
      "lng": 88.2539001,
      "open_now": true
    },
    {
      "place_id": "ChIJtbITcheD-DkRFuAxll9NO5I",
      "name": "Hindustan Petroleum Corporation Limited",
      "address": "Ground Floor, NH 2, Durgapur Expressway, Dankuni",
      "lat": 22.6716987,
      "lng": 88.30133699999999,
      "open_now": true
    },
    {
      "place_id": "ChIJLbUZ-3CD-DkRz8KAhwvLMTU",
      "name": "Hindustan Petroleum Corporation Limited",
      "address": "Ground Floor, NH 2, Durgapur Expressway, Dankuni",
      "lat": 22.6917689,
      "lng": 88.291815,
      "open_now": true
    },
    {
      "place_id": "ChIJOwzq8I6B-DkRCpkA-Gux-q4",
      "name": "Amiya Travels",
      "address": "13, no. Rail Gate, Allikhoja, Mogra",
      "lat": 22.6735452,
      "lng": 88.2272952,
      "open_now": null
    },
    {
      "place_id": "ChIJU0si9qyD-DkRn0H0-nl_qgA",
      "name": "IndianOil",
      "address": "Ground Floor Baigachi, Jagadishpur, Howrah",
      "lat": 22.6613395,
      "lng": 88.2785787,
      "open_now": true
    },
    {
      "place_id": "ChIJQROPCgCD-DkRGdfrsfm-Q3c",
      "name": "Annapurna Service Station",
      "address": "Baigachi, Jagadishpur, Howrah",
      "lat": 22.6621614,
      "lng": 88.2786417,
      "open_now": true
    },
    {
      "place_id": "ChIJl9YweayD-DkRZunjsQvCZeM",
      "name": "G.S. Engineering",
      "address": "M76J+P27, Bhaighachi, Jagadishpur, Howrah",
      "lat": 22.6617972,
      "lng": 88.2800338,
      "open_now": null
    },
    {
      "place_id": "ChIJKe5TBmuB-DkRBulrbyka6dE",
      "name": "Bharat Petroleum Petrol Pump (HALDAR SERVICE STATION)",
      "address": "P.O - SOUTH JHAPORDAH, P.S - DOMJURON, Amta Road, DIST, Howrah",
      "lat": 22.6437,
      "lng": 88.20349999999999,
      "open_now": true
    },
    {
      "place_id": "ChIJUVFkRJOD-DkRHIsMah0hiqM",
      "name": "Chandimata Auto Service",
      "address": "M7Q8+HHP, Kalipur Garal Gacha Chanditala Near Auto Palace, Station Pally, Dankuni,Hooghly",
      "lat": 22.688964,
      "lng": 88.266448,
      "open_now": true
    },
    {
      "place_id": "ChIJOa3MopeD-DkRAPmpa1ZBUwU",
      "name": "IndianOil",
      "address": "Ground Floor Ahalyabai Road, Kalipur, Garalgacha",
      "lat": 22.684361,
      "lng": 88.27402599999999,
      "open_now": true
    },
    {
      "place_id": "ChIJbWqhF4yD-DkROXy8X9CXTA8",
      "name": "IndianOil",
      "address": "Ground Floor, SH 15, Chanditala",
      "lat": 22.6945316,
      "lng": 88.25872489999999,
      "open_now": true
    },
    {
      "place_id": "ChIJP7PQhKKB-DkRD1Ono5vf2TA",
      "name": "BHARAT PETROLEUM PUMP",
      "address": "M6Q6+X8, Ramanathpur",
      "lat": 22.689987,
      "lng": 88.2107523,
      "open_now": null
    },
    {
      "place_id": "ChIJ-dSlzrKG-DkRFf6iTLaWHDI",
      "name": "IndianOil",
      "address": "Ground Floor, Ahilyabai Holkar Road, Chanditala",
      "lat": 22.705954,
      "lng": 88.234901,
      "open_now": true
    },
    {
      "place_id": "ChIJrei-pNiH-DkR6BrvyvaQaD8",
      "name": "Bharat Petroleum Petrol Pump , APNA GHAR",
      "address": "KOTULPUR-ARAMBAG ROADOLD, Benaras Road",
      "lat": 22.7063,
      "lng": 88.2325,
      "open_now": true
    },
    {
      "place_id": "ChIJDWIntCGD-DkR6vTtjdR5K98",
      "name": "Akash filling station",
      "address": "M7GW+7HW, Dankuni",
      "lat": 22.6757457,
      "lng": 88.296463,
      "open_now": true
    },
    {
      "place_id": "ChIJp76Kz3-H-DkR8xKZLUPyE24",
      "name": "Hindustan Petroleum Corporation Limited",
      "address": "Ground Floor, SH 15, Janai",
      "lat": 22.7112293,
      "lng": 88.2277948,
      "open_now": true
    },
    {
      "place_id": "ChIJA46DOQCD-DkR6h86NB5B5cc",
      "name": "Dankuni fill-ni centre",
      "address": "NH19, Monoharpur, Gobra, Dankuni",
      "lat": 22.6920768,
      "lng": 88.2910141,
      "open_now": true
    },
    {
      "place_id": "ChIJ298jfnGD-DkR9AA-8KZ5ows",
      "name": "Dankuni Fill In Centre",
      "address": "Ground Floor, NH 2, Durgapur Expressway, Dankuni",
      "lat": 22.6919546,
      "lng": 88.29131919999999,
      "open_now": true
    },
    {
      "place_id": "ChIJzfwCJf2D-DkRpxCqe6-jxtY",
      "name": "Morcha Pump Dankuni",
      "address": "M7RR+RM5, Monoharpur, Gobra, Dankuni",
      "lat": 22.6920014,
      "lng": 88.29174359999999,
      "open_now": null
    },
    {
      "place_id": "ChIJB8d7BSCD-DkRz3p9qM1NJ4E",
      "name": "Iocl",
      "address": "J8P3+Q32, Grand Trunk Road, Chamrail, Howrah",
      "lat": 22.6368822,
      "lng": 88.3026366,
      "open_now": null
    },
    {
      "place_id": "ChIJA0PG5BSD-DkRKsMSkb1WcBA",
      "name": "IndianOil",
      "address": "Ground Floor, Delhi Road, Dankuni",
      "lat": 22.680571,
      "lng": 88.3018201,
      "open_now": true
    },
    {
      "place_id": "ChIJMUo9VvGH-DkRTC5iHWc-uZ8",
      "name": "Hindustan Petroleum Corporation Limited",
      "address": "Ground Floor, SH 15, Baksha",
      "lat": 22.7155647,
      "lng": 88.22248139999999,
      "open_now": true
    },
    {
      "place_id": "ChIJUeO1JNaD-DkRp0_VBgehIYg",
      "name": "PRADIP",
      "address": "Belanagar, Howrah",
      "lat": 22.6696704,
      "lng": 88.3066953,
      "open_now": null
    },
    {
      "place_id": "ChIJTYriPkqF-DkRGoO-VSITJsM",
      "name": "Krishna Bhavan",
      "address": "Unnamed Road, Chikrand",
      "lat": 22.71601060000001,
      "lng": 88.2615125,
      "open_now": null
    },
    {
      "place_id": "ChIJBeziJgCF-DkR8r5Sn3ZZTIU",
      "name": "TATA GENUINE DEF STATION",
      "address": "toll plaza, Durgapur Expressway, Gobra, Dankuni",
      "lat": 22.7062724,
      "lng": 88.2851508,
      "open_now": true
    },
    {
      "place_id": "ChIJr8FnoWWD-DkRyJeyyqnu2_0",
      "name": "IndianOil",
      "address": "Ground Floor, Delhi Road, Chakundi, Pardankuni",
      "lat": 22.69591,
      "lng": 88.297234,
      "open_now": true
    },
    {
      "place_id": "ChIJU6OzLgCD-DkRJ5CZJN5I0T4",
      "name": "TATA. AD BLUE DEF (URIA)",
      "address": "M8P3+HF3, Housing Estate Colony, Dankuni",
      "lat": 22.6863056,
      "lng": 88.30391519999999,
      "open_now": null
    },
    {
      "place_id": "ChIJu-aCggR_AjoRHTz4b6DEngQ",
      "name": "Ankur Filling Station",
      "address": "J65V+7W8, Ankur Filling Station HP Petrol Pump Retail Outlet Ankurhati Battala near Axis Bank Ankurhati Branch, PO-Salap, PS, Domjur, Howrah",
      "lat": 22.6081538,
      "lng": 88.2448137,
      "open_now": null
    },
    {
      "place_id": "ChIJ7Zw8Camd-DkRq3FUxCpgpxY",
      "name": "Onkar Service",
      "address": "58, BARANAGAR, KOLKATA",
      "lat": 22.651363,
      "lng": 88.36550989999999,
      "open_now": true
    },
    {
      "place_id": "ChIJh_fQIY-c-DkR798F4iOHhDg",
      "name": "Bharat Petroleum Dharsa Petrol Pump",
      "address": "Hindmotor, Konnagar",
      "lat": 22.6922277,
      "lng": 88.3566973,
      "open_now": true
    },
    {
      "place_id": "ChIJ3cgDUrGd-DkR43xGfu54wmM",
      "name": "IndianOil",
      "address": "near Dunlop, No 200B T Road Ashokgarh, near Dunlop, More, Kolkata",
      "lat": 22.6526914,
      "lng": 88.3771165,
      "open_now": true
    },
    {
      "place_id": "ChIJp_xFd0yc-DkR98uhguhtggM",
      "name": "Hindustan Petroleum Corporation Limited",
      "address": "16, BT Road, Belghoria, Kolkata",
      "lat": 22.663171,
      "lng": 88.377101,
      "open_now": true
    },
    {
      "place_id": "ChIJlSCkOk-c-DkRCCgfZzkPgVI",
      "name": "IndianOil",
      "address": "M98H+RV8, 30/2, Barrackpore Trunk Road, Kamarhati, Belghoria, Kolkata",
      "lat": 22.6691306,
      "lng": 88.37667859999999,
      "open_now": true
    },
    {
      "place_id": "ChIJRW00kmed-DkRZZwWaNGzGTs",
      "name": "Shyamol petrol shop",
      "address": "M82H+52F, Nischind, Madhyapara, Bally, Howrah",
      "lat": 22.6504328,
      "lng": 88.32754039999999,
      "open_now": true
    },
    {
      "place_id": "ChIJsbYMjoad-DkRHzqSOzQfpis",
      "name": "IndianOil",
      "address": "Ground Floor, NH 2, Bypass Delhi Road, Bally, Howrah",
      "lat": 22.653051,
      "lng": 88.32951399999999,
      "open_now": true
    },
    {
      "place_id": "ChIJXxg4ydqc-DkRnJHg85yc7nw",
      "name": "Hindustan Petroleum Corporation Limited",
      "address": "Ground Floor, near Birla More, Makhla",
      "lat": 22.6700978,
      "lng": 88.33516089999999,
      "open_now": true
    },
    {
      "place_id": "ChIJRchZXgCd-DkRGOllfCyXV-Q",
      "name": "Joypur Bill",
      "address": "J8GH+5P3, Liluah, Howrah",
      "lat": 22.6253823,
      "lng": 88.329307,
      "open_now": null
    },
    {
      "place_id": "ChIJWz9GTBKd-DkRZ6slOOAswfs",
      "name": "Badamtalla Petrol Pump",
      "address": "Grand Trunk Road, Belur, Bally, Howrah",
      "lat": 22.6392855,
      "lng": 88.3508717,
      "open_now": true
    },
    {
      "place_id": "ChIJETWu4Jid-DkRL0tEiwK5iP8",
      "name": "Md Company Pvt Ltd",
      "address": "130/C, Grand Trunk Road, Liluah, Howrah",
      "lat": 22.6307717,
      "lng": 88.34788669999999,
      "open_now": null
    },
    {
      "place_id": "ChIJvbi6_u2c-DkR74fTIGQHVEg",
      "name": "Hindustan Petroleum Corporation Limited",
      "address": "Ground Floor, near Bhadrakali High School, ST Road, Bhadrakali, Hooghly",
      "lat": 22.677401,
      "lng": 88.352901,
      "open_now": true
    },
    {
      "place_id": "ChIJ88u9aG-d-DkRLmFYIvGSOUM",
      "name": "Sur Petrol Pump",
      "address": "286, 1, Grand Trunk Road, Belur, Liluah, Howrah",
      "lat": 22.6247166,
      "lng": 88.3499113,
      "open_now": true
    },
    {
      "place_id": "ChIJZ2zj0S6d-DkRgNL3f1_K2KQ",
      "name": "Hindustan Petroleum Corporation Limited",
      "address": "Old No 44, No 286/1, 1, Grand Trunk Road, Liluah, Howrah",
      "lat": 22.6247201,
      "lng": 88.3500601,
      "open_now": true
    },
    {
      "place_id": "ChIJV9ILRWad-DkR25PpGBT_o5c",
      "name": "Bengal Pump Factory",
      "address": "J8CW+FM7, Liluah, Howrah",
      "lat": 22.6211722,
      "lng": 88.3466657,
      "open_now": null
    },
    {
      "place_id": "ChIJP0vPA_53AjoRh6uaFuqGUPo",
      "name": "Raha Gas Oil Service",
      "address": "India",
      "lat": 22.6109801,
      "lng": 88.3284292,
      "open_now": null
    },
    {
      "place_id": "ChIJr2RAcZKd-DkROpd4rjpQUrs",
      "name": "Arush Service Centre",
      "address": "83, Naity Road, Chakraborty Nagar, Hooghly",
      "lat": 22.7021251,
      "lng": 88.33039289999999,
      "open_now": null
    },
    {
      "place_id": "ChIJczrcfQB5AjoRs2t9BdUKXTc",
      "name": "Mahadev Talab Temple",
      "address": "37/2, Diamond Harbour Road, Majherhat, Mominpore, Kolkata",
      "lat": 22.6076202,
      "lng": 88.32340429999999,
      "open_now": null
    },
    {
      "place_id": "ChIJ8zcA352E-DkRyiuRLmYFnW0",
      "name": "Hindustan Petroleum Corporation Limited",
      "address": "Ground Floor, Primary School, near Bhadua, Delhi Road, Mollaber Village, Hooghly",
      "lat": 22.70804009999999,
      "lng": 88.2995301,
      "open_now": true
    },
    {
      "place_id": "ChIJm0rBWACF-DkRp06SgWVv9uI",
      "name": "Bharat Petroleum",
      "address": "P852+FCQ, Chakundi, Konnagar, Satghara",
      "lat": 22.708628,
      "lng": 88.30098,
      "open_now": null
    },
    {
      "place_id": "ChIJNe-6Uzmd-DkRsf9kkT0FvHA",
      "name": "IndianOil",
      "address": "No 7/2/A, 1, Vivekananda Rd, U B Colony, Jorasanko, Baranagar",
      "lat": 22.651476,
      "lng": 88.368645,
      "open_now": true
    },
    {
      "place_id": "ChIJL0Cbpmed-DkRbif68cFxQ3A",
      "name": "Bharat Kanta",
      "address": "J9C3+CP2, HK Chatterjee Lane, Bhot Bagan, Belur Math, Howrah",
      "lat": 22.62100539999999,
      "lng": 88.3542542,
      "open_now": null
    },
    {
      "place_id": "ChIJT7I-NwJ4AjoRqjyYhuGCAZM",
      "name": "Bhabani Petrol Pump",
      "address": "P/61, Benaras Road, Belgachia, Liluah, Howrah",
      "lat": 22.6039341,
      "lng": 88.3220066,
      "open_now": true
    },
    {
      "place_id": "ChIJ60yzbACF-DkRc3Wx-t2z8kY",
      "name": "Petrol Pump",
      "address": "P862+7MQ, Delhi Road, Rishra, Simla",
      "lat": 22.7107091,
      "lng": 88.30174029999999,
      "open_now": null
    },
    {
      "place_id": "ChIJL_W-yWGd-DkR4tjO15GuFvc",
      "name": "Hindustan Petroleum Corporation Limited",
      "address": "212, Grand Trunk Road, Salkia, Howrah",
      "lat": 22.6127701,
      "lng": 88.3461801,
      "open_now": true
    },
    {
      "place_id": "ChIJwUVjunN3AjoRdxeM7CaweiI",
      "name": "IndianOil",
      "address": "No 68, Varanasi Road, Belgachia, Liluah, Howrah",
      "lat": 22.603426,
      "lng": 88.325188,
      "open_now": true
    },
    {
      "place_id": "ChIJydD2S0-e-DkR-yHYGKFpxlo",
      "name": "IndianOil",
      "address": "Gate No 1, near Airport, No 30, Jessore Road, Bankura",
      "lat": 22.6414416,
      "lng": 88.4309498,
      "open_now": true
    },
    {
      "place_id": "ChIJ02Q7s0ie-DkRfShsh7k5Jo0",
      "name": "Bharat Petroleum Corporation Ltd Neoti Highway Service",
      "address": "1 no. airport, National Highway 12, Dum Dum, Kolkata",
      "lat": 22.6423705,
      "lng": 88.43165809999999,
      "open_now": true
    },
    {
      "place_id": "ChIJH_MZfKqf-DkR6I5CToseKTQ",
      "name": "Indian Oil",
      "address": "MC5V+R6V, Madhusudan Banerjee Road, Majumder Pada, Motilal Colony, Dum Dum, North Dumdum",
      "lat": 22.6596036,
      "lng": 88.4430555,
      "open_now": null
    },
    {
      "place_id": "ChIJR4BjXQGf-DkR-q965KjStcE",
      "name": "IndianOil",
      "address": "Ground Floor, NH 34, Gouripur Road, Birati, Kolkata",
      "lat": 22.665588,
      "lng": 88.443965,
      "open_now": true
    },
    {
      "place_id": "ChIJ1elkpByf-DkRYcOpY6v1cuA",
      "name": "HP Petrol Pump - Giani Service Station",
      "address": "NEW Jessore Road, Michel Nagar, Kolkata",
      "lat": 22.673014,
      "lng": 88.444805,
      "open_now": true
    },
    {
      "place_id": "ChIJPZ4Mt9ee-DkRWrf7roow9lk",
      "name": "IndianOil",
      "address": "Ground Floor, Sajirhat Jugberia Madhyamgram, Sodepur Road, New Barrakpur",
      "lat": 22.6980072,
      "lng": 88.43909599999999,
      "open_now": true
    },
    {
      "place_id": "ChIJJ9I6r7Sd-DkRxTukgyvmnmA",
      "name": "Renaissance Auto LPG Private Limited",
      "address": "M95H+J5R, Beehive Garden, Belghoria, Kolkata",
      "lat": 22.65910329999999,
      "lng": 88.3778882,
      "open_now": null
    },
    {
      "place_id": "ChIJJbA3Ocud-DkRQ_32pJFolUE",
      "name": "Hindustan Petroleum Corporation Limited",
      "address": "201, Barrackpore Trunk Road, Kolkata",
      "lat": 22.652321,
      "lng": 88.37771099999999,
      "open_now": true
    },
    {
      "place_id": "ChIJ26BvSrGd-DkRJjLO9Ywuc_Q",
      "name": "Dunlop Filling Station",
      "address": "M93G+3RP, Barrackpore Trunk Road, Dunlop, Bonhooghly Government Colony, Kolkata",
      "lat": 22.6527185,
      "lng": 88.37706709999999,
      "open_now": null
    },
    {
      "place_id": "ChIJPdr8YIyd-DkRzFaVJ25lL6A",
      "name": "Dunlop Petrol Pump",
      "address": "201, State Highway 1, Dunlop, Bonhoogly, Bonhooghly Government Colony, Baranagar",
      "lat": 22.6518304,
      "lng": 88.3769655,
      "open_now": true
    },
    {
      "place_id": "ChIJX8IsM7Kd-DkRsN2gjmEaH90",
      "name": "Hindustan Petroleum Corporation Limited",
      "address": "131, Barrackpore Trunk Road, Baranagar, Kolkata",
      "lat": 22.65127099999999,
      "lng": 88.377731,
      "open_now": true
    },
    {
      "place_id": "ChIJeScOSsOd-DkRCr_rRJQnvhs",
      "name": "Dunlop HP Petrol Pump",
      "address": "131/9, Barrackpore Trunk Road, Dunlop, Saket Nagar, Bonhooghly Government Colony, Ariadaha, Baranagar",
      "lat": 22.6510736,
      "lng": 88.3777842,
      "open_now": true
    },
    {
      "place_id": "ChIJ9X2Kae-d-DkRgq8Ib3qeIKE",
      "name": "Bharat Petroleum, Petrol Pump -Belghoria S/Stn",
      "address": "Barrackpore Trunk Road, Belghoria, Kolkata",
      "lat": 22.6648821,
      "lng": 88.37692849999999,
      "open_now": true
    },
    {
      "place_id": "ChIJHW3q8J2d-DkREY5RvCuA5Lc",
      "name": "Suraj Store",
      "address": "39, Ghola Road, Nandan Nagar, Belghoria, Kolkata",
      "lat": 22.6653422,
      "lng": 88.393101,
      "open_now": null
    },
    {
      "place_id": "ChIJ_0Ayc16d-DkRICcMgrrNFVA",
      "name": "IndianOil",
      "address": "239, Barrackpore Trunk Road, Baranagar",
      "lat": 22.640622,
      "lng": 88.377729,
      "open_now": true
    },
    {
      "place_id": "ChIJL_kYioKd-DkRLGd_mZpI6c4",
      "name": "Fine Oil",
      "address": "Fine Tark Road, Murshidabad",
      "lat": 22.676444,
      "lng": 88.37629629999999,
      "open_now": null
    },
    {
      "place_id": "ChIJUVQeI6Kd-DkRk8DAYLZ-4m0",
      "name": "HP Fuel Pump",
      "address": "133 & 134, Barrackpore Trunk Road, Baranagar, Kolkata",
      "lat": 22.637132,
      "lng": 88.36815999999999,
      "open_now": null
    },
    {
      "place_id": "ChIJ1ZieoLud-DkRWVuOY6fAbuE",
      "name": "energy point",
      "address": "277/2, Barrackpore Trunk Road, Kolkata",
      "lat": 22.6335036,
      "lng": 88.37802669999999,
      "open_now": null
    },
    {
      "place_id": "ChIJownxgSSd-DkRU1HftCVvSPg",
      "name": "Bharat Petroleum, Petrol Pump -Swampurna Energy Station",
      "address": "Gopal Lal Tagore Road, Baranagar, Kolkata",
      "lat": 22.6335642,
      "lng": 88.3713047,
      "open_now": true
    },
    {
      "place_id": "ChIJtzx49rOd-DkRAPFPFCnWppY",
      "name": "Midland Oil Company",
      "address": "165, Barrackpore Trunk Road, Satchasi Para, Baranagar",
      "lat": 22.6304615,
      "lng": 88.3785783,
      "open_now": null
    },
    {
      "place_id": "ChIJO2vaDZSd-DkRYpe0edm_owo",
      "name": "Hindustan Petroleum Corporation Limited",
      "address": "No 47/1, Barrackpore Trunk Road, Kolkata",
      "lat": 22.630201,
      "lng": 88.378281,
      "open_now": true
    },
    {
      "place_id": "ChIJO_hB-I-d-DkRtNUDCoBqxK4",
      "name": "IndianOil",
      "address": "33/2, Barrackpore Trunk Road, Satchasi Para, Kolkata",
      "lat": 22.6235325,
      "lng": 88.3786354,
      "open_now": true
    },
    {
      "place_id": "ChIJCffOBgWd-DkRqv_DGmrf_Ds",
      "name": "Hindustan Petroleum Corporation Limited",
      "address": "No 95/1/3A, Cossipore Road, Kolkata",
      "lat": 22.6237133,
      "lng": 88.3732679,
      "open_now": true
    },
    {
      "place_id": "ChIJi_eEEUCd-DkRDMdVOD_nRiw",
      "name": "CESC power distribution Panihati",
      "address": "M9RF+9XH, Panihati, Khardaha",
      "lat": 22.6909341,
      "lng": 88.3749867,
      "open_now": null
    },
    {
      "place_id": "ChIJE5A5IwCf-DkRcqkDTEt5mYo",
      "name": "Petrol pump",
      "address": "toto stand, Uttar pratapgarh, Kalyani Expressway, Fatullahpur, Nimta, North Dumdum",
      "lat": 22.6741685,
      "lng": 88.41371819999999,
      "open_now": null
    },
    {
      "place_id": "ChIJY5dNFwCf-DkRXl-2HEy7x8Y",
      "name": "Bharat petroleum Nimta (Shree Sai service station)",
      "address": "MCF7+RFV, Fatullahpur, Nimta, North Dumdum",
      "lat": 22.674614,
      "lng": 88.413562,
      "open_now": true
    },
    {
      "place_id": "ChIJr7r4PgCd-DkRA8Qwnj72uIk",
      "name": "Mallikpur",
      "address": "7MJCJ99J+W7X4, Sobji Bagan, Ward Number 2, Kolkata",
      "lat": 22.6199397,
      "lng": 88.3807415,
      "open_now": null
    },
    {
      "place_id": "ChIJw4t_o9Sd-DkRp-ZoK-VCHSg",
      "name": "HPCL Cossipore COD",
      "address": "J99G+V8V, Cossipore, Kolkata",
      "lat": 22.6197396,
      "lng": 88.3757947,
      "open_now": null
    }
  ]
}