{
  "city": "Belonia",
  "state": "Tripura",
  "count": 27,
  "center": {
    "lat": 23.25,
    "lng": 91.45
  },
  "pumps": [
    {
      "place_id": "ChIJySfV3mJvUzcR_7YwBDBjlVg",
      "name": "MANOWARA ENTERPRISE",
      "address": "5C4M+93J, Uttar Sreepur",
      "lat": 23.1556876,
      "lng": 91.4318772,
      "open_now": true
    },
    {
      "place_id": "ChIJXzR1hmRuUzcR_FQ90hlS0cQ",
      "name": "M/S Alam Traders Filling Station & Autogas",
      "address": "Fulgazi, Rd",
      "lat": 23.14419609999999,
      "lng": 91.43170710000001,
      "open_now": true
    },
    {
      "place_id": "ChIJGdqIL9N7UzcR8orwU5vtbi8",
      "name": "Mim LPG Autogas Filling Station",
      "address": "58W8+MJW",
      "lat": 23.1967383,
      "lng": 91.3165751,
      "open_now": true
    },
    {
      "place_id": "ChIJr1Hxav17UzcR2U4qiQV-Auw",
      "name": "A K RIFAT AND SON,S CNG STATION",
      "address": "58X8+WMX, Dhaka - Chittagong Highway",
      "lat": 23.1998616,
      "lng": 91.31674869999999,
      "open_now": true
    },
    {
      "place_id": "ChIJ9VrhjIdvUzcRUqTo-r6C6M4",
      "name": "King's Of Boraiya Love Road",
      "address": "4CVR+2JF",
      "lat": 23.1425585,
      "lng": 91.4415566,
      "open_now": null
    },
    {
      "place_id": "ChIJ3eGdxaxlUzcRZnLbR_hl9h8",
      "name": "M/s Chowdhury & Sons",
      "address": "Dhaka - Chittagong Highway",
      "lat": 23.1305248,
      "lng": 91.3281927,
      "open_now": true
    },
    {
      "place_id": "ChIJb80VObttUzcRNWGCi6MPEYM",
      "name": "বক্স মাহমুদ রোজ গার্ডেন",
      "address": "5F3C+9MJ, Z1035",
      "lat": 23.1534511,
      "lng": 91.4716315,
      "open_now": true
    },
    {
      "place_id": "ChIJH7LbEKVtUzcRGngBOWuCaCc",
      "name": "বক্সমাহমুদ টু ছাগলনাইয়া/ফেনী সিএনজি স্টেশান",
      "address": "5F2F+HHH, Z1035",
      "lat": 23.1514411,
      "lng": 91.47399449999999,
      "open_now": true
    },
    {
      "place_id": "ChIJ8dODfE9tUzcRx9Q7J_pZAZ8",
      "name": "Rahul fule",
      "address": "Matai",
      "lat": 23.1709369,
      "lng": 91.5182906,
      "open_now": null
    },
    {
      "place_id": "ChIJnbTr-kdvUzcRsY--doPBdN0",
      "name": "Khorshed alam Chowdhury",
      "address": "4C6J+C57, Uttar Sreepur",
      "lat": 23.1110475,
      "lng": 91.4304063,
      "open_now": null
    },
    {
      "place_id": "ChIJM8Blp5cTUzcRdZMDEzgMc7Y",
      "name": "Hindustan Petroleum Corporation Limited",
      "address": "Ground Floor, near LPG Godown, Rural Road, Krishnanagar",
      "lat": 23.1326729,
      "lng": 91.5229808,
      "open_now": true
    },
    {
      "place_id": "ChIJx3ZS_T5tUzcR_dxlTiN8j2g",
      "name": "তারাকুচা বিজিবি ক্যাম্প",
      "address": "4G93+VGW",
      "lat": 23.1197375,
      "lng": 91.50382809999999,
      "open_now": true
    },
    {
      "place_id": "ChIJe_NvbnN3UzcRMRu4-9VtyGo",
      "name": "M/s Maa Kamakhya Petroleum Agency",
      "address": "79RW+6Q, Joychandrapur",
      "lat": 23.2901944,
      "lng": 91.3964713,
      "open_now": null
    },
    {
      "place_id": "ChIJCS9QDXlzUzcRSpGYnc4_rbw",
      "name": "IndianOil",
      "address": "Ground Floor, Barpathari, Laxmipur",
      "lat": 23.2902017,
      "lng": 91.3964791,
      "open_now": true
    },
    {
      "place_id": "ChIJu7nD21T3UzcR47BbYuGuFus",
      "name": "IndianOil",
      "address": "Ground Floor, Ishan Chandranagar, Jogendra Nagar, Belonia",
      "lat": 23.2679658,
      "lng": 91.4404414,
      "open_now": true
    },
    {
      "place_id": "ChIJ276mW4xzUzcRHqCeF5Xsakw",
      "name": "IndianOil",
      "address": "Ground Floor, Ishan Chandra Nagar, Belonia",
      "lat": 23.26825,
      "lng": 91.4412845,
      "open_now": true
    },
    {
      "place_id": "ChIJ2UU01KZ7UzcRP2ljDifZ1Ng",
      "name": "M A Khaleque Filling Station",
      "address": "68P7+R8F, N1, Chauddagram",
      "lat": 23.2370625,
      "lng": 91.3133125,
      "open_now": null
    },
    {
      "place_id": "ChIJ-TjxgWt7UzcRJuiyPo44piM",
      "name": "K.R Filling Station",
      "address": "Harisorder bazar",
      "lat": 23.2564682,
      "lng": 91.3072904,
      "open_now": true
    },
    {
      "place_id": "ChIJ3eaiZ2N7UzcRnWqj2_2lLc4",
      "name": "M/S Chowdhury Filling Station",
      "address": "Chauddagram Upazila",
      "lat": 23.2202475,
      "lng": 91.3144403,
      "open_now": true
    },
    {
      "place_id": "ChIJR0w3X51zUzcRVv-N9BZMNQ4",
      "name": "Petrol Station",
      "address": "Dakshin Bharatchandranagar",
      "lat": 23.2670587,
      "lng": 91.4820546,
      "open_now": true
    },
    {
      "place_id": "ChIJpyq9j6ZzUzcRsn7mpv8UqNk",
      "name": "IndianOil",
      "address": "Ground Floor, Bharatchandra Naga,Bharat Chndra Nagar, Laxmipur",
      "lat": 23.260577,
      "lng": 91.465785,
      "open_now": true
    },
    {
      "place_id": "ChIJF-xoWABzUzcRU_OvAoQqgZ4",
      "name": "M/S Tulsi Petroleum Agency",
      "address": "near HDFC BANK, H219, Belonia",
      "lat": 23.2505447,
      "lng": 91.4711248,
      "open_now": null
    },
    {
      "place_id": "ChIJLwXeHE5zUzcR2Rxvz5n675o",
      "name": "Hindustan Petroleum Corporation Limited",
      "address": "Ground Floor, Boraj Colony, Belonia",
      "lat": 23.257931,
      "lng": 91.478791,
      "open_now": true
    },
    {
      "place_id": "ChIJp4RoyLR1UzcRay48-dHfsoQ",
      "name": "Soni mondir joynagar",
      "address": "7FJJ+G6Q, Dakshin Bharatchandranagar",
      "lat": 23.2813367,
      "lng": 91.4806206,
      "open_now": null
    },
    {
      "place_id": "ChIJ5evXnJgLUzcRVcMbX4X72cs",
      "name": "IndianOil",
      "address": "Ground Floor, Santirbazar",
      "lat": 23.3028039,
      "lng": 91.56617589999999,
      "open_now": true
    },
    {
      "place_id": "ChIJf_N9U4ULUzcRW9QzrBY4HVk",
      "name": "IndianOil",
      "address": "Ground Floor, NH-44, Belonia",
      "lat": 23.3082326,
      "lng": 91.564567,
      "open_now": true
    },
    {
      "place_id": "ChIJg7LOUAB5UzcR7CusrqpnIxE",
      "name": "IndianOil",
      "address": "987G+7GF, Kathalia",
      "lat": 23.3628995,
      "lng": 91.3258357,
      "open_now": true
    }
  ]
}