{
  "city": "Kailashahar",
  "state": "Tripura",
  "count": 24,
  "center": {
    "lat": 24.3333,
    "lng": 92.0167
  },
  "pumps": [
    {
      "place_id": "ChIJA2TCIgCDUTcRjZG8ylqzgzk",
      "name": "মা-বাবা ভেরাইটিস স্টোর",
      "address": "7VJW+846, Adampur",
      "lat": 24.2807884,
      "lng": 91.89527129999999,
      "open_now": false
    },
    {
      "place_id": "ChIJuwC32ZyPUTcRhlb7ciRgD6Q",
      "name": "M/S SUNYA MASTAK PETROL PUMP",
      "address": "Fatikroy - Kailashahar Road, Birchandranagar",
      "lat": 24.2704144,
      "lng": 92.01258879999999,
      "open_now": true
    },
    {
      "place_id": "ChIJAXZ5WIuPUTcRLRMoHPOfNYo",
      "name": "Sabita Petroleum Service Station",
      "address": "Dalugaon, Kailashahar",
      "lat": 24.2580807,
      "lng": 92.0180219,
      "open_now": true
    },
    {
      "place_id": "ChIJBzuGz-CPUTcRNkgDVprZkN0",
      "name": "IndianOil",
      "address": "Ground Floor, Kailasahar, Chandipur",
      "lat": 24.315851,
      "lng": 92.00590799999999,
      "open_now": true
    },
    {
      "place_id": "ChIJ0WiaUhOPUTcRdP5CFJcPuQc",
      "name": "Rk Petroleum agency",
      "address": "Chirakuti Trijenction to Kumarghat road, on NH208A, Kailashahar",
      "lat": 24.3008426,
      "lng": 92.0225833,
      "open_now": true
    },
    {
      "place_id": "ChIJ0X_oBwCPUTcR3PZ1phEhiRo",
      "name": "Hindustan Petroleum Corporation Limited",
      "address": "Ground Floor Kailashahar, Unakoti",
      "lat": 24.308191,
      "lng": 92.01661399999999,
      "open_now": true
    },
    {
      "place_id": "ChIJbTkHJtuPUTcRnzaYGaF4RQo",
      "name": "IndianOil",
      "address": "Ground Floor, Vidya Nagar, Kailashahar",
      "lat": 24.3097762,
      "lng": 92.0147806,
      "open_now": true
    },
    {
      "place_id": "ChIJVcpLEViPUTcRRE-cUJ3JRRY",
      "name": "M/S Zubeen Da Fuel Station",
      "address": "Assam - Agartala NH-208, Chinibagan",
      "lat": 24.3049889,
      "lng": 92.049289,
      "open_now": null
    },
    {
      "place_id": "ChIJ5fAyGXaRUTcRH56K1_EFFZc",
      "name": "Nanda Petrol Agency",
      "address": "Ward No 5, Mohanpur Kajirgaon, Chandipur",
      "lat": 24.321407,
      "lng": 92.00323279999999,
      "open_now": null
    },
    {
      "place_id": "ChIJ3fN6A8XyUTcRUhNCps6r37Q",
      "name": "Petrol Pump",
      "address": "Roa",
      "lat": 24.2854634,
      "lng": 92.15756789999999,
      "open_now": true
    },
    {
      "place_id": "ChIJMwwMXgCNUTcRTJP8DeDKHBc",
      "name": "M/s Narendra Petroleum",
      "address": "Dharmanagar - Kailashahar Road, Rajnagar",
      "lat": 24.3161875,
      "lng": 92.1093125,
      "open_now": true
    },
    {
      "place_id": "ChIJqfzRtwyLUTcR3wTNbh5jj0E",
      "name": "IndianOil",
      "address": "Ground Floor, Pecharthal, Dhanicherra, Pencharthal",
      "lat": 24.20009060000001,
      "lng": 92.111947,
      "open_now": true
    },
    {
      "place_id": "ChIJ__5ZTTSbUTcRjvnrj4I59NY",
      "name": "দোহা এন্টার প্রাইজ",
      "address": "9XQ4+M5Q, Unnamed Road, Sharifpur",
      "lat": 24.389221,
      "lng": 91.95547549999999,
      "open_now": true
    },
    {
      "place_id": "ChIJUY1mNfWcUTcRzWmsYOS6__0",
      "name": "CNG Refueling Station",
      "address": "Vanugach - Shamser Nagar Road, Kamalganj",
      "lat": 24.3684403,
      "lng": 91.8902975,
      "open_now": null
    },
    {
      "place_id": "ChIJ_2kuVwCbUTcR9LN8U9aX3pU",
      "name": "Niha Chula Ghor",
      "address": "Pirer Bazar, Sylhet",
      "lat": 24.4009311,
      "lng": 91.9364939,
      "open_now": null
    },
    {
      "place_id": "ChIJEcAT0J7tUTcRb_0ixowuX1M",
      "name": "IndianOil",
      "address": "Ground Floor, Krishnapur, Uptakhali",
      "lat": 24.335323,
      "lng": 92.15835799999999,
      "open_now": true
    },
    {
      "place_id": "ChIJXekY1kyZUTcRCY1c0R9bCt0",
      "name": "M/S Takki & Brothers",
      "address": "CWMM+22G",
      "lat": 24.4325563,
      "lng": 91.9325638,
      "open_now": false
    },
    {
      "place_id": "ChIJkdv_CnmfUTcRVxe386IQQxk",
      "name": "রয়েল",
      "address": "Bangladesh Border Rd",
      "lat": 24.4308826,
      "lng": 91.8994989,
      "open_now": null
    },
    {
      "place_id": "ChIJt73zUQCXUTcRhOBQOa1-6yo",
      "name": "রবিবাজার",
      "address": "CXVR+27F",
      "lat": 24.4425517,
      "lng": 91.9906714,
      "open_now": null
    },
    {
      "place_id": "ChIJJRqV7BaXUTcRCunY3MdQm_0",
      "name": "মরুশিখা সার্বিক গ্রাম উন্নয়ন সমবয় সমিতি লি:",
      "address": "CXWR+89H",
      "lat": 24.4458094,
      "lng": 91.9909692,
      "open_now": null
    },
    {
      "place_id": "ChIJXeD-kUeXUTcROj_P39c8GPk",
      "name": "মেসার্স মনাফ পেট্রোলিয়াম এন্টারপ্রাইজ",
      "address": "CXWV+3G6, Unnamed Road",
      "lat": 24.4451568,
      "lng": 91.99377179999999,
      "open_now": null
    },
    {
      "place_id": "ChIJl4lnKtmXUTcRTp_OmjHX4w4",
      "name": "Petrol Pump",
      "address": "FX3R+GXH",
      "lat": 24.4538068,
      "lng": 91.9924961,
      "open_now": null
    },
    {
      "place_id": "ChIJr3EM3hifUTcR0o8MzNO1hQ0",
      "name": "মহসিন এন্টারপ্রাইজ-২ (পেট্রোল পাম্প)",
      "address": "Sreerampur",
      "lat": 24.4340078,
      "lng": 91.88070929999999,
      "open_now": false
    },
    {
      "place_id": "ChIJIUq70TeXUTcRrVQu51Tsg-4",
      "name": "মিজান ট্রেডার্স",
      "address": "FX8W+RMR",
      "lat": 24.4671125,
      "lng": 91.99664849999999,
      "open_now": null
    }
  ]
}