{
  "city": "Sabroom",
  "state": "Tripura",
  "count": 21,
  "center": {
    "lat": 23,
    "lng": 91.7333
  },
  "pumps": [
    {
      "place_id": "ChIJtWYXD8AlUzcRFEkGJRJssO8",
      "name": "এল পি জি ফিলিং স্টেশন ,হেয়াকো",
      "address": "VMWG+CWQ, Heyako",
      "lat": 22.8960875,
      "lng": 91.6773594,
      "open_now": null
    },
    {
      "place_id": "ChIJPYHj3_UjUzcRYJHAg5M6gwk",
      "name": "Kazi Jahangir bari",
      "address": "XPFC+9C5, বলিটিলা রোড",
      "lat": 22.9733913,
      "lng": 91.7211239,
      "open_now": true
    },
    {
      "place_id": "ChIJRRcEBQgjUzcRFEMuSzOsZHY",
      "name": "Sajek Petroleum And LPG Autogas Filling Station & Conversion Center",
      "address": "Bariyarhat to, link road, Chittagong",
      "lat": 22.9829756,
      "lng": 91.7144656,
      "open_now": null
    },
    {
      "place_id": "ChIJ_-Z0nq8jUzcRzoDgaLu6MUo",
      "name": "সাহজান মোট্টস",
      "address": "XPJ9+5MX, Ramgarh",
      "lat": 22.98048529999999,
      "lng": 91.71922359999999,
      "open_now": null
    },
    {
      "place_id": "ChIJ7XBVSgAZUzcRJJ34RqrLTeI",
      "name": "তানহা মটোরস, রামগড়, খাগড়াছড়ি- Tanha motors ramgarh, Khagrachhari",
      "address": "Tanha motors",
      "lat": 22.9944438,
      "lng": 91.7419757,
      "open_now": true
    },
    {
      "place_id": "ChIJfcJAVAAZUzcRsWZopjbF2X0",
      "name": "Ramgarh Fuel station",
      "address": "Ramgarh Upazila",
      "lat": 22.9953033,
      "lng": 91.73824479999999,
      "open_now": null
    },
    {
      "place_id": "ChIJsxdMd5AZUzcRaAdOeVnlo_E",
      "name": "Ramgarh Fuel Station",
      "address": "রামগড় কেন্দ্রীয় কবরস্থান (সিনেমা হল, Ramgarh",
      "lat": 22.9953227,
      "lng": 91.7382524,
      "open_now": true
    },
    {
      "place_id": "ChIJNwgScQAZUzcRzFgxrMlFjeI",
      "name": "তানহা মোটরস-Tanha motors",
      "address": "তানহা মোটরস, উপরের বাজার",
      "lat": 22.9965579,
      "lng": 91.737653,
      "open_now": null
    },
    {
      "place_id": "ChIJ-23CHjbfUjcRF61GLuC3-e4",
      "name": "fuel & mobile supply",
      "address": "XVCrydgugubdJ+M2X, Guimara",
      "lat": 22.9603925,
      "lng": 91.8695046,
      "open_now": null
    },
    {
      "place_id": "ChIJo7w4DChzUzcRgz0ukFZ5REc",
      "name": "IndianOil",
      "address": "Ground Floor, Bankar Road, Manu, Bijoynagar",
      "lat": 23.04398369999999,
      "lng": 91.6749182,
      "open_now": true
    },
    {
      "place_id": "ChIJ7UxZKVsYUzcRztozxqzRnL4",
      "name": "IndianOil",
      "address": "Ground Floor NH 44, Sabroom Belonia, Sabroom",
      "lat": 23.024548,
      "lng": 91.705432,
      "open_now": true
    },
    {
      "place_id": "ChIJW6efZPYZUzcRyIyaSu9ENLI",
      "name": "Indian Oil Petrol Pump(M S SUBHANKITA FILLING STATION)",
      "address": "near forest office, Damdama, Sabroom",
      "lat": 23.0083906,
      "lng": 91.71824559999999,
      "open_now": null
    },
    {
      "place_id": "ChIJCeYkCQAZUzcRgp57qxVgacQ",
      "name": "Harina Petrol pump",
      "address": "2P59+WW8, Sabroom",
      "lat": 23.0097804,
      "lng": 91.7198215,
      "open_now": null
    },
    {
      "place_id": "ChIJmSQVY90WUzcRaUeIj_fHlik",
      "name": "IndianOil",
      "address": "Ground Floor, Manu Bazar",
      "lat": 23.06462999999999,
      "lng": 91.6292386,
      "open_now": true
    },
    {
      "place_id": "ChIJD2I0eiUXUzcRp6iWrYLko98",
      "name": "স্টার ব্রাইডেল ফেশান",
      "address": "India",
      "lat": 23.0755075,
      "lng": 91.6448612,
      "open_now": null
    },
    {
      "place_id": "ChIJ4ULOcy8XUzcRCn7jRdNT1Qg",
      "name": "KCB Poddar IOCL Agency Point",
      "address": "Manu Bazar",
      "lat": 23.0772571,
      "lng": 91.6440666,
      "open_now": null
    },
    {
      "place_id": "ChIJQRoeMuQRUzcR4nMV23BVRdE",
      "name": "Susanta",
      "address": "3JXR CG, National Highway 8, Fulchhari",
      "lat": 23.096797,
      "lng": 91.6391871,
      "open_now": null
    },
    {
      "place_id": "ChIJ7dkMUQARUzcRg3boVRPZfXA",
      "name": "Petrol pump",
      "address": "4J5J+X3V, Bhuratali",
      "lat": 23.10998889999999,
      "lng": 91.63017789999999,
      "open_now": null
    },
    {
      "place_id": "ChIJWRgtcwDjUjcROQPy-CQFGc4",
      "name": "মোহাম্মদ আলী ষ্টোর",
      "address": "4R8M+RPJ, Matiranga",
      "lat": 23.1170849,
      "lng": 91.8342809,
      "open_now": null
    },
    {
      "place_id": "ChIJKUa5-lzhUjcRC3Y7WRse7PA",
      "name": "হানিফ ট্রেডার্স",
      "address": "2VRF+887, Matiranga",
      "lat": 23.0407988,
      "lng": 91.8733017,
      "open_now": null
    },
    {
      "place_id": "ChIJ366ITgDhUjcRdTJN31ZTgfk",
      "name": "Mamun Enterprise",
      "address": "785 Chittagong - Khagrachhari Road, Matiranga",
      "lat": 23.03979,
      "lng": 91.8729582,
      "open_now": null
    }
  ]
}