{
  "from": "Hazira",
  "to": "Paradip",
  "count": 812,
  "pumps": [
    {
      "place_id": "ChIJq0eY3OOy4TsRwROxLhGrcAc",
      "name": "Jio-bp",
      "lat": 21.180446,
      "lng": 72.679437,
      "address": "opposite Gate No 3, Survey No 195/A/1, Hazira Complex Surat Hazira Road, opposite Gate No 3, Bhata, Mora, Surat",
      "open_now": true
    },
    {
      "place_id": "ChIJr5tjqbiy4TsRwQZv6EvhAjA",
      "name": "Reliance",
      "lat": 21.162354,
      "lng": 72.6922415,
      "address": "India",
      "open_now": null
    },
    {
      "place_id": "ChIJE4SeWs6y4TsRfDyy2I-7X7Q",
      "name": "Diesel Station",
      "lat": 21.1726212,
      "lng": 72.7016153,
      "address": "5PF2+2JX, Hazira INA, Limla",
      "open_now": null
    },
    {
      "place_id": "ChIJA1OpOWhS4DsRiIk4y4QxOhY",
      "name": "Hindustan Petroleum Corporation Limited",
      "lat": 21.125551,
      "lng": 72.771321,
      "address": "Survey No 386/P NH 53, Hazira, Palsana Rd, Magdalla, Abhva",
      "open_now": true
    },
    {
      "place_id": "ChIJOR7q2qdR4DsRh-a_a8ToseY",
      "name": "IndianOil",
      "lat": 21.110613,
      "lng": 72.838146,
      "address": "Ground Floor Sonari, Bonandh, Surat",
      "open_now": true
    },
    {
      "place_id": "ChIJw4_OfwBT4DsRLTgbLjriVJI",
      "name": "MANIPAL PETROLEUM",
      "lat": 21.131885,
      "lng": 72.7960066,
      "address": "4QJW+QC2, Surat",
      "open_now": true
    },
    {
      "place_id": "ChIJn-xR2whT4DsRNN8YoJ3WLxQ",
      "name": "Nayara Petrol Pump - Somiba Fuel",
      "lat": 21.1343142,
      "lng": 72.7977792,
      "address": "Althan - Sarsana Road, Surat",
      "open_now": true
    },
    {
      "place_id": "ChIJsfz_cwBT4DsRMPpsnqgKo4o",
      "name": "Bharat petroleum Prithvi Pal",
      "lat": 21.1368113,
      "lng": 72.79875419999999,
      "address": "SMC Garden, Govindaji Sport Complex, Surat",
      "open_now": null
    },
    {
      "place_id": "ChIJxVx7LlJT4DsRhper7fTfoS0",
      "name": "IndianOil",
      "lat": 21.1368699,
      "lng": 72.7993501,
      "address": "R S No 88, Bhimrad Majura, Jeevkar Nagar, Althan, Surat",
      "open_now": true
    },
    {
      "place_id": "ChIJy2AG4u3xrzsR6dG5z_NPThc",
      "name": "IndianOil",
      "lat": 21.1408056,
      "lng": 72.8010008,
      "address": "Survey No 149 Block, 195, Althan - Sarsana Road, Surat",
      "open_now": true
    },
    {
      "place_id": "ChIJmROeUXxT4DsRWqI1pcqWgsI",
      "name": "Daruwala Diesel Pump",
      "lat": 21.12570909999999,
      "lng": 72.770884,
      "address": "4QGC+79J, Vesu, Surat",
      "open_now": true
    },
    {
      "place_id": "ChIJ6bhLBm5T4DsRvtD62S25KvQ",
      "name": "IndianOil",
      "lat": 21.142987,
      "lng": 72.7926914,
      "address": "Block No 217, B BHARTHANA, Tp No 13, Vesu, Surat",
      "open_now": true
    },
    {
      "place_id": "ChIJEfHA1gVS4DsRJef0CE5KHHo",
      "name": "Nayara Petrol Pump - Sai Sanskriti Autofuel",
      "lat": 21.1440757,
      "lng": 72.7946738,
      "address": "opp. E Space, VIP Road, Vesu, Surat",
      "open_now": true
    },
    {
      "place_id": "ChIJ-xBrM-JT4DsRyCEPt4x1SLU",
      "name": "Shell Petrol Pump",
      "lat": 21.144716,
      "lng": 72.80188799999999,
      "address": "beside Metro Cash & Carry, VIP Road, Surat",
      "open_now": true
    },
    {
      "place_id": "ChIJz_3UBgBR4DsRdy5Z2yJ_Ps8",
      "name": "petrol Pump",
      "lat": 21.1162677,
      "lng": 72.8218581,
      "address": "4R8C+GP5, Dundi, Surat",
      "open_now": null
    },
    {
      "place_id": "ChIJFYer3zxT4DsRnIBDZpbOxZg",
      "name": "Indian Oil petrol pump",
      "lat": 21.1402912,
      "lng": 72.7738157,
      "address": "4QRF+4G8, VIP Road, Vesu, Surat",
      "open_now": true
    },
    {
      "place_id": "ChIJD8-0gWZR4DsRrr51UUMo6U8",
      "name": "J D PETROLEUM",
      "lat": 21.1261332,
      "lng": 72.826366,
      "address": "Sarvay No 85, 1 VILLAGE TANKOLI, Old, JALAPUR, Surat",
      "open_now": true
    },
    {
      "place_id": "ChIJ4YNrHbWBXjkRA9oFj8kRcXo",
      "name": "IndianOil",
      "lat": 21.1269164,
      "lng": 72.828983,
      "address": "Survey No 134, T P No 63, Vadod, Udhana, Surat",
      "open_now": true
    },
    {
      "place_id": "ChIJIy8SscFN4DsRWdcNMeahzOk",
      "name": "Umang Petroleum,Nayara Petrol Pump",
      "lat": 21.1318325,
      "lng": 72.82752529999999,
      "address": "near tirupati circle, Essar petrol pump, near tirupati circle, Vadod, Surat",
      "open_now": true
    },
    {
      "place_id": "ChIJk1MZ7s1R4DsRokB0OEDP9LM",
      "name": "Hindustan Petroleum Corporation Limited",
      "lat": 21.131978,
      "lng": 72.82760499999999,
      "address": "FP No 66/A, Vadod, Majura, Surat",
      "open_now": true
    },
    {
      "place_id": "ChIJp13zteVR4DsRZ3B3qZ882rQ",
      "name": "Dipak Oil Mill",
      "lat": 21.143752,
      "lng": 72.820504,
      "address": "228,mani nagar, New Bamroli Road, Pandesara, Surat",
      "open_now": true
    },
    {
      "place_id": "ChIJ23Q6eOpR4DsRTyqWLXumbIM",
      "name": "Vishat Cng Pump",
      "lat": 21.1337033,
      "lng": 72.82797099999999,
      "address": "G-2, New Bamroli Road, Milan Point, Opposite Slok Residency, Bamroli Char Rasta, Jay Ambey Society, Pandesara, Udhana, Surat",
      "open_now": true
    },
    {
      "place_id": "ChIJYb_Sps9R4DsRopm3VRdWyGE",
      "name": "Nema Bhana Petroleum - Bharat Petroleum-BPCL",
      "lat": 21.1389133,
      "lng": 72.826555,
      "address": "Block no 292, opp. Shlok Arcade, Bamroli Char Rasta, Surat",
      "open_now": true
    },
    {
      "place_id": "ChIJXfnbjeVb4DsRDg5_Za8hrOU",
      "name": "Lucky Filling Station",
      "lat": 21.0875101,
      "lng": 72.9773359,
      "address": "char rasta, Palsana",
      "open_now": true
    },
    {
      "place_id": "ChIJ408ZeeZb4DsR5FKbVHNnuEo",
      "name": "M/S KESHARINANDAN PETROLEUM PALSANA",
      "lat": 21.0856048,
      "lng": 72.97579309999999,
      "address": "Palsana",
      "open_now": true
    },
    {
      "place_id": "ChIJzdOYTWpb4DsRslcIIIBzxUY",
      "name": "Nayara suryajyot",
      "lat": 21.0866621,
      "lng": 72.9616473,
      "address": "near PALSANA, NH ,53, near PALSANA, Taraj",
      "open_now": null
    },
    {
      "place_id": "ChIJzxbvSqRb4DsR2XhSFJYl2dc",
      "name": "Italva Petroleum",
      "lat": 21.0853111,
      "lng": 72.9648543,
      "address": "Survey no.14, AA, Sachin - Palsana Road, Sachin, Surat",
      "open_now": true
    },
    {
      "place_id": "ChIJg18mCgBb4DsRfmQmvk9jdho",
      "name": "Nikhil Kumar",
      "lat": 21.0841966,
      "lng": 72.9646166,
      "address": "3XM7+MRH, Palsana",
      "open_now": null
    },
    {
      "place_id": "ChIJfbJfoEBb4DsR0WkXZiWUhOA",
      "name": "Shreeji Acetelein compny Unit-2",
      "lat": 21.0874181,
      "lng": 72.9652912,
      "address": "3XP8+X47, Surat",
      "open_now": null
    },
    {
      "place_id": "ChIJH2DM5wRb4DsRrQ1Bqq0RNnE",
      "name": "BHARAT PETROLEUM",
      "lat": 21.0854892,
      "lng": 72.96565,
      "address": "3XP8+5C2, Palsana",
      "open_now": null
    },
    {
      "place_id": "ChIJmc8dz9xb4DsRlBZ2tTM5Om0",
      "name": "Maniar Petroleum BP",
      "lat": 21.0863477,
      "lng": 72.96575419999999,
      "address": "N.H. No. 6, Block No.19, Sachin Palsana Road, Palsana, Chokdi, Patia, Italva",
      "open_now": true
    },
    {
      "place_id": "ChIJKyuJ3eVb4DsR-1YWVJX84HM",
      "name": "CNG Pump",
      "lat": 21.0865469,
      "lng": 72.9760781,
      "address": "Gayatri Complex, Palsana",
      "open_now": true
    },
    {
      "place_id": "ChIJZdA4gBxb4DsRurDdBvvTfvE",
      "name": "IndianOil",
      "lat": 21.0872098,
      "lng": 72.9775085,
      "address": "Ground Floor NH 48, Palsana",
      "open_now": true
    },
    {
      "place_id": "ChIJPydQLABb4DsRE5xdkderTSc",
      "name": "Indane gas office palsana",
      "lat": 21.0889453,
      "lng": 72.9781833,
      "address": "3XQH+M73, Kadodra - Antapur Road, Isroli, Palsana",
      "open_now": null
    },
    {
      "place_id": "ChIJcVIHGc5b4DsR1vtxu-LVJiE",
      "name": "Hindustan Petroleum Corporation Limited",
      "lat": 21.085493,
      "lng": 72.93900359999999,
      "address": "Survey No 2 NH 53, Hazira Palsana Rd, Palsana, Lingad",
      "open_now": true
    },
    {
      "place_id": "ChIJV-Tb3DFa4DsR24KUyD2Dd84",
      "name": "IndianOil",
      "lat": 21.0846528,
      "lng": 72.9383659,
      "address": "Survey No 6, Block No 9, Palansa Road, Sachin, Surat",
      "open_now": true
    },
    {
      "place_id": "ChIJGzWIGQBb4DsR8dqKajc1QNg",
      "name": "BPCL Petrol Pump | Good Luck Fuel Station",
      "lat": 21.1058658,
      "lng": 72.9756072,
      "address": "Number_48, Mu.Post, National Highway, Ta, Baleshwar",
      "open_now": true
    },
    {
      "place_id": "ChIJOe1xFTVb4DsRfSD959rE8d4",
      "name": "Nayara Parekh Pump Store",
      "lat": 21.10866219999999,
      "lng": 72.9758379,
      "address": "National Highway 48, Surat",
      "open_now": true
    },
    {
      "place_id": "ChIJXXd-FQBb4DsRbhUIXrAu-hc",
      "name": "DEF",
      "lat": 21.1088422,
      "lng": 72.9758293,
      "address": "4X5G+G8P, Baleshwar",
      "open_now": null
    },
    {
      "place_id": "ChIJh1nHnZ5b4DsRVpeR8sQUW48",
      "name": "Hindustan Petroleum Corporation Limited",
      "lat": 21.118411,
      "lng": 72.97518099999999,
      "address": "Ground Floor, NH 48, Block No 351/2, Palsana, Baleshwar",
      "open_now": true
    },
    {
      "place_id": "ChIJY2V4mHBd4DsRju2_3qjSaB0",
      "name": "Petrocare Centre - BPCL",
      "lat": 21.0887587,
      "lng": 72.9982898,
      "address": "PALSANA, Surat",
      "open_now": true
    },
    {
      "place_id": "ChIJl3VqWThZ4DsRUbBfAh2tT-s",
      "name": "Shell",
      "lat": 21.0526875,
      "lng": 72.9783923,
      "address": "NH-48, Palsana, Vesma",
      "open_now": true
    },
    {
      "place_id": "ChIJNQSwRgBb4DsRHztqwfYb3n0",
      "name": "Ansh gas agency",
      "lat": 21.0819083,
      "lng": 72.9151876,
      "address": "C-17/16, Center Rd, Hoziwala Industrial Estate, Sachin Apparel Park SEZ., Sachin, Surat",
      "open_now": null
    },
    {
      "place_id": "ChIJD0VmTidn4DsRomsPrZCk6gM",
      "name": "IndianOil",
      "lat": 21.1095398,
      "lng": 73.1341714,
      "address": "S No 1/Paiki 1, No 1 Afva, Tajpore, Bardoli, Khurdtlk",
      "open_now": true
    },
    {
      "place_id": "ChIJCfg77Wpn4DsRp0zGXa-x8qQ",
      "name": "Morlidhar B Vamdote - Bharat Petroleum",
      "lat": 21.1147048,
      "lng": 73.1092608,
      "address": "38, National Highway 6, Talavadi, Bardoli",
      "open_now": null
    },
    {
      "place_id": "ChIJ1y5zXKln4DsRs9Nv4CkdifY",
      "name": "SWASTIK PETROLEUM",
      "lat": 21.1093741,
      "lng": 73.1476945,
      "address": "BLOCK.NO 580 NEAR UTARA VADHAVA PATIYA , BARDOLI VYARA ROAD , AAFVA, TA, BARDOLI",
      "open_now": true
    },
    {
      "place_id": "ChIJ1SRWFV5h4DsRhljYAieG7UU",
      "name": "VANKANER PETROLEUM (INDIAN OIL)",
      "lat": 21.0787183,
      "lng": 73.1667246,
      "address": "SH HIGHWAY 187, Vankaner Village Road, Vankaner",
      "open_now": true
    },
    {
      "place_id": "ChIJXZ5tUJld4DsREnX2865iu_4",
      "name": "IndianOil",
      "lat": 21.107589,
      "lng": 73.1935033,
      "address": "No 54, NH 6, Hindolia",
      "open_now": true
    },
    {
      "place_id": "ChIJT_oKCKJh4DsRs7G1oWYT1JI",
      "name": "Shree Narayan Petroleum -BPCL",
      "lat": 21.0762549,
      "lng": 73.134778,
      "address": "Shop No 01 Bharat Petroleum Bardoli, Road, Tarsadi",
      "open_now": true
    },
    {
      "place_id": "ChIJe94Cfehn4DsRjcXtMPAQjiA",
      "name": "IndianOil",
      "lat": 21.1256001,
      "lng": 73.1197001,
      "address": "R S No 3502, 2 Paiki 1, Bardoli",
      "open_now": true
    },
    {
      "place_id": "ChIJe6j9plhn4DsRP9ceQXx3tvA",
      "name": "Bharat Petroleum, Petrol Pump -Shri Bhuvneshwari Petroleum",
      "lat": 21.1065964,
      "lng": 73.112217,
      "address": "NH-6 FORT SONGADH, TAPI",
      "open_now": true
    },
    {
      "place_id": "ChIJj4kCawxk4DsRfWbYOStAFnc",
      "name": "Hindustan Petroleum Corporation Limited",
      "lat": 21.106246,
      "lng": 73.20152999999999,
      "address": "Sur No 111 NH 53, Bardoli, near Hazira, to, Songadh - Surat, Hindolia",
      "open_now": true
    },
    {
      "place_id": "ChIJ3TGeEgBn4DsRZjaxYCj4cS4",
      "name": "Petroleum pump",
      "lat": 21.1255374,
      "lng": 73.1122499,
      "address": "44G6+6V9, Bardoli",
      "open_now": null
    },
    {
      "place_id": "ChIJ85p7dQBl4DsRaGD84ZmE6oo",
      "name": "Shree hinglaj, Indian oil petrol pump",
      "lat": 21.1053615,
      "lng": 73.20336739999999,
      "address": "4643+48X, Songadh - Surat, Sejvad",
      "open_now": true
    },
    {
      "place_id": "ChIJ_8L2UgBn4DsRJITVudxKNBc",
      "name": "Balaji Fuels (Indian Oil)",
      "lat": 21.1331819,
      "lng": 73.1160183,
      "address": "Bardoli",
      "open_now": true
    },
    {
      "place_id": "ChIJVTwe-0xj4DsRw6mzEpJeMsY",
      "name": "IndianOil",
      "lat": 21.0917869,
      "lng": 73.2742408,
      "address": "Ground Floor, Bhutwada, NH 6, Bajipura",
      "open_now": true
    },
    {
      "place_id": "ChIJD26aSzV94DsR5IfZzlkH4tE",
      "name": "NILKANTH PETROLEUM (BPCL)",
      "lat": 21.099321,
      "lng": 73.2946307,
      "address": "NH 53, BAJIPURA BYPASS ROAD BAJIPURA, TAL VALOD, DIST TAPI KAMALCHHOD, TALUKA, Valod",
      "open_now": true
    },
    {
      "place_id": "ChIJcwSeQwBj4DsRz3JJlRWG7cI",
      "name": "Old Hp Petroleum",
      "lat": 21.0919465,
      "lng": 73.2765348,
      "address": "37RG+QJF, Bajipura",
      "open_now": null
    },
    {
      "place_id": "ChIJucy_0Fpj4DsR-yqa7grfxwU",
      "name": "Mahadev Petroleum",
      "lat": 21.09393,
      "lng": 73.2640456,
      "address": "281, Gujarat State Highway 6, Industrial Area, Bajipura",
      "open_now": null
    },
    {
      "place_id": "ChIJWTfVhYFj4DsRKWoo94ST9Hs",
      "name": "Hindustan Petroleum Corporation Limited",
      "lat": 21.099956,
      "lng": 73.2587511,
      "address": "Survey No 296, D/1/1, Valod, Titwa",
      "open_now": true
    },
    {
      "place_id": "ChIJEXlEu4h84DsRmOLKoJ1jEqs",
      "name": "NAYARA PETROLEUM",
      "lat": 21.0991969,
      "lng": 73.318985,
      "address": "Maypur",
      "open_now": null
    },
    {
      "place_id": "ChIJd1T0nrRj4DsRoeWNQre144k",
      "name": "IndianOil - SWAGAT",
      "lat": 21.0962432,
      "lng": 73.25428219999999,
      "address": "Survey No 265 Titva, Valod, NH 53, Kantifalia, Surat",
      "open_now": true
    },
    {
      "place_id": "ChIJj4keqLt94DsRw0bFbcOtPj0",
      "name": "Ganvit Petroleum",
      "lat": 21.0995555,
      "lng": 73.3243595,
      "address": "NH 53, Maypur, DHULIYA ROAD, Surat",
      "open_now": true
    },
    {
      "place_id": "ChIJ7-MFK3Vl4DsRjcr2igqYma4",
      "name": "BPCL Ramkabir Mili Filling Station",
      "lat": 21.1196099,
      "lng": 73.24968609999999,
      "address": "At & Post Titwa, Ramkabir Mili Filling Station Tal- Valod, SH-5, Titwa",
      "open_now": true
    },
    {
      "place_id": "ChIJ5bDyaWNj4DsRQdW-bZdKrUU",
      "name": "Tapi Maiya Bharat Petroleum",
      "lat": 21.09892,
      "lng": 73.24271499999999,
      "address": "36XV+H38, Manekpor",
      "open_now": true
    },
    {
      "place_id": "ChIJjVvmhwR84DsRjyH4V6izkUw",
      "name": "Bharat Petroleum (Petrol Pump)",
      "lat": 21.1071622,
      "lng": 73.3642745,
      "address": "4947+VP6, National Highway 6, Paniyari",
      "open_now": true
    },
    {
      "place_id": "ChIJFwlgaoJ54DsRAXCae6zFm-c",
      "name": "IndianOil",
      "lat": 21.125931,
      "lng": 73.40622549999999,
      "address": "Survey No 124/C Tadkuva, Tapi, Chikhali Khadka, Vyara",
      "open_now": true
    },
    {
      "place_id": "ChIJE1p5neR54DsRa81rdH6oEfY",
      "name": "SAVI FUELS",
      "lat": 21.1314934,
      "lng": 73.4001619,
      "address": "opposite SAMARPAN RICEMILL, VAZARDA ROAD, opposite SAMARPAN RICEMILL",
      "open_now": null
    },
    {
      "place_id": "ChIJpaztE0p54DsRj1mIZav6r4s",
      "name": "IndianOil",
      "lat": 21.1238981,
      "lng": 73.3936954,
      "address": "Block No 444, Paiki 1, Tapi, Chikhli Khadka",
      "open_now": true
    },
    {
      "place_id": "ChIJPaN5FM5-4DsR8NRyFhgXssM",
      "name": "AASTHA ENERGY",
      "lat": 21.1132362,
      "lng": 73.4047831,
      "address": "near Janak Hospital, No 20/1/2, near Janak Hospital, Kanpura, Vyara",
      "open_now": true
    },
    {
      "place_id": "ChIJO9dXpKl54DsRqapO1VHZdwU",
      "name": "Hindustan Petroleum Corporation Limited",
      "lat": 21.126099,
      "lng": 73.41714999999999,
      "address": "Ground Floor, NH 53, Dhulia Road, Tadkuva, Vyara",
      "open_now": true
    },
    {
      "place_id": "ChIJ-ck9egB_4DsRVr_ZhVA3v6k",
      "name": "Hindustan Petroleum Corporation Limited",
      "lat": 21.1191301,
      "lng": 73.4153401,
      "address": "Survey No 70, Songadh - Surat, Kanpura, Vyara",
      "open_now": true
    },
    {
      "place_id": "ChIJFW4JF91_4DsRO-Vb5caQJlU",
      "name": "Bharat Petroleum",
      "lat": 21.1094114,
      "lng": 73.399701,
      "address": "Bharat Petrol Station, Kanpura, Vyara",
      "open_now": true
    },
    {
      "place_id": "ChIJMSb0PAB_4DsRkMxzn-zg_IU",
      "name": "Hindustan Petroleum Corporation Limited",
      "lat": 21.107698,
      "lng": 73.394581,
      "address": "Ground Floor, Unai naka, opposite Hari Hareshwar Mahadev, Chowk, Vyara",
      "open_now": true
    },
    {
      "place_id": "ChIJcQ08oLB-4DsR0PpJPPxm_0k",
      "name": "IndianOil",
      "lat": 21.1067602,
      "lng": 73.38710209999999,
      "address": "Ground Floor NH 6, Dhulia Road, Khadka, Vyara",
      "open_now": true
    },
    {
      "place_id": "ChIJ-9rWTwB_4DsRzuWy52g24ns",
      "name": "JIO-BP (Samruddh Petroleum)",
      "lat": 21.1098118,
      "lng": 73.3779333,
      "address": "495H+W5F, Vyara",
      "open_now": true
    },
    {
      "place_id": "ChIJhRvIjGx54DsRXXgpOXlEjeQ",
      "name": "OSTS BP VEERPUR",
      "lat": 21.1283767,
      "lng": 73.4366908,
      "address": "4CHP+9M4, Songadh - Surat, Virpur",
      "open_now": null
    },
    {
      "place_id": "ChIJE-EfJMHW3zsR1cj6hGrGamA",
      "name": "Hindustan Petroleum Corporation Limited",
      "lat": 21.1599131,
      "lng": 73.5407276,
      "address": "Survey No 189, Block No 52, Sonarpada, Songadh",
      "open_now": true
    },
    {
      "place_id": "ChIJW8FrpJPX3zsRP1ElzYTNrYg",
      "name": "Jio-bp Petrol Pump",
      "lat": 21.1627062,
      "lng": 73.5472618,
      "address": "SUBPLOT 2, SONARPADA, FORT, SURVEY NO 60, P1 P1, Songadh",
      "open_now": true
    },
    {
      "place_id": "ChIJ113Oib3X3zsRrRN8SdpEOiw",
      "name": "IndianOil",
      "lat": 21.1623388,
      "lng": 73.5460023,
      "address": "No 61, National Highway 53, Songadh",
      "open_now": true
    },
    {
      "place_id": "ChIJb2a7ncbX3zsRqfLTt27BGPE",
      "name": "TATA DEF PUMP(ગોકુલ ઓટોમોબાઇલસ)",
      "lat": 21.162915,
      "lng": 73.54947589999999,
      "address": "5G6X+RW, Songadh",
      "open_now": true
    },
    {
      "place_id": "ChIJfzWAZUPR3zsRMjdE4RrAqBk",
      "name": "IndianOil",
      "lat": 21.1641116,
      "lng": 73.5514013,
      "address": "No 66, P1 Sonarpada, NH 6, Songadh",
      "open_now": true
    },
    {
      "place_id": "ChIJfa0Dxc7W3zsRR-gMwuq_3kI",
      "name": "IndianOil",
      "lat": 21.1641116,
      "lng": 73.5514013,
      "address": "No 66/P1 Sonarpada, NH 6, Songadh",
      "open_now": true
    },
    {
      "place_id": "ChIJXYPZLADX3zsRWrSzqlnny2s",
      "name": "VED ABHISHEK PETROLEUM",
      "lat": 21.1641145,
      "lng": 73.55157919999999,
      "address": "30/B/1, NH6, Sonarpada, Songadh",
      "open_now": true
    },
    {
      "place_id": "ChIJPxZ3DK3X3zsRu8Hrlqz_s4E",
      "name": "TATA GENUINE DEF REFILL PUMP",
      "lat": 21.158992,
      "lng": 73.539202,
      "address": "5G5Q+HM, Pokhran",
      "open_now": true
    },
    {
      "place_id": "ChIJmWmtS_nX3zsR8ekWvIQiGYQ",
      "name": "Bharat Petroleum Petrol Pump , MATOSHREE PETROLEUM",
      "lat": 21.1568568,
      "lng": 73.53518079999999,
      "address": "SNO.79 KHATA NO 109TAL, Songadh",
      "open_now": true
    },
    {
      "place_id": "ChIJs9zcbzPR3zsROfgawjfaIEg",
      "name": "SHREE BHUVNESHWARI PETROLEUM , BPCL PETROL PUMP",
      "lat": 21.165342,
      "lng": 73.56157979999999,
      "address": "5H86+4HG, NH-6, Songadh Flyover, Songadh",
      "open_now": true
    },
    {
      "place_id": "ChIJT_YtdjPR3zsRrbxBwlz3y4E",
      "name": "IndianOil",
      "lat": 21.1654954,
      "lng": 73.5621937,
      "address": "Ground Floor, near Songadh Fort, NH 53, Songadh - Surat, Surat",
      "open_now": true
    },
    {
      "place_id": "ChIJR7uZIADX3zsRhYwvaY-kD6s",
      "name": "CGS Station(Proposed)-Adani Total Gas Limited",
      "lat": 21.1532838,
      "lng": 73.53170879999999,
      "address": "5G3J+8M8, Pokhran",
      "open_now": null
    },
    {
      "place_id": "ChIJceFwUWjR3zsRgFlkVa1tu0k",
      "name": "IndianOil",
      "lat": 21.1488922,
      "lng": 73.5677989,
      "address": "Survey No 13, Songadh, Moti Cher, Champavadi",
      "open_now": true
    },
    {
      "place_id": "ChIJaxHWyCnR3zsRjPwlBwOggis",
      "name": "SHREEJI PETROLEUM",
      "lat": 21.1813277,
      "lng": 73.5676671,
      "address": "Block No. 54, Vankvel Drugs Pvt. Ltd, opposite Adore, Songadh - Ukai Road, Songadh",
      "open_now": true
    },
    {
      "place_id": "ChIJhe0pJADX3zsR_lwPQco0lBg",
      "name": "TATA MOTORS AUTHORISED D.E.F PUMP (યુરિયા પંપ)",
      "lat": 21.147552,
      "lng": 73.51816199999999,
      "address": "4GX9+367, Songadh",
      "open_now": true
    },
    {
      "place_id": "ChIJW57dTonW3zsRUjcmUOA6UAk",
      "name": "IndianOil",
      "lat": 21.1475001,
      "lng": 73.5177001,
      "address": "Ground Floor, Surat Dhulia Road Pokhran, NH 6, Songargh, Bhljamboli, Surat",
      "open_now": true
    },
    {
      "place_id": "ChIJ393T5Z7J3zsRCdE4xx-LhpI",
      "name": "IndianOil",
      "lat": 21.1679009,
      "lng": 73.5804766,
      "address": "Gut No 23/2, A/2B, Navapur, Lakkad Kot",
      "open_now": true
    },
    {
      "place_id": "ChIJwcMwmvbR3zsRJ-sSTYRffpg",
      "name": "IndianOil",
      "lat": 21.188075,
      "lng": 73.569544,
      "address": "S/Bl No 30/B/1 Tapi, Gunasda, Songadh",
      "open_now": true
    },
    {
      "place_id": "ChIJcW-eAlrR3zsRDzsWyEI717k",
      "name": "Hardik Petroleum",
      "lat": 21.1911192,
      "lng": 73.56964889999999,
      "address": "Hardik Petroleum, Songadh",
      "open_now": true
    },
    {
      "place_id": "ChIJWcGBRQDR3zsRGAJa1nsPrsg",
      "name": "Vinayak Petroleum",
      "lat": 21.1790196,
      "lng": 73.5813466,
      "address": "5HHJ+JG5, Pankhri",
      "open_now": null
    },
    {
      "place_id": "ChIJJW30U2HP3zsRVPajIUru15s",
      "name": "Bharat Petroleum Petrol Pump , ARYAN PETROLEUM",
      "lat": 21.1656034,
      "lng": 73.74698819999999,
      "address": "Gujarat State Highway 6",
      "open_now": true
    },
    {
      "place_id": "ChIJY7RVVY_O3zsR1eFLKuPFq4k",
      "name": "Hindustan Petroleum Corporation Limited",
      "lat": 21.161511,
      "lng": 73.706611,
      "address": "Ground Floor Uchchal, NH 6, Sase",
      "open_now": true
    },
    {
      "place_id": "ChIJlXDLNqPO3zsRtFV4PKD6Gjo",
      "name": "Dhruv petroleum,BPCL,Wakipada",
      "lat": 21.1654753,
      "lng": 73.7607973,
      "address": "National Highway 6 Nawapur, Wakipada",
      "open_now": true
    },
    {
      "place_id": "ChIJS_o5tQ7J3zsR_QWgZ2lpR7A",
      "name": "Uchchhal Petroleum",
      "lat": 21.1722867,
      "lng": 73.7678933,
      "address": "Uchchhal - Nizar Road, Vadpada",
      "open_now": true
    },
    {
      "place_id": "ChIJ6ygIsYTJ3zsRRNs_WJ_-e44",
      "name": "IndianOil",
      "lat": 21.1647947,
      "lng": 73.76987249999999,
      "address": "RS No 83 Paiki 1/B, NH 6, Vadpada",
      "open_now": true
    },
    {
      "place_id": "ChIJwaVX31PJ3zsRiPI4iOJxEac",
      "name": "Yash Petroleum / BHARAT Petroleum",
      "lat": 21.1740625,
      "lng": 73.7706875,
      "address": "5QFC+J73, Mogran",
      "open_now": true
    },
    {
      "place_id": "ChIJsW__orC23zsRZ2HmlZTiVHc",
      "name": "Bharat Petroleum, Petrol Pump -Shivansh Petroleum",
      "lat": 21.187549,
      "lng": 73.9251135,
      "address": "GANGAPUR, NANDURBAR",
      "open_now": true
    },
    {
      "place_id": "ChIJFTcE2Ki33zsR_CQxVu2diSg",
      "name": "Manish Omprakash Agrawal",
      "lat": 21.1796836,
      "lng": 73.8870106,
      "address": "Shop No 1 Main Rd Savrat, Dhule Highway Main Rd, Navapur, Surat",
      "open_now": null
    },
    {
      "place_id": "ChIJLSWHewC33zsRlmiiR2TFrsA",
      "name": "Palak bio diesel pump",
      "lat": 21.1766192,
      "lng": 73.8871681,
      "address": "5VGP+PRJ, Sawarat",
      "open_now": null
    },
    {
      "place_id": "ChIJo59YW4633zsREM0BZSmbzT4",
      "name": "NIRANJAN OMPRAKASH AGRAWAL",
      "lat": 21.1767018,
      "lng": 73.8870568,
      "address": "Shop No 1 Main Rd Navapur National Highway, 53 Navapur, Nandurbar",
      "open_now": null
    },
    {
      "place_id": "ChIJYYvmwHa23zsR6FFIkpjarw0",
      "name": "Hindustan Petroleum Corporation Limited",
      "lat": 21.17076429999999,
      "lng": 73.87295209999999,
      "address": "Gat No 63/2/B NH 6, Surat - Kolkata Highway, Nawapur, Nagpur",
      "open_now": true
    },
    {
      "place_id": "ChIJg1ouDQC33zsRZGIBkxTmG2o",
      "name": "Hindustan Petroleum Corporation Limited",
      "lat": 21.1852897,
      "lng": 73.9290628,
      "address": "Gat No 64/1B, NH 6, Surat - Kolkata Highway, Nawapur, Nagpur",
      "open_now": true
    },
    {
      "place_id": "ChIJc2Ljp_Ot3zsRCPy7SdWwbMA",
      "name": "ESSAR Oil Petrol Pump",
      "lat": 21.161977,
      "lng": 74.038068,
      "address": "Navapur, Nandurbar, NH-6, Dhule Nagpur Kolkata Highway, Mumbai Highway, Nandurbar, Nandurbar",
      "open_now": true
    },
    {
      "place_id": "ChIJMXBzx_Kt3zsR8Hx-rAL0HBY",
      "name": "Raghunath Petroleum Panbara",
      "lat": 21.1603657,
      "lng": 74.0406272,
      "address": "NH 6 Surat, Dongargarh - Nagpur Road, Bhandara",
      "open_now": true
    },
    {
      "place_id": "ChIJY-PNrFCr3zsRpRpVUnv4Le4",
      "name": "Hindustan Petroleum Corporation Limited",
      "lat": 21.1039747,
      "lng": 74.1356622,
      "address": "Gat No 47/1P, Nagpur, NH 6, Surat - Kolkata Highway, Sakri, Dahivel",
      "open_now": true
    },
    {
      "place_id": "ChIJx2YkD5DF3jsRAJ5wNhMc0jI",
      "name": "IndianOil",
      "lat": 21.1032731,
      "lng": 74.1374317,
      "address": "Gut No 67, A/B/1, Sakri, Bodakikhadi",
      "open_now": true
    },
    {
      "place_id": "ChIJn1VoOVBV3jsR_RlwaizU0ak",
      "name": "Bharat Petroleum, Petrol Pump -Vijay Petroleum",
      "lat": 21.087954,
      "lng": 74.1472221,
      "address": "DAHIVELNAKA, NH6, DHULE",
      "open_now": true
    },
    {
      "place_id": "ChIJ9TQf5p9V3jsRmvo6v1eZkIM",
      "name": "IndianOil",
      "lat": 21.0527705,
      "lng": 74.188935,
      "address": "Gut No 103, 3A & 103/2A, Sakri, Bhongaon, Bhadane",
      "open_now": true
    },
    {
      "place_id": "ChIJG8J_PgD53jsRX4qaRkPvs9I",
      "name": "Hindustan Petroleum Corporation Limited",
      "lat": 21.0145588,
      "lng": 74.2471073,
      "address": "Gat No 725/5 & 726/2, Sakri NH 53, Surat - Kolkata Highway, Dhule",
      "open_now": true
    },
    {
      "place_id": "ChIJXXnMvnH53jsRBwUo04coerI",
      "name": "Hindustan Petroleum Corporation Limited",
      "lat": 20.9845874,
      "lng": 74.29600180000001,
      "address": "Gut No 559, 2 & 560/2 SH 8, Pimpalner - Sakri Road, Sakri",
      "open_now": true
    },
    {
      "place_id": "ChIJzQC8QBz73jsRKydbv85AncE",
      "name": "Hindustan Petroleum Corporation Limited",
      "lat": 20.9863727,
      "lng": 74.37480880000001,
      "address": "Gat No 125/2/2 NH 6, Nagpur, Surat - Kolkata Highway, Sakri, Shewali",
      "open_now": true
    },
    {
      "place_id": "ChIJ38UZuZn73jsReAzbtKlLGf0",
      "name": "Shubhankar Gas Services",
      "lat": 20.99966179999999,
      "lng": 74.33098249999999,
      "address": "16,17 Hp Gas Sakri Nh 6, Sakri",
      "open_now": null
    },
    {
      "place_id": "ChIJuWIWbrn73jsRWUIFDF5hXYE",
      "name": "IndianOil",
      "lat": 20.994385,
      "lng": 74.340085,
      "address": "Survey No 243, A Mouza, Sakri",
      "open_now": true
    },
    {
      "place_id": "ChIJ--lMozr73jsRjSTuhMS62ik",
      "name": "FAUJI PETROLEUM",
      "lat": 21.0059418,
      "lng": 74.3245457,
      "address": "Sakri Bypass, Perejpur",
      "open_now": true
    },
    {
      "place_id": "ChIJ93U4NCT73jsR7KrbuVzJNYI",
      "name": "IndianOil",
      "lat": 20.9956919,
      "lng": 74.3483086,
      "address": "Stone No 48, Ground Floor Nandurbar Road, Akhade",
      "open_now": true
    },
    {
      "place_id": "ChIJbTZFZyv73jsRR_JuyFrAurw",
      "name": "Bharat Petroleum, Petrol Pump -B.P.Jain (Sakri)",
      "lat": 20.9930078,
      "lng": 74.3156312,
      "address": "SAKRI CITY ON NH 6, DHULE",
      "open_now": true
    },
    {
      "place_id": "ChIJQ1BUL17o3jsRuyM0G2HjgzI",
      "name": "Ajay Petroleum (BPCL)",
      "lat": 20.9283165,
      "lng": 74.5501634,
      "address": "Ner, Dhule, NH-6, Dhule Nagpur Kolkata Highway, Mumbai Highway, Dhule, Dhule",
      "open_now": true
    },
    {
      "place_id": "ChIJN4nNpb3o3jsRKz7sBviNiQY",
      "name": "Manjushri Petroleum NER",
      "lat": 20.934577,
      "lng": 74.520862,
      "address": "National Highway 6",
      "open_now": true
    },
    {
      "place_id": "ChIJ9zSqfFPp3jsRbeX1_pBbtkI",
      "name": "IndianOil",
      "lat": 20.9258727,
      "lng": 74.5621282,
      "address": "Gut No 260, Morane, Aklad",
      "open_now": true
    },
    {
      "place_id": "ChIJo3NajpHo3jsRDmm_jztI0N0",
      "name": "Hindustan Petroleum Corporation Limited",
      "lat": 20.9332599,
      "lng": 74.5324748,
      "address": "GAT No 28/1, 28/2 & 28/3, Surat - Kolkata Highway, Nagpur",
      "open_now": true
    },
    {
      "place_id": "ChIJk4rpezHL3jsRXp-f_TNd-yo",
      "name": "IndianOil",
      "lat": 20.9012957,
      "lng": 74.6865923,
      "address": "Gut No 165/3 NH 6, near Stone 528, to, 533 Km, Ajang",
      "open_now": true
    },
    {
      "place_id": "ChIJyfYcZnbE3jsRvgeZ0iUY8Aw",
      "name": "IndianOil",
      "lat": 20.9022234,
      "lng": 74.6890839,
      "address": "Ground Floor, Ashtane, Kundane",
      "open_now": true
    },
    {
      "place_id": "ChIJl5r4KArD3jsRZZej8_pEBMY",
      "name": "BHARADWAJ PETROLEUM ( Bharat Petroleum Corp.Ltd.) & CNG Station",
      "lat": 20.90849159999999,
      "lng": 74.65221009999999,
      "address": "National Highway 53, Aanandkhede, Surat",
      "open_now": null
    },
    {
      "place_id": "ChIJA0y1ikTF3jsRY5x3NpfwPKk",
      "name": "IndianOil",
      "lat": 20.9021339,
      "lng": 74.7201951,
      "address": "NH 6, Morane, Dhule",
      "open_now": true
    },
    {
      "place_id": "ChIJ0xCjThDD3jsRDya1Hw5O0Wg",
      "name": "JIO bp petrol pump (Reliance)",
      "lat": 20.9111675,
      "lng": 74.64078889999999,
      "address": "&, Gut no 244, at post - Anand Khede, Tal, Dist, Anand",
      "open_now": true
    },
    {
      "place_id": "ChIJfW2UMvHF3jsRzTzix0tL-qA",
      "name": "Hindustan Petroleum Corporation Limited",
      "lat": 20.8951305,
      "lng": 74.7745322,
      "address": "Survey No 3288/A, Sabir Nagar, near Shivaji Statue, 635, 1st Lane, Dhule",
      "open_now": true
    },
    {
      "place_id": "ChIJveVKS4nF3jsRkNUPHHUuDSM",
      "name": "IndianOil",
      "lat": 20.910058,
      "lng": 74.7746576,
      "address": "Ground Floor, Deopur, Dhule",
      "open_now": true
    },
    {
      "place_id": "ChIJB_ew5TrP3jsRUNhKOhWsamY",
      "name": "Bharat Petroleum",
      "lat": 20.897453,
      "lng": 74.8140209,
      "address": "BALAPUR, 3KM FROM NH3 ON, Dhule",
      "open_now": true
    },
    {
      "place_id": "ChIJwRVENirJ3jsRXDGDgsw0s7I",
      "name": "Hindustan Petroleum Corporation Limited",
      "lat": 20.8754524,
      "lng": 74.78173749999999,
      "address": "Plot No 21 & 22, No 24/1, 26 to 28 & 39, NH 52, Agra - Mumbai Highway, Mohadi Upnagar, Dhule",
      "open_now": true
    },
    {
      "place_id": "ChIJU1G0V5TJ3jsR6WjUj2qLk7U",
      "name": "IndianOil",
      "lat": 20.876893,
      "lng": 74.782394,
      "address": "Gut No 35, Plot No, 13 & 14, Mohadi Road, Arvi",
      "open_now": true
    },
    {
      "place_id": "ChIJm7lkYq3H3jsRmyTWNwlDaZU",
      "name": "Deepaarti, Bharat Petroleum",
      "lat": 20.87723189999999,
      "lng": 74.7735953,
      "address": "Mohadi Road, Agrawal Nagar, Dhule",
      "open_now": true
    },
    {
      "place_id": "ChIJN5nColLP3jsRjn6YLI_zTwE",
      "name": "IndianOil",
      "lat": 20.8826912,
      "lng": 74.7914472,
      "address": "Ground Floor, NH no, 3, Vadjai Rd Crossing, Parola Road, Dhule",
      "open_now": true
    },
    {
      "place_id": "ChIJbX04bSrJ3jsRRzr75Y5hyHs",
      "name": "Bharat Petroleum",
      "lat": 20.8596852,
      "lng": 74.78751,
      "address": "29/2/2, Dhule - Chalisgaon Road, Highway, Pimpri",
      "open_now": true
    },
    {
      "place_id": "ChIJE5UKaf3F3jsRYkx8Q3aQ7ig",
      "name": "Hindustan Petroleum Corporation Limited",
      "lat": 20.8891301,
      "lng": 74.77833199999999,
      "address": "Ground Floor, Chalisgaon Road, Dhule",
      "open_now": true
    },
    {
      "place_id": "ChIJB9DwNWrP3jsR_6ezkyRecDw",
      "name": "CBS Energy",
      "lat": 20.8883924,
      "lng": 74.7954348,
      "address": "VQQW+953, opp of DDRC Hotel, National Highway-3, Dhule",
      "open_now": true
    },
    {
      "place_id": "ChIJ2bCFiPXF3jsRP1mhBBhZN2E",
      "name": "Hindustan Petroleum Corporation Limited",
      "lat": 20.8921247,
      "lng": 74.7772471,
      "address": "Survey No 371, Plot No 82/1 & 2, 80 Feet Road, Ansar Nagar, Dhule",
      "open_now": true
    },
    {
      "place_id": "ChIJvYz5sBfG3jsRsll0ApErhE0",
      "name": "Hindustan Petroleum Corporation Limited",
      "lat": 20.857861,
      "lng": 74.766481,
      "address": "Ground Floor, NH 3, Agra - Mumbai Highway, MIDC Avdhan, Dhule",
      "open_now": true
    },
    {
      "place_id": "ChIJe7KEB1vF3jsRvTyOVhGiNdw",
      "name": "Bharat Petroleum",
      "lat": 20.8966527,
      "lng": 74.7744161,
      "address": "SHIVTIRTH, NR SHIVAJI CHO, Dhule",
      "open_now": true
    },
    {
      "place_id": "ChIJnaIlnT3G3jsRITFwD8jANOg",
      "name": "Bharat Petroleum, Petrol Pump -Bp-Avdhan (Dhule)",
      "lat": 20.85506329999999,
      "lng": 74.7658529,
      "address": "AWDHAN COCO, NH3, Dhule",
      "open_now": true
    },
    {
      "place_id": "ChIJCWhdH0vP3jsR42jwfExjwzo",
      "name": "B P petrol pump",
      "lat": 20.8990927,
      "lng": 74.78611579999999,
      "address": "VQXP+JCQ, Pawan Nagar, Dhule",
      "open_now": false
    },
    {
      "place_id": "ChIJnR-BpD3G3jsRZ4awJFrvUTs",
      "name": "IndianOil",
      "lat": 20.853765,
      "lng": 74.765434,
      "address": "Ground Floor, Agra - Mumbai Highway, Borvihir, Awadhan",
      "open_now": true
    },
    {
      "place_id": "ChIJ12EEC_jP3jsRrf96D4J-bOQ",
      "name": "BALAJI LPG Auto Gas (AEGIS)",
      "lat": 20.8961529,
      "lng": 74.7985502,
      "address": "Agra - Mumbai Highway, Dhule",
      "open_now": null
    },
    {
      "place_id": "ChIJsxPnjm3P3jsRF79tvtANysU",
      "name": "Dhruv Auto Services",
      "lat": 20.8529151,
      "lng": 74.7641696,
      "address": "NH 3, Agra - Mumbai Highway, MIDC Avdhan, Dhule",
      "open_now": null
    },
    {
      "place_id": "ChIJccYhmu3F3jsR8oZn3d7xrzI",
      "name": "Bharat Petroleum",
      "lat": 20.8987935,
      "lng": 74.7678526,
      "address": "VQX9+G49, Navnath Nager, Dhule",
      "open_now": true
    },
    {
      "place_id": "ChIJ4V_p9vrP3jsR8nPKEPLYohM",
      "name": "IndianOil",
      "lat": 20.902745,
      "lng": 74.78392199999999,
      "address": "Survey No 4665, Plot No 2/3, Chaini Road, Dhule",
      "open_now": true
    },
    {
      "place_id": "ChIJn5_fMkW33jsRQtwAFNWVxNA",
      "name": "Hindustan Petroleum Corporation Limited",
      "lat": 20.764999,
      "lng": 74.83885500000001,
      "address": "Ground Floor, NH 52, Junwane",
      "open_now": true
    },
    {
      "place_id": "ChIJH64pukm33jsREpGUXHf9gL4",
      "name": "Hinglaj Bharat Petroleum & CNG",
      "lat": 20.7484625,
      "lng": 74.84757809999999,
      "address": "JUNAVANE VILLAGE, ON NH 211, Dhule",
      "open_now": true
    },
    {
      "place_id": "ChIJVdcLmo223jsR-HHsMlgx_IQ",
      "name": "IndianOil",
      "lat": 20.7371087,
      "lng": 74.8543983,
      "address": "Ground Floor, Borkund",
      "open_now": true
    },
    {
      "place_id": "ChIJryUt8ZO23jsRWD_czGVMmuA",
      "name": "Hindustan Petroleum Corporation Limited",
      "lat": 20.7308901,
      "lng": 74.8555398,
      "address": "Gut No 53, SH 15, Shirur Hwy, Aarvi, Vinchur",
      "open_now": true
    },
    {
      "place_id": "ChIJE7fM1fq33jsRvM94mh4TYHU",
      "name": "Bharat Petroleum Petrol Pump , OM PETROLEUM",
      "lat": 20.733169,
      "lng": 74.863264,
      "address": "ARVI, Parola Road, Dhule",
      "open_now": null
    },
    {
      "place_id": "ChIJH4ESQDa33jsRGqRMXO4I7A4",
      "name": "Sarathi Petroleum BPCL",
      "lat": 20.725494,
      "lng": 74.8295021,
      "address": "Maharashtra State Highway 15, Ratanpura",
      "open_now": true
    },
    {
      "place_id": "ChIJNT0yy2iy3jsR49n8YFb74tE",
      "name": "IndianOil",
      "lat": 20.6304291,
      "lng": 74.9075215,
      "address": "Gut No 493, 2A, Beldarwadi, Dahiwad",
      "open_now": true
    },
    {
      "place_id": "ChIJVV2YbIWz3jsRzk4Dw7cHvMY",
      "name": "S.V.R Petroleum Essar Dealer",
      "lat": 20.6248917,
      "lng": 74.9037689,
      "address": "gat no.361/B.Dahiwad.Tal N H 211, Dhule - Chalisgaon Road, Dahiwad",
      "open_now": true
    },
    {
      "place_id": "ChIJ6_-bO2Sz3jsRzb60DRFh0Ow",
      "name": "Hindustan Petroleum Corporation Limited",
      "lat": 20.614167,
      "lng": 74.911913,
      "address": "Gut No 335, near Chinchgavhan, 2/P, Dhule - Chalisgaon Road, Dahiwad",
      "open_now": true
    },
    {
      "place_id": "ChIJsxNo8OOt3jsRKnMeawUQiH4",
      "name": "Bharat Petroleum (BPCL)",
      "lat": 20.6092646,
      "lng": 74.9165913,
      "address": "JW58+PJ4, National Highway 52, Dahiwad",
      "open_now": null
    },
    {
      "place_id": "ChIJY4uiW1qt3jsRLhx14TdVMNE",
      "name": "SHRIRAM PETROLEUM",
      "lat": 20.5618456,
      "lng": 74.9528754,
      "address": "GAT NO 321, Dhule - Chalisgaon Road, Mehunbare",
      "open_now": true
    },
    {
      "place_id": "ChIJx7lKwP6t3jsRYtSQdaBgHU4",
      "name": "Nayara Petroleum- VIRAM",
      "lat": 20.5294606,
      "lng": 74.9641421,
      "address": "GXH7+QMJ, Dasegaon Bk",
      "open_now": null
    },
    {
      "place_id": "ChIJu3PeegCt3jsRLUalwPSHZE0",
      "name": "Farming",
      "lat": 20.5826611,
      "lng": 74.9356889,
      "address": "NH 52, Mehunbare",
      "open_now": null
    },
    {
      "place_id": "ChIJB3gTRgCt3jsRLDITkBSmRmI",
      "name": "Sunil Chabhulal Gadhari",
      "lat": 20.5827776,
      "lng": 74.9354213,
      "address": "HWMP+457, Khadke Sim",
      "open_now": null
    },
    {
      "place_id": "ChIJA4QqwqWt3jsRoCJXYQ3m7EY",
      "name": "Mahajan Brothers",
      "lat": 20.5868664,
      "lng": 74.9334828,
      "address": "Mehunbare, Chalisgaon",
      "open_now": true
    },
    {
      "place_id": "ChIJKxgv_Gat3jsRlEeoqDy-Ts4",
      "name": "IndianOil",
      "lat": 20.5874313,
      "lng": 74.9320297,
      "address": "Gut No 259, H N 3/1/B, Khadkisim, Chalisgaon",
      "open_now": true
    },
    {
      "place_id": "ChIJm39jFzqt3jsRaCqVspgjBec",
      "name": "SS PETROLEUM",
      "lat": 20.5856786,
      "lng": 74.9267229,
      "address": "Khadaki seem, NH-211, Khadaki Seem",
      "open_now": true
    },
    {
      "place_id": "ChIJE4FvQx9V2TsRKe0F2xQlzYQ",
      "name": "Bharat Petroleum (BPCL)",
      "lat": 20.476393,
      "lng": 74.991868,
      "address": "Chalisgaon, Jalgaon, NH-211, Solapur Dhule Road, Jalgaon, Jalgaon",
      "open_now": true
    },
    {
      "place_id": "ChIJX4ruHA5V2TsRecNhC_eu17M",
      "name": "Bharat Petroleum (BPCL)",
      "lat": 20.4653726,
      "lng": 75.00294339999999,
      "address": "near RLY STN, CHALISGAON, near RLY STN, JALGAON",
      "open_now": true
    },
    {
      "place_id": "ChIJyagP9wtV2TsRmNtHfa78gZ8",
      "name": "Hindustan Petroleum Corporation Limited",
      "lat": 20.4664779,
      "lng": 75.0104169,
      "address": "FP No 290, Plot No 35 & 36, Bhadgaon Road, Chalisgaon",
      "open_now": true
    },
    {
      "place_id": "ChIJeZrb0f5V2TsRMe60ZpFW7UI",
      "name": "Hindustan Petroleum Corporation Limited",
      "lat": 20.440715,
      "lng": 74.971651,
      "address": "Gat No 3, 2/2A, Khadki",
      "open_now": true
    },
    {
      "place_id": "ChIJLzT9ok9V2TsRQruzDHc3px0",
      "name": "GAS ONE LPG PUMP REFILL",
      "lat": 20.4696075,
      "lng": 74.9791232,
      "address": "FX9H+RJX, Maharashtra State Highway 19, Old Airport Area, Chalisgaon",
      "open_now": true
    },
    {
      "place_id": "ChIJy8wBmSpV2TsRjS4-7HdM2GM",
      "name": "Shiv petroleum indian oil Cng",
      "lat": 20.4707111,
      "lng": 74.9784244,
      "address": "Gut No 172, 2 & 40, Maharashtra State Highway 19, Bilakhed, JJ Anna Nagar, Chalisgaon",
      "open_now": true
    },
    {
      "place_id": "ChIJz5ITkBVV2TsR8n2RRFZzJ8w",
      "name": "Bharat Petroleum (BPCL)",
      "lat": 20.4681349,
      "lng": 74.9828844,
      "address": "FX9M+46, Chalisgaon",
      "open_now": null
    },
    {
      "place_id": "ChIJB3J4fMOr3jsRxSAAO7IW_P8",
      "name": "SAINATH BHARAT PETROLEUM.",
      "lat": 20.4329541,
      "lng": 74.9564743,
      "address": "CXM4+5HQ, Khadaki Bk.",
      "open_now": null
    },
    {
      "place_id": "ChIJs1-YiqFV2TsRnWiZtumwD_0",
      "name": "Bajaj Petroleum, Petrol Pump",
      "lat": 20.46873069999999,
      "lng": 74.9966669,
      "address": "JJ Anna Nagar, Chalisgaon",
      "open_now": true
    },
    {
      "place_id": "ChIJ62XlkHJV2TsRB5z3K5OUoeM",
      "name": "IndianOil",
      "lat": 20.4569329,
      "lng": 75.00357079999999,
      "address": "Plot No 77 & 78, Chalisgaon",
      "open_now": true
    },
    {
      "place_id": "ChIJcyjYcUNV2TsR985Y8MES9Uo",
      "name": "Samrat Petroleum(Nayara)",
      "lat": 20.4846973,
      "lng": 74.98657039999999,
      "address": "Derabardi Industrial Area, Chalisgaon",
      "open_now": true
    },
    {
      "place_id": "ChIJ48mdDCEA3DsRvOLTG1YgL1Y",
      "name": "MAYARA",
      "lat": 20.42588779999999,
      "lng": 74.940961,
      "address": "India",
      "open_now": null
    },
    {
      "place_id": "ChIJQV5LOqEB3DsR6fxZkqSf0sE",
      "name": "BHAVSAR PETROLEUM (NAYARA ENERGY Ltd.)",
      "lat": 20.4256626,
      "lng": 74.9410126,
      "address": "Maharashtra State Highway 25, near hirapur railway station, taluka, Hirapur",
      "open_now": true
    },
    {
      "place_id": "ChIJJTtPDQlV2TsRmYTbfWMIXGY",
      "name": "Bharat Petroleum",
      "lat": 20.4667904,
      "lng": 75.0107956,
      "address": "India",
      "open_now": null
    },
    {
      "place_id": "ChIJXUYsDQlV2TsRzv3PRu4Alec",
      "name": "Jai shankar Petrol Pump",
      "lat": 20.4667905,
      "lng": 75.0108853,
      "address": "opp. Ghate Complex, SH 19, Bhadgaon Road, Chalisgaon",
      "open_now": true
    },
    {
      "place_id": "ChIJuVY8c8VU2TsRH1QLEAReKr8",
      "name": "IndianOil",
      "lat": 20.493683,
      "lng": 74.9805871,
      "address": "Gut No 209/2/1 Kargaon, Chalisgaon",
      "open_now": true
    },
    {
      "place_id": "ChIJm2VGZqBV2TsRRnwkit1l4jE",
      "name": "IndianOil",
      "lat": 20.4622132,
      "lng": 75.0156554,
      "address": "Plot No 294/1, Shastri Nagar, Kharjai",
      "open_now": true
    },
    {
      "place_id": "ChIJGXjmD2f-2zsR72mkyqivDQo",
      "name": "Bharat Petroleum Petrol Pump",
      "lat": 20.4005927,
      "lng": 75.04053400000001,
      "address": "Ranjangaon, Jalgaon, NH-211, Solapur Dhule Road, Jalgaon, Jalgaon",
      "open_now": true
    },
    {
      "place_id": "ChIJBSqKuLr_2zsRGFJ7zveGk1E",
      "name": "Hindustan Petroleum Corporation Limited",
      "lat": 20.3949734,
      "lng": 75.04346269999999,
      "address": "GAT No 424/P, NH 211, Dhule Solapur National Hwy, Ranjangaon",
      "open_now": true
    },
    {
      "place_id": "ChIJg7wjd4_-2zsRWbaJfK1gYWM",
      "name": "MS DESHMUKH PETROLEUM",
      "lat": 20.3947999,
      "lng": 75.0429545,
      "address": "Chalisgoan, Nh-211, Dhule - Solapur Highway, Ranjangaon",
      "open_now": null
    },
    {
      "place_id": "ChIJbSOPpi9V2TsRvkp5yQSCa1g",
      "name": "SHREE SADGURU KRUPA PETROLEUM",
      "lat": 20.3718256,
      "lng": 75.0504291,
      "address": "National Highway 211, Chalisgaon",
      "open_now": null
    },
    {
      "place_id": "ChIJM2b1kGP_2zsRWhiD19oNTwI",
      "name": "Nayara-Malhar Petroleum",
      "lat": 20.4142015,
      "lng": 75.0366839,
      "address": "Ranjangaon",
      "open_now": true
    },
    {
      "place_id": "ChIJ5ZEioIz72zsRIxT6veaUFLI",
      "name": "Satdive Petroleum Nayara Energy",
      "lat": 20.2843333,
      "lng": 75.1009934,
      "address": "74M2+P9, Telwadi",
      "open_now": true
    },
    {
      "place_id": "ChIJ_0denY372zsR0mGbo5hmgtc",
      "name": "Kashi Ghushneshwar Petroleum - NAYARA",
      "lat": 20.2752091,
      "lng": 75.115968,
      "address": "ANDHANA Fata, Kannad",
      "open_now": null
    },
    {
      "place_id": "ChIJEeM39o762zsRbIWxzDxU0_g",
      "name": "NAYARA",
      "lat": 20.2750283,
      "lng": 75.1165012,
      "address": "India",
      "open_now": null
    },
    {
      "place_id": "ChIJCf5Q3D3y2zsRr5XmI_wNDLc",
      "name": "Yash Petroleum Cng Pump",
      "lat": 20.150812,
      "lng": 75.129511,
      "address": "Verul, Aurangabad, SH-22, Dhule Daulatabad Highway, Aurangabad, Maharashtra State Highway 22, Aurangabad",
      "open_now": true
    },
    {
      "place_id": "ChIJU-Ggecz53jsRgrTPWLcEjO8",
      "name": "IndianOil",
      "lat": 20.154319,
      "lng": 75.1290454,
      "address": "Gut No 40 Part Hatnur, Kannad, Upla",
      "open_now": true
    },
    {
      "place_id": "ChIJ2fF-bgDz2zsRsOQx3FPVl2c",
      "name": "CNG gas ASHA petroleum",
      "lat": 20.111675,
      "lng": 75.1187483,
      "address": "4469+MF, Alapur",
      "open_now": null
    },
    {
      "place_id": "ChIJQ2oSHwDz2zsRSrUXxqj7iiY",
      "name": "CNG gas ASHA BHARAT PETROLEUM",
      "lat": 20.1113948,
      "lng": 75.1187755,
      "address": "NH 52, Dhule - Solapur Highway, Galleborgaon",
      "open_now": null
    },
    {
      "place_id": "ChIJNbbZEOby2zsRxfkPjGq4O14",
      "name": "Hindustan Petroleum Corporation Limited",
      "lat": 20.101822,
      "lng": 75.118618,
      "address": "Gut No 17, 1 Aurangabad, Dhule - Solapur Highway, Kannad, Galleborgaon",
      "open_now": true
    },
    {
      "place_id": "ChIJNSbtxC-S2zsRGfBDCJBNLUs",
      "name": "IndianOil",
      "lat": 19.9978481,
      "lng": 75.1914178,
      "address": "Aurangabad, Gut No 187/2A, Mhasawad, Sulibhanjan, Nandurbar, Shahada, Gadana",
      "open_now": true
    },
    {
      "place_id": "ChIJ37M81H2N2zsRlpGRKO87M1c",
      "name": "IndianOil",
      "lat": 20.036315,
      "lng": 75.1519565,
      "address": "Ground Floor, Verul",
      "open_now": true
    },
    {
      "place_id": "ChIJGfsb09GN2zsR_Su4dEbmUKA",
      "name": "Hindustan Petroleum Corporation Limited",
      "lat": 20.009821,
      "lng": 75.14121399999999,
      "address": "near Kasabkheda, Gut No 24 Khuldabad, Mambapur, near Kasabkheda, Fata, Kasabkheda",
      "open_now": true
    },
    {
      "place_id": "ChIJg9w2pq6N2zsR9CwnzIW_Ngw",
      "name": "Ellora Petroleum and Multiservices",
      "lat": 20.0021367,
      "lng": 75.131793,
      "address": "National Highway 52, Malkapur",
      "open_now": null
    },
    {
      "place_id": "ChIJLXLD1MKN2zsRw49Prv79YjI",
      "name": "Hindustan Petroleum Corporation Limited",
      "lat": 19.9933727,
      "lng": 75.1286063,
      "address": "Gut No 39, Khultabad, Malkapur",
      "open_now": true
    },
    {
      "place_id": "ChIJK56V5JGN2zsRTkPenoC_ixM",
      "name": "CNG Pump, Chandora",
      "lat": 19.9908711,
      "lng": 75.1279976,
      "address": "Khuldabad, Nh52, Dhule - Solapur Highway, Kasabkheda",
      "open_now": null
    },
    {
      "place_id": "ChIJf2AE_NyN2zsRU8r6z5CP40A",
      "name": "Bharat Petroleum, Petrol Pump -Paardeshwar Petroleum CNG pump",
      "lat": 19.9908334,
      "lng": 75.1280353,
      "address": "Mategaon - Kasabkheda Road",
      "open_now": true
    },
    {
      "place_id": "ChIJBQHR2GST2zsRdZVV1NZ5s_U",
      "name": "Rudra Naral Center",
      "lat": 20.0107139,
      "lng": 75.1965056,
      "address": "Shop No 1, Maruti mandir, Khuldabad",
      "open_now": null
    },
    {
      "place_id": "ChIJDZ6RLK6Q2zsR6X6w_QiVtpQ",
      "name": "Bharat Petroleum Corporation Ltd",
      "lat": 19.9094391,
      "lng": 75.2392808,
      "address": "W65Q+QPC, National HIghway 211, Shernapur",
      "open_now": true
    },
    {
      "place_id": "ChIJa8mCsGqR2zsRYOrTTG8eiTU",
      "name": "IndianOil",
      "lat": 19.908083,
      "lng": 75.245768,
      "address": "Gut No 29, Part Mitmita, Padegaon, Chhatrapati Sambhajinagar",
      "open_now": true
    },
    {
      "place_id": "ChIJQcVaObCQ2zsRheVYjQ6c1Wo",
      "name": "Hindustan Petroleum Corporation Limited",
      "lat": 19.9109428,
      "lng": 75.2381946,
      "address": "Gat No 97/1, NH 52, near T Point, Road, Daulatabad Road, Shernapur",
      "open_now": true
    },
    {
      "place_id": "ChIJU6BmLLCQ2zsR6weeNlr-ypI",
      "name": "IndianOil",
      "lat": 19.909986,
      "lng": 75.23885299999999,
      "address": "Ground Floor, NH 211, Shernapur",
      "open_now": true
    },
    {
      "place_id": "ChIJc5_2bQmR2zsRUcKt5jzlOI4",
      "name": "IndianOil",
      "lat": 19.9285456,
      "lng": 75.22165199999999,
      "address": "Gut No 96, Sharnapur, Maliwada",
      "open_now": true
    },
    {
      "place_id": "ChIJJZPkjVeX2zsRgPtEwFiXr7U",
      "name": "PURTI GAS",
      "lat": 19.9016888,
      "lng": 75.2588973,
      "address": "India",
      "open_now": null
    },
    {
      "place_id": "ChIJpfUY20qR2zsRvuUqvBA8c3Y",
      "name": "IndianOil",
      "lat": 19.91972,
      "lng": 75.21989400000001,
      "address": "Gut No 96 Maliwada, Shernapur",
      "open_now": true
    },
    {
      "place_id": "ChIJXZpayUGR2zsRNi9Q-IUbgPw",
      "name": "Renukamata Petroleum",
      "lat": 19.9195226,
      "lng": 75.2198023,
      "address": "Gut no 96, opp. jain internationalschool, Aurangabad - Nashik Highway, Maliwada",
      "open_now": true
    },
    {
      "place_id": "ChIJQ-TCu4OX2zsRNRbaeFrYL8w",
      "name": "Hindustan Petroleum Corporation Limited",
      "lat": 19.9000392,
      "lng": 75.2643805,
      "address": "Gat No 131, Mitmita, Chhatrapati Sambhajinagar",
      "open_now": true
    },
    {
      "place_id": "ChIJe3sspfGR2zsRImEZdVFR5LU",
      "name": "IndianOil",
      "lat": 19.8981261,
      "lng": 75.2292738,
      "address": "gut No, 56/part, Shernapur",
      "open_now": true
    },
    {
      "place_id": "ChIJCQwsFgCZ2zsRVbqymfq3swY",
      "name": "Bhaskara HP Gas Agency",
      "lat": 19.8939256,
      "lng": 75.27484009999999,
      "address": "Aurangabad trade centre, opposite tarangan, below Moti medical mitmia, Aurangabad - Nashik Highway, Padegaon, Chhatrapati Sambhajinagar",
      "open_now": null
    },
    {
      "place_id": "ChIJAzYQ5na92zsRdQ08jqijEzQ",
      "name": "IndianOil",
      "lat": 19.95044099999999,
      "lng": 75.35679499999999,
      "address": "Ground Floor, Ajanta Jalgaon, Bypass Road, Sawangi",
      "open_now": true
    },
    {
      "place_id": "ChIJ75OONgC92zsR3Q4x2eX-MTY",
      "name": "Nikumbh petrol pump",
      "lat": 19.9559661,
      "lng": 75.3568269,
      "address": "X944+9PP, Ashrafpur",
      "open_now": null
    },
    {
      "place_id": "ChIJrySlkHO92zsR_mZc09JT7so",
      "name": "Hindustan Petroleum Corporation Limited",
      "lat": 19.948603,
      "lng": 75.361031,
      "address": "Gut No, 185, Bypass Road, Sawangi, Chhatrapati Sambhajinagar",
      "open_now": true
    },
    {
      "place_id": "ChIJK0zwcGq92zsRfxqQTgGNne0",
      "name": "NAYARA PETROL PUMP (GURUKRUPA PETROLEUM)",
      "lat": 19.9349576,
      "lng": 75.3533495,
      "address": "Harsul Toll Naka, Harsul, Chhatrapati Sambhajinagar",
      "open_now": true
    },
    {
      "place_id": "ChIJxwViT3uk2zsRt_n--6Iswaw",
      "name": "Nava Bharat Petroleum CNG Station, sundarwadi",
      "lat": 19.8623131,
      "lng": 75.44538469999999,
      "address": "30, Nagpur - Aurangabad - Mumbai Highway, Mahesh Nagar, Sindhi Colony, Chhatrapati Sambhajinagar",
      "open_now": true
    },
    {
      "place_id": "ChIJzwkmza6l2zsROqg-fVlkB4Q",
      "name": "IndianOil",
      "lat": 19.875174,
      "lng": 75.477474,
      "address": "Gut No 326, Shendra MIDC, Chikalthana, Kubhephal",
      "open_now": true
    },
    {
      "place_id": "ChIJtYYNyFak2zsRltS8QMJFo5o",
      "name": "Hindustan Petroleum Corporation Limited",
      "lat": 19.866239,
      "lng": 75.473655,
      "address": "GUT No 52P, Jalna - Aurangabad Road, Shendra MIDC, Aurangabad",
      "open_now": true
    },
    {
      "place_id": "ChIJ0eAhnfCl2zsRt3zYVbNFeRI",
      "name": "Adwik dharm kata 100 टन",
      "lat": 19.8831487,
      "lng": 75.495943,
      "address": "Shendraban",
      "open_now": true
    },
    {
      "place_id": "ChIJp3Wf7Xuk2zsRsjlhfkWzFE0",
      "name": "IndianOil",
      "lat": 19.8622934,
      "lng": 75.4413021,
      "address": "Ground Floor, Jalna - Aurangabad Road, Sundarwadi",
      "open_now": true
    },
    {
      "place_id": "ChIJ2VYPT5Cu2zsR9rXdMHaXzKM",
      "name": "Mansingh Petroleum BP CNG Pump",
      "lat": 19.869409,
      "lng": 75.6072245,
      "address": "SH-30, Nagpur - Aurangabad - Mumbai Highway, Hasanabadwadi, Aurangabad",
      "open_now": true
    },
    {
      "place_id": "ChIJrcHITACv2zsRaC0cKj9vo24",
      "name": "RK_CNG_pump",
      "lat": 19.8690366,
      "lng": 75.6071008,
      "address": "VJ94+JR9, National Highway 753A, Hasanabadwadi",
      "open_now": null
    },
    {
      "place_id": "ChIJ36ezYeOt2zsRuLggGym27ZE",
      "name": "Hindustan Petroleum Corporation Limited",
      "lat": 19.86912929999999,
      "lng": 75.63677489999999,
      "address": "Gut No 85/P, near Amritsar Hotel Punjabi, Jalna - Aurangabad Road, Shekta",
      "open_now": true
    },
    {
      "place_id": "ChIJP51oZQCv2zsReGOCa_Mf39k",
      "name": "SK PETROLEUM JIO BP",
      "lat": 19.8698148,
      "lng": 75.5786902,
      "address": "GUT NO 345/1, Cha Sambhaji Nagar, next to Goldie Dhaba, Jalna Road, Aurangabad",
      "open_now": null
    },
    {
      "place_id": "ChIJrbxydJVT2jsRdrt9GCmY0rw",
      "name": "Mahalaxmi Petroleum",
      "lat": 19.8725541,
      "lng": 75.780542,
      "address": "Nagpur - Aurangabad - Mumbai Highway, Shelgaon",
      "open_now": null
    },
    {
      "place_id": "ChIJsRrM83pT2jsR7L75tpAfQkw",
      "name": "kamalakar kale",
      "lat": 19.9138443,
      "lng": 75.7936053,
      "address": "WQ7V+GCQ, Najik Pangri",
      "open_now": null
    },
    {
      "place_id": "ChIJXxH-xeZT2jsRrbALqG8LumY",
      "name": "Hindustan Petroleum Corporation Limited",
      "lat": 19.871455,
      "lng": 75.800398,
      "address": "Ground Floor, Jalna - Aurangabad Road, MIDC, Dawalwadi",
      "open_now": true
    },
    {
      "place_id": "ChIJF12taehT2jsR-MCNE1JbKnA",
      "name": "A. P. Patel & Company (Diesel Pump)",
      "lat": 19.8723183,
      "lng": 75.7940126,
      "address": "VQCV+WJC, Nagpur - Aurangabad - Mumbai Highway, Dawalwadi",
      "open_now": null
    },
    {
      "place_id": "ChIJb8AG3ohX2jsR_54jfqVBM1w",
      "name": "Bharat Petroleum, Petrol Pump -Tirupati Auto Service",
      "lat": 19.8707923,
      "lng": 75.8070752,
      "address": "DAVALWADI, JALNA BADNAPUR, Jalna",
      "open_now": true
    },
    {
      "place_id": "ChIJuX_QoF5R2jsR-4iklsWpoAg",
      "name": "IndianOil",
      "lat": 19.8713029,
      "lng": 75.81250610000001,
      "address": "Ground Floor, Dawalwadi",
      "open_now": true
    },
    {
      "place_id": "ChIJb0-LAlxR2jsRhNWFwv1vTtA",
      "name": "Mauli Tyers",
      "lat": 19.8705839,
      "lng": 75.8128081,
      "address": "VRC7+64M, Jalna",
      "open_now": null
    },
    {
      "place_id": "ChIJ1woHRQBR2jsRdrvuV0yKStU",
      "name": "HP petrol pump",
      "lat": 19.869381,
      "lng": 75.8204477,
      "address": "VR9C+Q54, National Highway 753A, Pirkalyan",
      "open_now": null
    },
    {
      "place_id": "ChIJ_5PopzJR2jsRda3tOMLehfI",
      "name": "Hindustan Petroleum Corporation Limited",
      "lat": 19.869377,
      "lng": 75.820611,
      "address": "Gat No 299, P Nagewadi, Dawalwadi",
      "open_now": true
    },
    {
      "place_id": "ChIJ2dS-WgBR2jsRUlsTvI5vJQ8",
      "name": "TR ekhande Bharat Petroleum",
      "lat": 19.880236,
      "lng": 75.8385922,
      "address": "VRJQ+3C, Nidhona",
      "open_now": true
    },
    {
      "place_id": "ChIJbxHn9tZb2jsRvrMyL6eepzc",
      "name": "IndianOil",
      "lat": 19.8865844,
      "lng": 75.9082993,
      "address": "Survey No 83, Devalgaon Raja Road, Jalna",
      "open_now": true
    },
    {
      "place_id": "ChIJ_7pK-nxb2jsR-gwa5eGhy6A",
      "name": "Paroma petroleums",
      "lat": 19.868806,
      "lng": 75.9478223,
      "address": "VW9X+G4G, Navha Road, Deomurti, Jalna",
      "open_now": null
    },
    {
      "place_id": "ChIJ8SvwHkxb2jsRrosHvcej6Vg",
      "name": "Nayara Petroliums",
      "lat": 19.8684819,
      "lng": 75.9474424,
      "address": "VW9W+9XW, Nava road, Deomurti, Jalna",
      "open_now": null
    },
    {
      "place_id": "ChIJQ2_bR71b2jsRJVuqGuo5aR8",
      "name": "Hindustan Petroleum Corporation Limited",
      "lat": 19.881781,
      "lng": 75.90702399999999,
      "address": "Gut No 204, National Highway 753A, Panshendra, Jalna",
      "open_now": true
    },
    {
      "place_id": "ChIJYXtOPgBR2jsRBDEYdX0LfAk",
      "name": "Refreshment services on Samruddhi Highway",
      "lat": 19.8885914,
      "lng": 75.893372,
      "address": "VVQV+C8Q, Jalna",
      "open_now": true
    },
    {
      "place_id": "ChIJSZaiEQBR2jsRxdghKAEOZ7s",
      "name": "HP PETROLIUM ADHOC SHREE SAI",
      "lat": 19.8886106,
      "lng": 75.8932396,
      "address": "near Hindu Hrudaysamrat Balasaheb Thackeray Maharashtra Samruddhi Mahamarg, No 364, Corridor, Gundewadi",
      "open_now": true
    },
    {
      "place_id": "ChIJV3demqpd2jsRQ0iZdUGoFDs",
      "name": "Hindustan Petroleum Corporation Limited",
      "lat": 19.9170286,
      "lng": 76.0414378,
      "address": "Ground Floor, Hindu Hrudaysamrat Balasaheb Thackeray Maharashtra Samruddhi Mahamarg, Navha",
      "open_now": true
    },
    {
      "place_id": "ChIJt4H7PWNd2jsR0j2ZiqA3LBI",
      "name": "Bharat Petroleum, Petrol Pump -Shree Gajanan Corporation",
      "lat": 19.9342004,
      "lng": 76.0815985,
      "address": "NASHIRABAD PHATTA, BHULDANA",
      "open_now": true
    },
    {
      "place_id": "ChIJQ77hjmJd2jsR_FSzsYpuUB8",
      "name": "IndianOil",
      "lat": 19.9348398,
      "lng": 76.084407,
      "address": "Gat No 122, Sawargaon Mal",
      "open_now": true
    },
    {
      "place_id": "ChIJd1BfnKpd2jsRJVAQn3CDD4k",
      "name": "M/s. NAVKAR FUELLING STATION",
      "lat": 19.917193,
      "lng": 76.04118299999999,
      "address": "Dealers: Hindustan Petroleum Corporation Limited, State Highway 177, Nagpur Mumbai Express Highway, at Post Navha, Jalna",
      "open_now": true
    },
    {
      "place_id": "ChIJfbkv28ld2jsRrNPvcjKsk3A",
      "name": "Bharat Petroleum, Petrol Pump -Agrawal Brothers",
      "lat": 19.9141554,
      "lng": 76.02966300000001,
      "address": "NHAVA, Jalna",
      "open_now": true
    },
    {
      "place_id": "ChIJNZzU11lc2jsRQWs0cc7TE_A",
      "name": "IndianOil",
      "lat": 19.913041,
      "lng": 76.027496,
      "address": "Gut No 217, Chikalthana, Aurangabad",
      "open_now": true
    },
    {
      "place_id": "ChIJ2W7t2xhm2jsR_DFz-Jwe68s",
      "name": "Bharat Petrol Pump",
      "lat": 19.9664213,
      "lng": 76.1576396,
      "address": "X585+H36, SH183, Buldana",
      "open_now": null
    },
    {
      "place_id": "ChIJXzblEiVm2jsROhVkYrfWqLY",
      "name": "Hindustan Petroleum Corporation Limited",
      "lat": 19.960437,
      "lng": 76.141594,
      "address": "Ground Floor, SH 183, Kingaon Raja Road, Near, Sindkhed Raja",
      "open_now": true
    },
    {
      "place_id": "ChIJW7F32S9m2jsRgVRgtYu9Xu0",
      "name": "Bhagwan Baba HP Petroleum",
      "lat": 19.96067829999999,
      "lng": 76.1416057,
      "address": "X46R+7JH, Maharashtra State Highway 183, Sindkhed Raja",
      "open_now": true
    },
    {
      "place_id": "ChIJ76NrDg5n2jsRhHYGEGBmu4w",
      "name": "Bharat Petroleum, Petrol Pump -Shree Ram Corporation",
      "lat": 19.9582341,
      "lng": 76.13737739999999,
      "address": "BHULDANA, Sindkhed Raja",
      "open_now": true
    },
    {
      "place_id": "ChIJe80LqDJx2jsRbPKOCV2PuJ8",
      "name": "IndianOil",
      "lat": 20.042814,
      "lng": 76.34554000000001,
      "address": "Gut No 143, Part Lonar, Mandwa",
      "open_now": true
    },
    {
      "place_id": "ChIJKSKI0a9x2jsRP1ZpimAJO4A",
      "name": "IndianOil",
      "lat": 20.0413839,
      "lng": 76.3517896,
      "address": "Gut No 143, Lonar, Mandwa",
      "open_now": true
    },
    {
      "place_id": "ChIJscoTH2Vx2jsRpaFIVFylQR8",
      "name": "Hindustan Petroleum Corporation Limited",
      "lat": 20.059771,
      "lng": 76.337614,
      "address": "near Dusarbid, Ground Floor, near Dusarbid, Hindu Hrudaysamrat Balasaheb Thackeray Maharashtra Samruddhi Mahamarg, Malkapur Pangra",
      "open_now": true
    },
    {
      "place_id": "ChIJ_5paWe5x2jsRpKyPcKQXodk",
      "name": "IndianOil",
      "lat": 20.0482376,
      "lng": 76.364235,
      "address": "Gut No 107, Lonar, Mandwa",
      "open_now": true
    },
    {
      "place_id": "ChIJC92Yjp532jsRToeeB6e0y6Q",
      "name": "Swagat petrol pump",
      "lat": 20.0476499,
      "lng": 76.3646227,
      "address": "Hindu Hrudaysamrat Balasaheb Thackeray Maharashtra Samruddhi Mahamarg, Gumgaon",
      "open_now": true
    },
    {
      "place_id": "ChIJUzH9QAB32jsRkeeFxEFAkHE",
      "name": "Dusarbid Stop Petrol Pump",
      "lat": 20.0476253,
      "lng": 76.3649761,
      "address": "near Bus Stand, 142, near Bus Stand, Malkapur Pangra",
      "open_now": null
    },
    {
      "place_id": "ChIJ8VGQ7lF32jsRIsHZ56HtO7M",
      "name": "Indian Oil",
      "lat": 20.0466701,
      "lng": 76.3713671,
      "address": "29WC+R6, Kumbefal",
      "open_now": null
    },
    {
      "place_id": "ChIJjdedUQBx2jsRPITBhtsgpQ0",
      "name": "Durgesh Petroleum Chorpangra. (BHARAT PETROLIUM)",
      "lat": 20.01106249999999,
      "lng": 76.3450625,
      "address": "SINDKHED",
      "open_now": true
    },
    {
      "place_id": "ChIJ1RDr_TN32jsRCgd1SoE-Tao",
      "name": "IndianOil",
      "lat": 20.019403,
      "lng": 76.36953009999999,
      "address": "Ground Floor, Mehkar Road, Bibi",
      "open_now": true
    },
    {
      "place_id": "ChIJ02j8e5Rw2jsRQ0_kiw_xIRc",
      "name": "Hindustan Petroleum Corporation Limited",
      "lat": 20.0072562,
      "lng": 76.3351648,
      "address": "Ground Floor, SH 183, Sindkhed Raja",
      "open_now": true
    },
    {
      "place_id": "ChIJk4Rky9tx2jsRuCwU80uPsWY",
      "name": "Bharat Petroleum, Petrol Pump.Sable Petroleum",
      "lat": 20.0067211,
      "lng": 76.333016,
      "address": "284M+M6J, nagarmal Mumbai, Aurangabad - Nagpur Road, haywey, Dusarbid",
      "open_now": true
    },
    {
      "place_id": "ChIJo2i_HS6c0DsRoklRPOILCoE",
      "name": "IndianOil",
      "lat": 20.0823527,
      "lng": 76.5089857,
      "address": "Gut 892, Aurangabad - Nagpur Road, Sultanpur",
      "open_now": true
    },
    {
      "place_id": "ChIJWV5v3cuf0DsRapUOv03VXc4",
      "name": "IndianOil",
      "lat": 20.1060835,
      "lng": 76.5317676,
      "address": "Gut No 425, Part A, Lonar, Sultanpur",
      "open_now": true
    },
    {
      "place_id": "ChIJaQQXTz290DsR8QTHhCQmosw",
      "name": "Shree Ram Corporation Adhoc Petrol Pump BPCL",
      "lat": 20.20549979999999,
      "lng": 76.7091354,
      "address": "Hindu Hrudaysamrat Balasaheb Thackeray Maharashtra Samruddhi Mahamarg, MUMBAI",
      "open_now": true
    },
    {
      "place_id": "ChIJXbPhzdC90DsRqvtMdppN21Y",
      "name": "Hindustan Petroleum Corporation Limited",
      "lat": 20.204782,
      "lng": 76.715846,
      "address": "Gut No, 351/2A, Mehkar, Dongaon",
      "open_now": true
    },
    {
      "place_id": "ChIJi_lvK9O90DsRZ2BtyoaSmC4",
      "name": "Adhoc Shree Bhalchandreshwar petroleum(HPCL)",
      "lat": 20.204714,
      "lng": 76.71589,
      "address": "Dongaon",
      "open_now": true
    },
    {
      "place_id": "ChIJu5mtHsyX0DsRgZYDFJvKQeY",
      "name": "IndianOil",
      "lat": 20.180001,
      "lng": 76.71000099999999,
      "address": "Gut No 207 & 203/1A Mehkar, Dongaon, Anjani Khurd",
      "open_now": true
    },
    {
      "place_id": "ChIJmbDflEeW0DsRvhszUtk1X5o",
      "name": "Indian Oil",
      "lat": 20.1775897,
      "lng": 76.7005432,
      "address": "India",
      "open_now": null
    },
    {
      "place_id": "ChIJjSo7VgCX0DsRNBgaaa-fWfA",
      "name": "Atiyab Petroleum",
      "lat": 20.1774976,
      "lng": 76.70058809999999,
      "address": "5PG2+X6W, Aurangabad - Nagpur Road, Dongaon",
      "open_now": true
    },
    {
      "place_id": "ChIJ5Y8TB-2V0DsRH4LzFqhk3b4",
      "name": "Hindustan Petroleum Corporation Limited",
      "lat": 20.190092,
      "lng": 76.750795,
      "address": "Gut No 89, Malegaon Mehkar Road, Risod",
      "open_now": true
    },
    {
      "place_id": "ChIJTaXR2pvd0DsRJSTUd3lLzRI",
      "name": "Hindustan Petroleum Corporation Limited",
      "lat": 20.3079938,
      "lng": 77.0584251,
      "address": "Ground Floor, Hindu Hrudaysamrat Balasaheb Thackeray Maharashtra Samruddhi Mahamarg, Davha",
      "open_now": true
    },
    {
      "place_id": "ChIJCzMnUgDd0DsRrxC1EEiSPBw",
      "name": "Hindustan Petroleum",
      "lat": 20.3053828,
      "lng": 77.04674399999999,
      "address": "824W+5M5, Ansing",
      "open_now": true
    },
    {
      "place_id": "ChIJKYhD_RTd0DsRQPUhxHJ5Voc",
      "name": "HP Petrol Station",
      "lat": 20.3054017,
      "lng": 77.0466367,
      "address": "824W+5M, Ansing",
      "open_now": true
    },
    {
      "place_id": "ChIJM4jMS8Qw0TsRdlcsp48T3VA",
      "name": "Reliance Petrol Pump",
      "lat": 20.4766593,
      "lng": 77.455485,
      "address": "FFG4+M59, State Highway 207, Sherpur",
      "open_now": null
    },
    {
      "place_id": "ChIJB6KLX9Aw0TsR7nqsHz8Qsjs",
      "name": "Petrol Pump",
      "lat": 20.4840861,
      "lng": 77.46026049999999,
      "address": "FFM6+J4J, Karanja",
      "open_now": null
    },
    {
      "place_id": "ChIJ4x4HKGIx0TsRHxT3_B-ukPA",
      "name": "Bharat Petroleum, Shiv Petroleum",
      "lat": 20.4737303,
      "lng": 77.4535748,
      "address": "Sambhaji Nagar Road, Nagapur, Karanja",
      "open_now": true
    },
    {
      "place_id": "ChIJa6LEcIjX0DsRPHGUsoRJYtI",
      "name": "Reliance Petroleum",
      "lat": 20.4766571,
      "lng": 77.4554648,
      "address": "Karanja Mangulrpir Road, Kinhi",
      "open_now": true
    },
    {
      "place_id": "ChIJLRNGmzA30TsRVctdsA_i4t0",
      "name": "Hindustan Petroleum Corporation Limited",
      "lat": 20.478701,
      "lng": 77.4811301,
      "address": "Ground Floor, Yavatmal Road, Karanja",
      "open_now": true
    },
    {
      "place_id": "ChIJgxj-0x030TsRjPupINoU5Dw",
      "name": "SAHARA SUPER SERVICES (ESSAR PETROL PUMP)",
      "lat": 20.4896819,
      "lng": 77.5069949,
      "address": "State Highway 207, Karanja",
      "open_now": true
    },
    {
      "place_id": "ChIJe-12LgDj0DsR5xpraSK30m4",
      "name": "Nayara Petrol pump ganga Shankar petroleum",
      "lat": 20.4895789,
      "lng": 77.50803259999999,
      "address": "Nayara Pump Ke Pas Nayara Petrol Pump, 02, Aurangabad - Nagpur Road, Washim",
      "open_now": null
    },
    {
      "place_id": "ChIJ5axYlbA30TsRgrRnFigsFYo",
      "name": "Hindustan Petroleum Corporation Limited",
      "lat": 20.5099701,
      "lng": 77.535156,
      "address": "Ground Floor, NH 753C, Kherda",
      "open_now": true
    },
    {
      "place_id": "ChIJ2-lmQzU30TsRAmdSZutzUMU",
      "name": "Bharat Petroleum, Petrol Pump -R. J. Chaware",
      "lat": 20.4851699,
      "lng": 77.4852282,
      "address": "MAIN ROAD KARANJA, WASHIM, WASHIM",
      "open_now": true
    },
    {
      "place_id": "ChIJufUMV9Uw0TsRl6IAJEQ1vAs",
      "name": "Hindustan Petroleum Corporation Limited",
      "lat": 20.4937684,
      "lng": 77.4694066,
      "address": "Ground Floor, Bypass, Karanja",
      "open_now": true
    },
    {
      "place_id": "ChIJexWg3xox0TsRRSN-4J6QiUU",
      "name": "Laxmi Petrol Pump Nayara Energy Ltd",
      "lat": 20.5062774,
      "lng": 77.46247900000002,
      "address": "Plot no. 9, Bilkheda, Karanja",
      "open_now": null
    },
    {
      "place_id": "ChIJR8fHUTA30TsR9U00ihNyMes",
      "name": "IndianOil",
      "lat": 20.4802268,
      "lng": 77.4792817,
      "address": "Ground Floor, Bhatumra",
      "open_now": true
    },
    {
      "place_id": "ChIJMQdXw8hJ0TsRYB3dxLO1CPk",
      "name": "Ambika petroleum",
      "lat": 20.5482176,
      "lng": 77.62680879999999,
      "address": "GJXG+7PM, Kh, Donad",
      "open_now": null
    },
    {
      "place_id": "ChIJKWJMbh1J0TsRZWeJRLHtrng",
      "name": "IndianOil",
      "lat": 20.547436,
      "lng": 77.6267225,
      "address": "Survey No 111/4, Karanji, Chinchamba pen",
      "open_now": true
    },
    {
      "place_id": "ChIJlbO1FWlJ0TsRoxYi-SSK9oI",
      "name": "BHARAT PETROLEUMA DEVAASHISH PETROLEUM",
      "lat": 20.54765129999999,
      "lng": 77.628304,
      "address": "Nagpur Aurangabad highway, donad bk",
      "open_now": true
    },
    {
      "place_id": "ChIJ18PBNoZL0TsRAnfoe-qfvo4",
      "name": "Nayara",
      "lat": 20.5898307,
      "lng": 77.6502855,
      "address": "India",
      "open_now": null
    },
    {
      "place_id": "ChIJX_GjUoBV0TsR_TLtcUi6NkI",
      "name": "Bharat Petroleum",
      "lat": 20.608255,
      "lng": 77.8457488,
      "address": "JR5W+875, Gavner talegaon",
      "open_now": true
    },
    {
      "place_id": "ChIJMc2CaWdU0TsRl9lY4wwN12o",
      "name": "Hindustan Petroleum Corporation Limited",
      "lat": 20.608655,
      "lng": 77.85529989999999,
      "address": "Ground Floor, near Shingnapur Junction, Nandgaon Khandeshwar",
      "open_now": true
    },
    {
      "place_id": "ChIJhcHg6_p01DsRJzER4O6buQI",
      "name": "HARIPRIYA PETROLEUM SERVICES Essar Petrol Pump",
      "lat": 20.7517939,
      "lng": 78.3290209,
      "address": "Q82H+PJ6, Hiwara",
      "open_now": true
    },
    {
      "place_id": "ChIJ4ff1_kNz1DsR4f_YeGySMbo",
      "name": "Bhawani Indian Gas Agency",
      "lat": 20.8045236,
      "lng": 78.3524266,
      "address": "R932+RX8, Virul",
      "open_now": true
    },
    {
      "place_id": "ChIJ48qYx5Nz1DsR0SnNy8xkDJg",
      "name": "Rupal Indane Gas Agency",
      "lat": 20.804403,
      "lng": 78.3526988,
      "address": "Shop No 2, Virul",
      "open_now": null
    },
    {
      "place_id": "ChIJR5qpP7p11DsREovWZRbk-cg",
      "name": "Shree Ganesh Krushi Kendra",
      "lat": 20.7584843,
      "lng": 78.33273179999999,
      "address": "Shop No1, Rasulabad",
      "open_now": null
    },
    {
      "place_id": "ChIJWXFvXDFz1DsR6RHgWP_EpRU",
      "name": "IndianOil",
      "lat": 20.7983819,
      "lng": 78.36630699999999,
      "address": "Ground Floor, IRenkapur, Arvi, Girad",
      "open_now": true
    },
    {
      "place_id": "ChIJcT8S7hp31DsRLkswh1oCPdM",
      "name": "Hindustan Petroleum Corporation Limited",
      "lat": 20.7631315,
      "lng": 78.4392259,
      "address": "Survey No 73/2, Plot No 2, Wardha Rasulabad Road, Waifad",
      "open_now": true
    },
    {
      "place_id": "ChIJtxkZ1hN31DsRukZthsKqDeo",
      "name": "HP PETROL PUMP - SURYODAY PETROLEUM",
      "lat": 20.765012,
      "lng": 78.446803,
      "address": "Survey NO 73/2 Plot NO .2 AT Post Waifad, Nagpur",
      "open_now": true
    },
    {
      "place_id": "ChIJiyicCJ2A1DsRDFolL9VSNBU",
      "name": "SHREE MAHALAXMI AUTO SERVICES Nayara Petrol Pump",
      "lat": 20.778564,
      "lng": 78.659008,
      "address": "8 K.M. on Wardha-Nagpur Highway, MSH3, Village Pawnar, Wardha",
      "open_now": true
    },
    {
      "place_id": "ChIJ7Tmf82F_1DsRwR_MyA0lSFY",
      "name": "Wankhede Petrol Pump",
      "lat": 20.7946776,
      "lng": 78.59451899999999,
      "address": "Wardha Arvi NH Pipri",
      "open_now": true
    },
    {
      "place_id": "ChIJk4EiT9Cb1DsRc108zaFRmkE",
      "name": "Hindustan Petroleum Corporation Limited",
      "lat": 20.8525262,
      "lng": 78.864212,
      "address": "Hissa No 67, Toll Plaza, Gut No, near Haladgaon, 2/1, Nagpur Wardha Road, Hingna, Wadgaon",
      "open_now": true
    },
    {
      "place_id": "ChIJ0aEyNA6b1DsRodao8e1BH60",
      "name": "Hindustan Petroleum Corporation Limited",
      "lat": 20.8458258,
      "lng": 78.8263125,
      "address": "near Sankat Mochan Temple, Ground Floor SH 3, Kelzar, near Sankat Mochan Temple, Aurangabad - Nagpur Road, Wardha",
      "open_now": true
    },
    {
      "place_id": "ChIJE4Trv2mE1DsRW9Wz4d8CHWc",
      "name": "Indian Oil",
      "lat": 20.8409424,
      "lng": 78.7774483,
      "address": "India",
      "open_now": null
    },
    {
      "place_id": "ChIJCWwJRvKb1DsRqp3Cr0faLzM",
      "name": "Jio-bp",
      "lat": 20.8504793,
      "lng": 78.86240289999999,
      "address": "VV27+HC, Wadgaon",
      "open_now": true
    },
    {
      "place_id": "ChIJc-9w9F-X1DsRQlR60NxYSNE",
      "name": "IndianOil",
      "lat": 20.9763878,
      "lng": 78.92528349999999,
      "address": "Ground Floor, Waifal, Ashta, Hingna",
      "open_now": true
    },
    {
      "place_id": "ChIJodxNKfmX1DsRcm-h8-PdHmQ",
      "name": "Bharat Petroleum",
      "lat": 20.979829,
      "lng": 78.9342331,
      "address": "XWHM+QF, Sukali",
      "open_now": true
    },
    {
      "place_id": "ChIJF69fqKSV1DsRtog1M8bQQYw",
      "name": "Mohanty Petroleum",
      "lat": 20.9580402,
      "lng": 78.9589294,
      "address": "Shop No 1, Sakai Dabha, Gumgaon, Road, Midc, Butibori",
      "open_now": true
    },
    {
      "place_id": "ChIJk_F3UI6X1DsR8g5T19MQ4wQ",
      "name": "IndianOil",
      "lat": 20.95805069999999,
      "lng": 78.9591892,
      "address": "Ground Floor, Hingna, Salaidabha",
      "open_now": true
    },
    {
      "place_id": "ChIJLcWOx9y91DsR_7pn4i89-qw",
      "name": "Nayara Petrol Pump",
      "lat": 21.0137662,
      "lng": 79.0461179,
      "address": "Jamtha",
      "open_now": true
    },
    {
      "place_id": "ChIJv_0lRW--1DsR0iI23GB8UtM",
      "name": "IndianOil",
      "lat": 21.041848,
      "lng": 79.0518101,
      "address": "No 119, Central Avenue, Amravati Road, Nagpur",
      "open_now": true
    },
    {
      "place_id": "ChIJPWsk0Fy-1DsRwG2Z5qDjPt0",
      "name": "Bharat petroleum Amin Khapri",
      "lat": 21.0523421,
      "lng": 79.0537974,
      "address": "Chandrapur - Nagpur Road, Nagpur",
      "open_now": true
    },
    {
      "place_id": "ChIJVVWSDrnPADsRofIaXn5st-w",
      "name": "Reliance Petroleum",
      "lat": 21.0229385,
      "lng": 79.04738789999999,
      "address": "No 40/3B, 4 & 10 Thiruparankundram Road, National Highway 44, Pasumalai, Madurai",
      "open_now": true
    },
    {
      "place_id": "ChIJm-hzZwC_1DsR6lRnLdBtlic",
      "name": "IndianOil",
      "lat": 21.032718,
      "lng": 79.05230700000001,
      "address": "Ground Floor, Amravati Road, Wardha Road, Parsodi",
      "open_now": true
    },
    {
      "place_id": "ChIJZYfw6Jy_1DsR0S3-qSaVkEk",
      "name": "NINAVE CL1",
      "lat": 21.0342108,
      "lng": 79.0769078,
      "address": "Outer Ring Road, Nagpur",
      "open_now": null
    },
    {
      "place_id": "ChIJtWiDzri_1DsRuw3ktubLSqs",
      "name": "Petrol Pump",
      "lat": 21.042637,
      "lng": 79.05176159999999,
      "address": "tuli petrol pump, Khapri",
      "open_now": null
    },
    {
      "place_id": "ChIJu0ek7uq91DsROMLfPnxo3w4",
      "name": "IndianOil",
      "lat": 21.0025104,
      "lng": 79.0402077,
      "address": "National Highway 44, Jamtha",
      "open_now": true
    },
    {
      "place_id": "ChIJ51REegC_1DsR_92AxSDvTsk",
      "name": "Hindustan Petroleum Corporation Limited",
      "lat": 21.0290286,
      "lng": 79.0311329,
      "address": "Ground Floor, near National Cancer Institute, Outer Ring Road, Jamtha",
      "open_now": true
    },
    {
      "place_id": "ChIJEdxgwha_1DsRRqg6UYh9dUU",
      "name": "MODERN FUEL LINKS",
      "lat": 21.04846749999999,
      "lng": 79.0525613,
      "address": "23X3+92M, National Highway 44, nipor",
      "open_now": null
    },
    {
      "place_id": "ChIJN_mZdgC_1DsRwB4m-_Tb0ZU",
      "name": "Refilling station of clean hydrogen",
      "lat": 21.049651,
      "lng": 79.069372,
      "address": "332C+64X, Nagpur",
      "open_now": null
    },
    {
      "place_id": "ChIJKdlGTFa_1DsRqCyvGt6TIUY",
      "name": "Bharat Petroleum Petrol Pump , AMIN TRANSPORT PVT LTD ADHOC",
      "lat": 21.053421,
      "lng": 79.03956900000001,
      "address": "MADC, Mihan, Nagpur",
      "open_now": true
    },
    {
      "place_id": "ChIJcdOZVQC_1DsRV_054HENkYw",
      "name": "J.k Farm",
      "lat": 21.0409412,
      "lng": 79.0249516,
      "address": "Tal. dindori, Dahegaon",
      "open_now": null
    },
    {
      "place_id": "ChIJ6fJPCXq91DsR-zf31bg2xeU",
      "name": "Bharat Petroleum, Petrol Pump -Industrial Explosives Pvt. Ltd.",
      "lat": 20.9908465,
      "lng": 79.0316067,
      "address": "DONGARGAON, Wardha Road, NAGP",
      "open_now": true
    },
    {
      "place_id": "ChIJOzprbrS_1DsRe7a24RDUc_0",
      "name": "Hindustan Petroleum Corporation Limited",
      "lat": 21.0631567,
      "lng": 79.05759239999999,
      "address": "Khasra No 157/2, Chinchbhavan, near Narayana School, Chandrapur - Nagpur Road, Khapri",
      "open_now": true
    },
    {
      "place_id": "ChIJF4rCn1S41DsRO7K_B5Vlo-Y",
      "name": "Hindustan Petroleum Corporation Limited",
      "lat": 21.0807213,
      "lng": 79.16046430000002,
      "address": "PH No 37, Gat No 21, Ring Road, Vhirgaon",
      "open_now": true
    },
    {
      "place_id": "ChIJkU7D-4Ku1DsRySLfxIGaRUE",
      "name": "Jio-bp",
      "lat": 21.100202,
      "lng": 79.152902,
      "address": "near 16 Km Milestone, SH 9, Umred Road, Kalamna, Nagpur",
      "open_now": true
    },
    {
      "place_id": "ChIJcSJMDZK41DsRarlH8oTgjeM",
      "name": "IndianOil",
      "lat": 21.1059536,
      "lng": 79.1431097,
      "address": "Gut No 32, opposite new Dogri naka, Mouza, Dighori, Godhani",
      "open_now": true
    },
    {
      "place_id": "ChIJZTVcJke51DsRka78VQ-jui8",
      "name": "JASMIN HIGHWAY",
      "lat": 21.08029029999999,
      "lng": 79.1599269,
      "address": "Traveling towards umred road, road, by pass, Hyderabad",
      "open_now": true
    },
    {
      "place_id": "ChIJM7wSrFO41DsRPO03Buhdg2c",
      "name": "STAR",
      "lat": 21.0826356,
      "lng": 79.1630496,
      "address": "India",
      "open_now": null
    },
    {
      "place_id": "ChIJ-3TxRY651DsRDCOPxh2RW0Q",
      "name": "IndianOil",
      "lat": 21.0646473,
      "lng": 79.1651256,
      "address": "Ground Floor, Kalamna, Umred Road, Adegaon",
      "open_now": true
    },
    {
      "place_id": "ChIJQ4xcxvW51DsRhNNEr63xx2Y",
      "name": "Bharat Petroleum, Petrol Pump -Narendra Oil Agency",
      "lat": 21.0979633,
      "lng": 79.1516578,
      "address": "BAHADURA,UMRER ROAD, NAGPU, Nagpur",
      "open_now": true
    },
    {
      "place_id": "ChIJfz0L6jC51DsRjh3WiQsT_Wk",
      "name": "Bharat Petroleum",
      "lat": 21.08679129999999,
      "lng": 79.176194,
      "address": "NH53",
      "open_now": null
    },
    {
      "place_id": "ChIJdRuL1Iy41DsRdtxWKHvlUpY",
      "name": "Hindustan Petroleum Corporation Limited",
      "lat": 21.1021858,
      "lng": 79.14647169999999,
      "address": "Ground Floor, Umred Road, Mouza Gonhi, Vihirgaon, Dighori, Near, Dighori Naka, Nagpur",
      "open_now": true
    },
    {
      "place_id": "ChIJzUeXBpe51DsR7-6rrgRy7dA",
      "name": "Jio-bp",
      "lat": 21.0569147,
      "lng": 79.1676272,
      "address": "near 16 Km Milestone, SH 9, Umred Road, Kalamna, Nagpur",
      "open_now": true
    },
    {
      "place_id": "ChIJ7e_qsO651DsRay7kQAYqI9M",
      "name": "Parmatma Ek Fuel station",
      "lat": 21.0980812,
      "lng": 79.136642,
      "address": "Bharat Petrol Pump, near Toll Plaza, Takli Bansadi, Patansaongi, Nagpur",
      "open_now": null
    },
    {
      "place_id": "ChIJBSWCYga51DsR5yRm5Ea01ms",
      "name": "Baidyanath LNG and CNH station 1",
      "lat": 21.0948432,
      "lng": 79.1791981,
      "address": "NH53",
      "open_now": true
    },
    {
      "place_id": "ChIJqVcyNwC51DsRXHlYRCTmYLc",
      "name": "B-LNG Station 3",
      "lat": 21.0545103,
      "lng": 79.16705979999999,
      "address": "3538+RR3, Kalmana",
      "open_now": null
    },
    {
      "place_id": "ChIJq8lfW1-51DsRvJ5ubPnqTvo",
      "name": "Bharat Petroleum, Petrol Pump -Om Satyam Petroleum",
      "lat": 21.0850054,
      "lng": 79.12501069999999,
      "address": "Hudkeshwar Road, Hudkeshwar",
      "open_now": true
    },
    {
      "place_id": "ChIJJSa7agC51DsR-2ceLkzT8rc",
      "name": "DHAWALE CNG PUMP",
      "lat": 21.1034285,
      "lng": 79.1349557,
      "address": "443M+9XG, Dighori, Nagpur",
      "open_now": null
    },
    {
      "place_id": "ChIJ1dyJC7651DsRa7jTUKj2xzI",
      "name": "Mahalaxmi Petroleum",
      "lat": 21.0979675,
      "lng": 79.1224601,
      "address": "34XC+5XP, Hudkeshwar Road, Dube Nagar, Kadu Nagar, Chandrakiran Nagar, Nagpur",
      "open_now": null
    },
    {
      "place_id": "ChIJnYxTVI251DsRLYdibQ0pmq4",
      "name": "New Reliance Jio CNG pump,Tarodi",
      "lat": 21.1085776,
      "lng": 79.1817019,
      "address": "Under Construction, Bypass, नागपूर",
      "open_now": null
    },
    {
      "place_id": "ChIJ__n8FBS41DsRwn-N7o1ZVUM",
      "name": "bp",
      "lat": 21.1086258,
      "lng": 79.1818007,
      "address": "455J+FP3, Chattarpur Road",
      "open_now": null
    },
    {
      "place_id": "ChIJk2UYbbi41DsR6rXfMKZJQrg",
      "name": "Rajapeth",
      "lat": 21.1022718,
      "lng": 79.1219074,
      "address": "Hudkeshwar Road, Renuka Mata Nagar, Sanmarga Nagar, Nagpur",
      "open_now": true
    },
    {
      "place_id": "ChIJo963RY651DsR5tAIuzbLWTA",
      "name": "Pawansut Petroleum ( Indian Oil Co Ltd )",
      "lat": 21.042488,
      "lng": 79.1698086,
      "address": "Pachgaon",
      "open_now": true
    },
    {
      "place_id": "ChIJCRAdOJy11DsR6KcbvSwnDr8",
      "name": "Krushnatara Bharat Petroleum पेट्रोल पंप",
      "lat": 21.1365993,
      "lng": 79.3302896,
      "address": "48PJ+54, Wadoda",
      "open_now": true
    },
    {
      "place_id": "ChIJ3TsaMADL1DsRF5dWq1WQqwQ",
      "name": "Jio Fuel Station",
      "lat": 21.1372279,
      "lng": 79.3296934,
      "address": "48PH+XX7, Wadoda",
      "open_now": null
    },
    {
      "place_id": "ChIJdce8RADL1DsRKZTG0STTluY",
      "name": "jio BP CNG pump",
      "lat": 21.1376785,
      "lng": 79.32962909999999,
      "address": "48PH+XX7, Wadoda",
      "open_now": true
    },
    {
      "place_id": "ChIJydALMBy11DsRtbG2FUA_AO4",
      "name": "Tawale Petroleum - Nayara Energy RO",
      "lat": 21.137603,
      "lng": 79.3479274,
      "address": "48QX+25V, Kolkata - Mumbai Highway",
      "open_now": true
    },
    {
      "place_id": "ChIJZ5E6pPO11DsRvNHutFRFEKg",
      "name": "BP WADODA",
      "lat": 21.1381289,
      "lng": 79.34827770000001,
      "address": "BP WADODA VILLAGE WADODA NAGPUR BHANDARA ROAD, NATIONAL HIGHWAY 06, Wadoda",
      "open_now": true
    },
    {
      "place_id": "ChIJMbgrzOTH1DsR1loBEXd_UWA",
      "name": "Highway Auto Services HP",
      "lat": 21.1366504,
      "lng": 79.322093,
      "address": "Bhandara Road, Kamptee - Kapsi Road",
      "open_now": true
    },
    {
      "place_id": "ChIJhdYkNce11DsRb28lUBvc_i4",
      "name": "Hindustan Petroleum Corporation Limited",
      "lat": 21.1350247,
      "lng": 79.30321099999999,
      "address": "Ground Floor, NH 6, Bhandara Road, Nagpur",
      "open_now": true
    },
    {
      "place_id": "ChIJcfg7WP611DsRBshrU80GtMo",
      "name": "Shree sai balaji automobiles,gumthala",
      "lat": 21.1344697,
      "lng": 79.30302560000001,
      "address": "near balaji Balaji bar, Bhandra road,gumthala, near balaji Balaji bar, Kamptee",
      "open_now": true
    },
    {
      "place_id": "ChIJURNdi0XL1DsR9te7E3G7G-M",
      "name": "SMT FUEL STATION",
      "lat": 21.1406924,
      "lng": 79.3789666,
      "address": "49VM 3CR, Bhandara Road, Mathani",
      "open_now": null
    },
    {
      "place_id": "ChIJYyvb8eE3KzoRvtYUl94kgGY",
      "name": "Hindustan Petroleum Corporation Limited",
      "lat": 21.1557794,
      "lng": 79.49918459999999,
      "address": "Khasra No 136/1A NH 6, Bhandara Road, Mou, Nagpur",
      "open_now": true
    },
    {
      "place_id": "ChIJ2XQAlm43KzoRT_V-U4f8lJU",
      "name": "Bharat Petroleum Petrol Pump , PETROFILL PARADISE",
      "lat": 21.1572902,
      "lng": 79.47601,
      "address": "AT VILLAGE BORGAON, ON NH 6NAGPUR, Bhandara Road, Nagpur",
      "open_now": true
    },
    {
      "place_id": "ChIJ-xl6dgA1KzoRDof2t7w1OpA",
      "name": "Jio Petrol Pump",
      "lat": 21.1541121,
      "lng": 79.46463399999999,
      "address": "5F37+JV, Bhamawada",
      "open_now": null
    },
    {
      "place_id": "ChIJDfcUoEM3KzoRocCBMIWhuiI",
      "name": "BP Petrol & CNG Pump",
      "lat": 21.1540055,
      "lng": 79.5079695,
      "address": "5G35+J5, Kharbi",
      "open_now": null
    },
    {
      "place_id": "ChIJ09zNJ4hHKzoR08Aif8B56Ig",
      "name": "BP BHANDARA, Bharat Petroleum COCO Retail Outlet",
      "lat": 21.1530343,
      "lng": 79.5918095,
      "address": "Nagpur - Kolkata Highway, Ashoknagar",
      "open_now": true
    },
    {
      "place_id": "ChIJO9HuXcA4KzoRxmYFduUxsQI",
      "name": "Hindustan Petroleum Corporation Limited",
      "lat": 21.18121099999999,
      "lng": 79.630011,
      "address": "Ground Floor, Khat Road, Bhandara",
      "open_now": true
    },
    {
      "place_id": "ChIJ6bueWodHKzoRN-ZHHgENU5M",
      "name": "Reliance",
      "lat": 21.1529538,
      "lng": 79.59877139999999,
      "address": "India",
      "open_now": null
    },
    {
      "place_id": "ChIJIxHcIR05KzoR6mRXGH-C40o",
      "name": "Jio-bp",
      "lat": 21.1532493,
      "lng": 79.59897169999999,
      "address": "Ashok Ngr, Survey No 367/2 NH 53, Shahpur, Mujbi",
      "open_now": true
    },
    {
      "place_id": "ChIJ-aO759hHKzoR3xGDd_Fcc8w",
      "name": "Bharat Petroleum, Petrol Pump -BP-Bhandara",
      "lat": 21.1504145,
      "lng": 79.5912993,
      "address": "Ashoknagar",
      "open_now": true
    },
    {
      "place_id": "ChIJ02CPE504KzoReETX7VpgmUg",
      "name": "Hindustan Petroleum Corporation Limited",
      "lat": 21.1568389,
      "lng": 79.6185319,
      "address": "PH No 10, Gat No, 180/1, Bela",
      "open_now": true
    },
    {
      "place_id": "ChIJIUdXD6g4KzoR576iE7jcMjA",
      "name": "IndianOil",
      "lat": 21.1570901,
      "lng": 79.63931699999999,
      "address": "Lock No 13007, Gut No 34/10 & 34/11, Ganeshpur",
      "open_now": true
    },
    {
      "place_id": "ChIJ_Yp6OCVBKzoRhVoBnA34MyI",
      "name": "BHARAT PETROLEUM NATIONAL FUELS",
      "lat": 21.1283702,
      "lng": 79.7030028,
      "address": "On NH-6, Paladi",
      "open_now": true
    },
    {
      "place_id": "ChIJE80RlaJBKzoRDkrzgRLTJ-o",
      "name": "Nayara Petrol pump Sainyam Petroleum",
      "lat": 21.1241217,
      "lng": 79.70893769999999,
      "address": "4PF5+JHW, Nagpur - Bhandara - Rajnandgaon - Raipur Highway, Paladi",
      "open_now": true
    },
    {
      "place_id": "ChIJyyECD95BKzoRpUZSSUAaNF8",
      "name": "Hindustan Petroleum Corporation Limited",
      "lat": 21.1327182,
      "lng": 79.6956362,
      "address": "Ground Floor, NH 53, Bhilewada",
      "open_now": true
    },
    {
      "place_id": "ChIJH4YzklBBKzoRJq3b6Kd6m-E",
      "name": "A R Petroleum",
      "lat": 21.1335578,
      "lng": 79.6945751,
      "address": "Hpcl petrol pump mouza, Bhilewada",
      "open_now": true
    },
    {
      "place_id": "ChIJvYWLaABBKzoRDckfF561la8",
      "name": "B.R. AMBEDKAR CHOWK BHILEWADA",
      "lat": 21.1386145,
      "lng": 79.6866933,
      "address": "4MQP+CMW, Bhilewada",
      "open_now": null
    },
    {
      "place_id": "ChIJdQ5ETQBBKzoRHUlABzAPXA8",
      "name": "Bharat petroleum",
      "lat": 21.1232127,
      "lng": 79.6759016,
      "address": "4MFG+79, Ambadi",
      "open_now": null
    },
    {
      "place_id": "ChIJVxTWleBBKzoRsW2e0aLu0pY",
      "name": "Gajanan Petrolium",
      "lat": 21.1231155,
      "lng": 79.67574300000001,
      "address": "Pauni Road, Palgao Area, Ambadi",
      "open_now": null
    },
    {
      "place_id": "ChIJ0yCg5PtBKzoRWV_CDsn7_HQ",
      "name": "IndianOil",
      "lat": 21.1045348,
      "lng": 79.72621099999999,
      "address": "Ground Floor, Koknagad",
      "open_now": true
    },
    {
      "place_id": "ChIJ2wSClWBBKzoRcI56WjROcWQ",
      "name": "Jio-bp",
      "lat": 21.1039825,
      "lng": 79.7266131,
      "address": "No 482/6, National Highway 53, Dhargaon",
      "open_now": true
    },
    {
      "place_id": "ChIJL7O6LQBBKzoRmZA43Qa1QnI",
      "name": "यूरिया पंप",
      "lat": 21.1010055,
      "lng": 79.7307861,
      "address": "4P2J+C83, near cng pump, National Highway 53, Lakhani",
      "open_now": null
    },
    {
      "place_id": "ChIJK3vjo5puKzoRPEbfdISXBJM",
      "name": "IndianOil",
      "lat": 21.064428,
      "lng": 79.8622352,
      "address": "Gut No 709 Amgaon, Dighori",
      "open_now": true
    },
    {
      "place_id": "ChIJG72jJwBvKzoRC0DOUmK70J4",
      "name": "Dwarka Petroleum",
      "lat": 21.0615804,
      "lng": 79.9002969,
      "address": "3W62+J4M, Sakoli",
      "open_now": null
    },
    {
      "place_id": "ChIJH1SPYBpvKzoRlWPmYuiGGvU",
      "name": "IndianOil - Kapil Petroleum",
      "lat": 21.0642676,
      "lng": 79.8743291,
      "address": "NH 6, Nagpur - Bhandara - Rajnandgaon - Raipur Highway, Pimpalgaon",
      "open_now": true
    },
    {
      "place_id": "ChIJZ165cgBvKzoRjQ4xvCPVp8U",
      "name": "Manegaon lakhani",
      "lat": 21.064811,
      "lng": 79.865999,
      "address": "3V78+W9, Pimpalgaon",
      "open_now": null
    },
    {
      "place_id": "ChIJywyiSIVuKzoRsfd0rpjJKy8",
      "name": "Hindustan Petroleum Corporation Limited",
      "lat": 21.065372,
      "lng": 79.863917,
      "address": "Ground Floor, NH 6, Manegaon.",
      "open_now": true
    },
    {
      "place_id": "ChIJq3x7IeNzKzoR6iBThwlWsI4",
      "name": "IndianOil",
      "lat": 21.0868292,
      "lng": 79.996404,
      "address": "Ground Floor, NH 6, Sakoli, Amgaon Bk.",
      "open_now": true
    },
    {
      "place_id": "ChIJha9_ct9zKzoRP5ARdsSOqvE",
      "name": "Hindustan Petroleum Corporation Limited",
      "lat": 21.08408099999999,
      "lng": 79.98292099999999,
      "address": "Ground Floor, NH 53, Sakoli",
      "open_now": true
    },
    {
      "place_id": "ChIJnbMvW4hzKzoRHUasuIY4mG0",
      "name": "Triveni Petroleum",
      "lat": 21.0856344,
      "lng": 80.00025269999999,
      "address": "Bhandara Road, Sakoli",
      "open_now": null
    },
    {
      "place_id": "ChIJ24MeIv1zKzoRZVFwmzyQixA",
      "name": "S. R. Modi Petrol Pump",
      "lat": 21.0863129,
      "lng": 79.9989059,
      "address": "House No 6, Ground Floor, Modi Heights, near Modi Petrol Pump, NH 6, Main Road, Panchasheel, Panchasheel, Sakoli",
      "open_now": true
    },
    {
      "place_id": "ChIJI1eafGdxKzoRfvirtYgGUaE",
      "name": "Bharat Petroleum, Petrol Pump -Makode Petroleum",
      "lat": 21.0765575,
      "lng": 79.98710609999999,
      "address": "LAKHANDUR RD, BHAND, SAKOLI",
      "open_now": true
    },
    {
      "place_id": "ChIJIUy0FlZxKzoRpy1SIQxbDaw",
      "name": "Jio-bp",
      "lat": 21.080743,
      "lng": 79.96860199999999,
      "address": "Khasra No 221/1, Sadak, 220 &219/3, National Highway 53, Jambhali",
      "open_now": true
    },
    {
      "place_id": "ChIJtS2l5lORKzoROD8nTGR3Vgs",
      "name": "Harpreet Roadlines",
      "lat": 21.0672733,
      "lng": 80.32654649999999,
      "address": "opposite bawa punjabi dhaba, Deori",
      "open_now": null
    },
    {
      "place_id": "ChIJWWpiX2-RKzoR14p1mrKXXD0",
      "name": "IndianOil",
      "lat": 21.0715473,
      "lng": 80.3334009,
      "address": "NH 06, Deori, Maramjob, Arjuni Morgaon",
      "open_now": true
    },
    {
      "place_id": "ChIJLeihBpnuKzoR289D1mnWFuo",
      "name": "BPCL Petrol Pump and CNG - Heavy Movers Fuels",
      "lat": 21.088418,
      "lng": 80.551812,
      "address": "NH 6 Village Ghortalab, Near Sadak Chirchari, Tehsil Churiya, Dist. Rajnandgoan Chhattisgarh., Rajnandgoan",
      "open_now": true
    },
    {
      "place_id": "ChIJLd9kDbTvKzoRB0LFUqAoXfY",
      "name": "BPCL Maruti fuel kaluram vishnoi",
      "lat": 21.0897727,
      "lng": 80.5471129,
      "address": "3GQW+WR, Ghortalab",
      "open_now": true
    },
    {
      "place_id": "ChIJjfvKKuTuKzoRLx7Lg7mnb2Y",
      "name": "Jio-bp",
      "lat": 21.0876451,
      "lng": 80.57982679999999,
      "address": "Ground Floor, Nh 6, Chirchari",
      "open_now": true
    },
    {
      "place_id": "ChIJw2U80wvlKzoRBpU5c7cBPiU",
      "name": "IndianOil",
      "lat": 21.074129,
      "lng": 80.64765899999999,
      "address": "Ground Floor Rampur, NH 6, Chichola",
      "open_now": true
    },
    {
      "place_id": "ChIJjawGdwDvKzoR0RrtLnLFJXo",
      "name": "Prateek Fuels Indian Oil",
      "lat": 21.0871177,
      "lng": 80.57500139999999,
      "address": "Ground Floor, NH53, Sadak Chirchari",
      "open_now": true
    },
    {
      "place_id": "ChIJ-6CMduvuKzoRkEN9_7UMxY0",
      "name": "Hindustan Petroleum Corporation Limited",
      "lat": 21.08839,
      "lng": 80.5690336,
      "address": "Ground Floor, NH 6, Dongargaon, Chirchari",
      "open_now": true
    },
    {
      "place_id": "ChIJS57_OgDjKzoR5cttZNGkImE",
      "name": "Pancholi fuels bio diesel",
      "lat": 21.0835525,
      "lng": 80.7279709,
      "address": "3PMH+C5H, Jhandatalab",
      "open_now": true
    },
    {
      "place_id": "ChIJJ-dHAvHjKzoRek4U6M2VQeY",
      "name": "Bharat Petroleum, Petrol Pump -Reach (Cargo Movers)",
      "lat": 21.077613,
      "lng": 80.74114829999999,
      "address": "URAIDABRI, RAJANANDGAON",
      "open_now": true
    },
    {
      "place_id": "ChIJAwQofAHlKzoR20Hx44tfnvg",
      "name": "IndianOil",
      "lat": 21.0798911,
      "lng": 80.6935984,
      "address": "Ground Floor Maharajpur, NH 6, Chichola",
      "open_now": true
    },
    {
      "place_id": "ChIJTc1-ZFVZKToR4NRXADrp_pY",
      "name": "IndianOil",
      "lat": 21.0739103,
      "lng": 80.7612711,
      "address": "Ground Floor, Dongargarh NH 53, Uraidabri, Raipur Rd, Nagpur",
      "open_now": true
    },
    {
      "place_id": "ChIJHWVyLwvlKzoRzdOUnPNlhGY",
      "name": "Chichola Highway service (Bharat Petroleum) CNG",
      "lat": 21.0770867,
      "lng": 80.6869933,
      "address": "Maharajpur",
      "open_now": true
    },
    {
      "place_id": "ChIJqS6tr0DlKzoRI3nO8fZ6si8",
      "name": "Hindustan Petroleum Corporation Limited",
      "lat": 21.075401,
      "lng": 80.686301,
      "address": "House No 26, Surat - Kolkata Highway, Rajnandgaon",
      "open_now": true
    },
    {
      "place_id": "ChIJ52buI__kKzoRXnwvMYoWufQ",
      "name": "HP PETROL PUMP - BAGGA PETROL STATION",
      "lat": 21.0758517,
      "lng": 80.68617350000001,
      "address": "NH 6, G road Opposite Gurudhwara, Kopedi, Thumribuord, Rajnandgoan",
      "open_now": true
    },
    {
      "place_id": "ChIJ73by0v3iKzoRSzBbgcG0eXs",
      "name": "Hindustan Petroleum Corporation Limited",
      "lat": 21.073858,
      "lng": 80.76840399999999,
      "address": "Ground Floor, NH 6, GE Road, Uraidabri",
      "open_now": true
    },
    {
      "place_id": "ChIJd3d8L1LkKzoRbK4UWVs9qsc",
      "name": "Hindustan Petroleum Corporation Limited",
      "lat": 21.0851509,
      "lng": 80.6821356,
      "address": "Ward No 1, Lal Bahadur Nagar",
      "open_now": true
    },
    {
      "place_id": "ChIJ1ZDFXADlKzoRQTZRfW-E3k4",
      "name": "Maa Karipath Fuels Indian oil",
      "lat": 21.1241554,
      "lng": 80.710217,
      "address": "4PF6+M38, Makkatola",
      "open_now": null
    },
    {
      "place_id": "ChIJHw4I-q9ZKToRmgs4ZqrArIs",
      "name": "Bharat Petroleum, Petrol Pump -J M Fuels",
      "lat": 21.0747098,
      "lng": 80.8531306,
      "address": "REVAGHAN, RAJANANDGAON",
      "open_now": null
    },
    {
      "place_id": "ChIJ3yS9LY9ZKToRUsEabJb7spg",
      "name": "IndianOil",
      "lat": 21.0766466,
      "lng": 80.84567020000001,
      "address": "National Highway 53, Dongargaon",
      "open_now": true
    },
    {
      "place_id": "ChIJmZLXxFtYKToR_alnMzyc6b0",
      "name": "Hindustan Petroleum Corporation Limited",
      "lat": 21.0777353,
      "lng": 80.8430269,
      "address": "PH No 7, Khasra No, 31/5, Tumdiboda",
      "open_now": true
    },
    {
      "place_id": "ChIJlw69KTdZKToRMdfficF77CE",
      "name": "Hindustan Petroleum Corporation Limited",
      "lat": 21.077511,
      "lng": 80.831641,
      "address": "Khasra No 429, 3 Dongargarh, Tappa",
      "open_now": true
    },
    {
      "place_id": "ChIJmUpTagBZKToRhr7MFlgcGCo",
      "name": "Rathore Fuels Jio BP Mobility Ltd",
      "lat": 21.0765881,
      "lng": 80.8286352,
      "address": "3RGH+JFJ, Tappa",
      "open_now": null
    },
    {
      "place_id": "ChIJWRJ8VgBZKToR3KjwpXVjmlQ",
      "name": "New Petrol Pump",
      "lat": 21.093493,
      "lng": 80.89006789999999,
      "address": "3VVR+639, Rajnandgaon",
      "open_now": null
    },
    {
      "place_id": "ChIJa8PmU81bKToRTcf6mbxrS60",
      "name": "Bharat Petroleum Petrol Pump , YASH FUELS",
      "lat": 21.07112,
      "lng": 80.90366,
      "address": "Dongargaon Road, GRAM, Machanpar",
      "open_now": null
    },
    {
      "place_id": "ChIJ2a4bIHlbKToR5mCqPZts3As",
      "name": "Bharat Petroleum, Petrol Pump -Fill And Fly",
      "lat": 21.08511099999999,
      "lng": 80.9040177,
      "address": "G.E ROAD REWADIH, RAJANANDGAON",
      "open_now": null
    },
    {
      "place_id": "ChIJy22IslRaKToRXeeqk1DcUPY",
      "name": "Hindustan Petroleum Corporation Limited",
      "lat": 21.089301,
      "lng": 80.938101,
      "address": "Ground Floor, NH 6, Bhanpuri",
      "open_now": true
    },
    {
      "place_id": "ChIJ9V1wvVRbKToR0g1OA8C3Ocg",
      "name": "Hindustan Petroleum Corporation Limited",
      "lat": 21.091991,
      "lng": 80.975791,
      "address": "Ground Floor, NH 53, GE Road, Banbhedi",
      "open_now": true
    },
    {
      "place_id": "ChIJjbAQdalbKToRQK5wHiIelIM",
      "name": "पुलिस कल्याण पेट्रोल पंप",
      "lat": 21.0923907,
      "lng": 80.97601519999999,
      "address": "8th bn c.a.f. rajnandgaon (c.g senani 8vi battalion chhattisgarh sashatra bal rajnandgaon(c.g, Atal Vihar Colony, Rajnandgaon",
      "open_now": null
    },
    {
      "place_id": "ChIJJdHRxNpbKToR0vJweDuCvBE",
      "name": "Shri Hari Fuels (BPCL Petrol Pump)",
      "lat": 21.0923535,
      "lng": 80.9644586,
      "address": "Banbhedi",
      "open_now": true
    },
    {
      "place_id": "ChIJq5u-QgBbKToRcze7r9MLthM",
      "name": "Shri Hari Fuels Bharat petroleum petrol pump",
      "lat": 21.0938405,
      "lng": 80.98019160000001,
      "address": "3XVJ+G3P, Banbhedi",
      "open_now": true
    },
    {
      "place_id": "ChIJNa3J8ClbKToRxwO3PopU54s",
      "name": "Fill And Fly Bharat Petroleum Petrol pump",
      "lat": 21.09262,
      "lng": 80.98120399999999,
      "address": "Glorious Dhaba, Main Road, Mumbai - Kolkata Highway, Near, Rewadih Road, Rajnandgaon",
      "open_now": true
    },
    {
      "place_id": "ChIJ0V4uN3pbKToRDNqcvzXQTSc",
      "name": "Adhoc Raja Fuel Point(Indian Oil)",
      "lat": 21.090959,
      "lng": 80.95519660000001,
      "address": "500m from Delhi Public School, opposite Abis Factory, Banbhedi",
      "open_now": true
    },
    {
      "place_id": "ChIJDynRXx1bKToRU1B-K_BNPG0",
      "name": "IndianOil",
      "lat": 21.0908467,
      "lng": 80.9551912,
      "address": "Ground Floor, NH 6, GE Road, Bhanpuri",
      "open_now": true
    },
    {
      "place_id": "ChIJ3UDTvTtFKToRD3QWajFjbas",
      "name": "Bharat Petroleum, Petrol Pump -Rajnandgaon Pertol Service",
      "lat": 21.0938665,
      "lng": 80.98782299999999,
      "address": "G.E ROAD RAJNANDGAON, PEND, Rajnandgaon",
      "open_now": true
    },
    {
      "place_id": "ChIJ16BgdQJbKToRUNuIRNFv_aU",
      "name": "JM Feuls Bharat Petroleum",
      "lat": 21.0902947,
      "lng": 80.94920309999999,
      "address": "3WRX+4M8, near Delhi Public School, Nagpur - Bhandara - Rajnandgaon - Raipur Highway, Riwagahan",
      "open_now": true
    },
    {
      "place_id": "ChIJMdqe8TRFKToRzhdmVGyUe7E",
      "name": "Bharat Petroleum",
      "lat": 21.0725657,
      "lng": 80.9893337,
      "address": "3XFQ+2PG, Rajnandgaon Road, Pharhad",
      "open_now": null
    },
    {
      "place_id": "ChIJ_4ksnDpFKToRGYqEMASSSw0",
      "name": "HP PETROL PUMP - SRI JAGANNATH FUELS",
      "lat": 21.079004,
      "lng": 80.998341,
      "address": "HP Dealer Paneka (vill) Rajanandagaon(tha), Raipur",
      "open_now": true
    },
    {
      "place_id": "ChIJzahQ4HJFKToRjKmCkeWsr-s",
      "name": "IndianOil",
      "lat": 21.0799668,
      "lng": 81.00092599999999,
      "address": "Ground Floor Paneka, Arjuni",
      "open_now": true
    },
    {
      "place_id": "ChIJEQGf36hFKToRku1giUGrIok",
      "name": "Bharat Petroleum Petrol Pump , SHRI SHYAM SUNDAR FUELS",
      "lat": 21.0804429,
      "lng": 81.0023669,
      "address": "DONGARGAON ROAD ,NEAR FARHAD, CHOWK",
      "open_now": true
    },
    {
      "place_id": "ChIJMZgXDM1FKToRaxnFs6cWtPo",
      "name": "Hindustan Petroleum Corporation Limited",
      "lat": 21.0800155,
      "lng": 81.00325509999999,
      "address": "Ground Floor, Paneka",
      "open_now": true
    },
    {
      "place_id": "ChIJ6VFjWYZFKToRMpqoPOc6td8",
      "name": "Ishwar lala petrol pump",
      "lat": 21.1153019,
      "lng": 81.0044359,
      "address": "4283+4QF, Navagaon",
      "open_now": null
    },
    {
      "place_id": "ChIJu955sk9bKToR1DdVht_TocU",
      "name": "Hindustan Petroleum Corporation Limited",
      "lat": 21.13373109999999,
      "lng": 80.9697528,
      "address": "Ground Floor, Jalaram Krishi Farm, Sukul Daihan Road, Litiya",
      "open_now": true
    },
    {
      "place_id": "ChIJa5BdY35bKToR5l2VgMjlWJM",
      "name": "Hindustan Petroleum Corporation Limited",
      "lat": 21.0503033,
      "lng": 80.9544827,
      "address": "Ground Floor, Dongargaon Rd, Dongargaon, Rajnandgaon",
      "open_now": true
    },
    {
      "place_id": "ChIJ-0qq2hVHKToRbIwTnm0kGVE",
      "name": "Petrol Pump",
      "lat": 21.1214344,
      "lng": 81.1368281,
      "address": "44CP+HPG, National Highway 6",
      "open_now": null
    },
    {
      "place_id": "ChIJL7wehzFEKToR8EzFSb1Ejls",
      "name": "IndianOil",
      "lat": 21.1024347,
      "lng": 81.06207880000001,
      "address": "Ground Floor, GE Road, Lakholi, Arjuni",
      "open_now": true
    },
    {
      "place_id": "ChIJUVE9hzFEKToREi9ef5Ck6FM",
      "name": "Agrawal Fuels",
      "lat": 21.102117,
      "lng": 81.062096,
      "address": "Next To Nehru Nagar, Near Pari Nala ,G.E Road, Rajnandgaon",
      "open_now": true
    },
    {
      "place_id": "ChIJl-1JrEdFKToRUJrsHuLCr8Y",
      "name": "Hindustan Petroleum Corporation Limited",
      "lat": 21.1133434,
      "lng": 81.0994506,
      "address": "Khasra No 11/3, NH 53, Manki",
      "open_now": true
    },
    {
      "place_id": "ChIJjYIiMtZHKToR3j-9EYa78w8",
      "name": "Jio-bp",
      "lat": 21.1219413,
      "lng": 81.1403247,
      "address": "Ground Floor, near Kamal Solvent, Nh 6, Sundra",
      "open_now": true
    },
    {
      "place_id": "ChIJ-5j1RQBHKToRq0avyHOW0NI",
      "name": "Ravindra kumar Bharti",
      "lat": 21.1348703,
      "lng": 81.13882799999999,
      "address": "44MQ+WGW, Farhad",
      "open_now": null
    },
    {
      "place_id": "ChIJ_1IVWwBFKToR1IZWErtnPBg",
      "name": "RK Fuels",
      "lat": 21.0986281,
      "lng": 81.06704909999999,
      "address": "33X8+FR, Nehru Nagar",
      "open_now": true
    },
    {
      "place_id": "ChIJHxjYFNM4KToR9MD6hYh-T64",
      "name": "Hamara Petrol Pump - Bharat Petroleum",
      "lat": 21.148958,
      "lng": 81.20088299999999,
      "address": "Devada, Durg, NH-6, Armori Bhandara Highway, Durg, Durg",
      "open_now": true
    },
    {
      "place_id": "ChIJTXLjCtI4KToRISWVVJkxqHY",
      "name": "Hindustan Petroleum Corporation Limited",
      "lat": 21.14662,
      "lng": 81.1962805,
      "address": "Ground Floor, NH 6, Dewada",
      "open_now": true
    },
    {
      "place_id": "ChIJB-I1bNI4KToR5MSMYvZBNjQ",
      "name": "IndianOil",
      "lat": 21.146398,
      "lng": 81.19742,
      "address": "Ground Floor, NH 6, GE Road, Dewada",
      "open_now": true
    },
    {
      "place_id": "ChIJiRaS4kw_KToR9YjbzRjoMFI",
      "name": "IndianOil",
      "lat": 21.1610076,
      "lng": 81.22461009999999,
      "address": "Ground Floor, Anjora",
      "open_now": true
    },
    {
      "place_id": "ChIJC8QNG8w4KToR9cckUcGwt3Y",
      "name": "IndianOil",
      "lat": 21.1442001,
      "lng": 81.1924001,
      "address": "Ground Floor, NH 6, GE Road, Dewada",
      "open_now": true
    },
    {
      "place_id": "ChIJy_jG0oY5KToRztSG7wkljXg",
      "name": "IndianOil",
      "lat": 21.131369,
      "lng": 81.2089001,
      "address": "Ground Floor, Dhamnod,Borsi, near Anjora, Borsi",
      "open_now": true
    },
    {
      "place_id": "ChIJoc4HLho5KToRzR8fGm-ype4",
      "name": "new petrol pump",
      "lat": 21.1404323,
      "lng": 81.18586119999999,
      "address": "Tendesara",
      "open_now": null
    },
    {
      "place_id": "ChIJQxmjMtg_KToRT-Cslg4HUoM",
      "name": "Hindustan Petroleum Corporation Limited",
      "lat": 21.168149,
      "lng": 81.23464799999999,
      "address": "Khasra No 572, 4 & 572/7, Mahmara",
      "open_now": true
    },
    {
      "place_id": "ChIJH9VMCLc4KToRRHSsiEcSdo4",
      "name": "Hindustan Petroleum Corporation Limited",
      "lat": 21.139901,
      "lng": 81.182901,
      "address": "Ground Floor, Tedesara, Rajnandgaon",
      "open_now": true
    },
    {
      "place_id": "ChIJl7VuAAA_KToRxsH9T0KJVJY",
      "name": "BPCL",
      "lat": 21.186774,
      "lng": 81.21459999999999,
      "address": "56P7+FPX, Khapri",
      "open_now": null
    },
    {
      "place_id": "ChIJWzOsx_s5KToRBr9P4eDJF8E",
      "name": "IndianOil",
      "lat": 21.1357987,
      "lng": 81.1751081,
      "address": "Ground Floor, NH 6, Tedesara, Arjuni, Rajnandgaon",
      "open_now": true
    },
    {
      "place_id": "ChIJz8lTyLo4KToRCmyXehvPY1Q",
      "name": "IndianOil",
      "lat": 21.136313,
      "lng": 81.17397199999999,
      "address": "Ground Floor, NH 6, GE Road, Tedesara, Arjuni",
      "open_now": true
    },
    {
      "place_id": "ChIJZa8J5fg-KToRKmURBZQWgyY",
      "name": "Hindustan Petroleum Corporation Limited",
      "lat": 21.1967183,
      "lng": 81.215355,
      "address": "Ground Floor, Industrial Growth Centre, Rasamada",
      "open_now": true
    },
    {
      "place_id": "ChIJSzBm4_c-KToRMqc9HjnQ7rs",
      "name": "IndianOil",
      "lat": 21.198476,
      "lng": 81.219942,
      "address": "Ground Floor Durg Bypass Road,Rasmada, Borai",
      "open_now": true
    },
    {
      "place_id": "ChIJcYi1dec8KToRCKckDM8Yntk",
      "name": "IndianOil",
      "lat": 21.195181,
      "lng": 81.31702399999999,
      "address": "near Sector 9 Hospital, Bhillai, near Sector 9 Hospital, Township, Sector 8, Durg",
      "open_now": true
    },
    {
      "place_id": "ChIJDR436N48KToRimhvaxdV3DQ",
      "name": "Hindustan Petroleum Corporation Limited",
      "lat": 21.200454,
      "lng": 81.322037,
      "address": "Ground Floor, Infront of, NH 53, Durg Bypass, Nehru Nagar",
      "open_now": true
    },
    {
      "place_id": "ChIJn3qlnfg8KToRoYVjuf3mHc0",
      "name": "IndianOil",
      "lat": 21.1946909,
      "lng": 81.2959944,
      "address": "Ground Floor, near Science College, Durg",
      "open_now": true
    },
    {
      "place_id": "ChIJt8ezICYjKToRSS8USFmFRlY",
      "name": "IndianOil",
      "lat": 21.2015116,
      "lng": 81.3506669,
      "address": "Mahila Samaj, Bhilai Steel Plant Run By, Sector 2, Bhilai",
      "open_now": true
    },
    {
      "place_id": "ChIJ66agw6c9KToRSU-kHPHolsU",
      "name": "IndianOil",
      "lat": 21.2154903,
      "lng": 81.29431269999999,
      "address": "Ground Floor, Sikola Bhata",
      "open_now": true
    },
    {
      "place_id": "ChIJMZgWeKc9KToRve2g2sBcCgc",
      "name": "Petrol Pump",
      "lat": 21.2176625,
      "lng": 81.295299,
      "address": "679W+347, Durg",
      "open_now": null
    },
    {
      "place_id": "ChIJH6eezcs8KToR6cZzaIOf4D4",
      "name": "Indian Oil LPG Agency",
      "lat": 21.1842915,
      "lng": 81.33527880000001,
      "address": "58MP+P46, Street Number 5, Sector 10, Bhilai",
      "open_now": null
    },
    {
      "place_id": "ChIJuwkCTlI8KToRE9fMM0l0jkc",
      "name": "SURYAKANT VALLABHDAS FUELS",
      "lat": 21.1988022,
      "lng": 81.28752999999999,
      "address": "Station Road, Guru Nanak Nagar, Durg",
      "open_now": true
    },
    {
      "place_id": "ChIJT9DZkRgjKToR9rEU3ccmrj4",
      "name": "Ashok fuels Petrol Pump",
      "lat": 21.20218569999999,
      "lng": 81.349158,
      "address": "Street Number 83, Sector 6, Bhilai",
      "open_now": null
    },
    {
      "place_id": "ChIJsxe66Ho9KToRv8kozG2Hxj0",
      "name": "IndianOil",
      "lat": 21.240964,
      "lng": 81.305358,
      "address": "Ground Floor, Durg - Dhamdha Road, Admabad, Khapri",
      "open_now": true
    },
    {
      "place_id": "ChIJqRoFc2Q8KToRpwuaPPQo0jI",
      "name": "Hindustan Petroleum Corporation Limited",
      "lat": 21.1707106,
      "lng": 81.2901182,
      "address": "Ground Floor, Pulgaon Road, Durg",
      "open_now": true
    },
    {
      "place_id": "ChIJkZ6nwjc9KToRo1zuXMmesNE",
      "name": "Shahid Kaushal filling station",
      "lat": 21.2009906,
      "lng": 81.3191257,
      "address": "9, Steel Colony, Katulbod, Nehru Nagar",
      "open_now": true
    },
    {
      "place_id": "ChIJHd7caGs9KToR7sB3EYzrRHM",
      "name": "AMBIKA FUELS BPCL",
      "lat": 21.2104722,
      "lng": 81.3163466,
      "address": "Pushpak Nagar, Junwani Road, Smriti Nagar",
      "open_now": true
    },
    {
      "place_id": "ChIJZev5_-M8KToR6K6EtxQF_LU",
      "name": "Hindustan Petroleum Corporation Limited",
      "lat": 21.198131,
      "lng": 81.311681,
      "address": "Khasara No 118, NH 6, Katulbod, Durg",
      "open_now": true
    },
    {
      "place_id": "ChIJFVjV1hc9KToROgUYPlXOOTo",
      "name": "Hindustan Petroleum Corporation Limited",
      "lat": 21.218211,
      "lng": 81.31762499999999,
      "address": "Ground Floor, Junwani Chowk, Smruti Nagar, Durg",
      "open_now": true
    },
    {
      "place_id": "ChIJ1T7EhVw9KToRs2VbHGFBU6Q",
      "name": "Hindustan Petroleum Corporation Limited",
      "lat": 21.218016,
      "lng": 81.312558,
      "address": "Khasra No 275/3, near Surya Treasure Island Mall, Junwani Road, Bhilai",
      "open_now": true
    },
    {
      "place_id": "ChIJLRBNDN49KToRzp0N0pv-TWQ",
      "name": "Manish Grocery",
      "lat": 21.199407,
      "lng": 81.3308007,
      "address": "Priyadarsani, west, Bhilai",
      "open_now": null
    },
    {
      "place_id": "ChIJ9wgwdtQ8KToR8SSybgjmR0s",
      "name": "Hindustan Petroleum Corporation Limited",
      "lat": 21.1985545,
      "lng": 81.3348733,
      "address": "Ground Floor, Infront of Maharan Pratap, Garage Road, Sector 7, Durg",
      "open_now": true
    },
    {
      "place_id": "ChIJA7-THgA9KToR_ptHpSbL1MM",
      "name": "IndianOil",
      "lat": 21.2175193,
      "lng": 81.3308807,
      "address": "Ground Floor, Avanti Bai Chowk, near Surya Mall, Bhilai",
      "open_now": true
    },
    {
      "place_id": "ChIJDSIi_qg9KToRocBHRY6Iehc",
      "name": "Rajesh petrol pump",
      "lat": 21.2121913,
      "lng": 81.29311369999999,
      "address": "676V+V6H, Durg - Bemetara Road, Sikola Basti, Durg",
      "open_now": null
    },
    {
      "place_id": "ChIJq3uLrdUjKToRsH6ScIL69fg",
      "name": "IndianOil",
      "lat": 21.20597099999999,
      "lng": 81.42571029999999,
      "address": "NH 6, 3, Bajrang para, Bhilai",
      "open_now": true
    },
    {
      "place_id": "ChIJP4e3X4IhKToRWfM2-44lHEg",
      "name": "Hindustan Petroleum Corporation Limited",
      "lat": 21.211739,
      "lng": 81.43615799999999,
      "address": "Ground Floor, Sirsha chowk, near Sirsa Gate, Umda Road, Bhilai",
      "open_now": true
    },
    {
      "place_id": "ChIJbbfoTR8iKToRyGV4lsGoMg8",
      "name": "Hindustan Petroleum Corporation Limited",
      "lat": 21.234077,
      "lng": 81.42262199999999,
      "address": "Ground Floor Aklordih, Road No 3, Hathkhoj",
      "open_now": true
    },
    {
      "place_id": "ChIJNW7hifUhKToRmrk2dSs7Yhk",
      "name": "Maruti Petroleum Bhilai Umda Bharat Petroleum",
      "lat": 21.2370977,
      "lng": 81.4280675,
      "address": "Bhilai Marshalling Yard, Charoda",
      "open_now": true
    },
    {
      "place_id": "ChIJoRKbAEQiKToR0n0TYBUZM0c",
      "name": "IndianOil",
      "lat": 21.225729,
      "lng": 81.40024,
      "address": "Ground Floor, Hathkhoj Transport Ngr, Heavy Indl Area,I E Bhilai, Bhilai",
      "open_now": true
    },
    {
      "place_id": "ChIJydBn0tLsKzoRB0FsTPWDYBc",
      "name": "IndianOil - SWAGAT",
      "lat": 21.2078367,
      "lng": 81.4334997,
      "address": "Rajnandgaon, Ground Floor NH 6, GE Road, Bagh, Nadi, Bagnadi",
      "open_now": true
    },
    {
      "place_id": "ChIJcZQCwp4hKToRmh9CNkcKDeU",
      "name": "Monu Petrol Pump",
      "lat": 21.215,
      "lng": 81.44610000000002,
      "address": "6C8W+2C5, Raipur-Bhilai-Durg Expressway Road (NH6), Bhilai Marshalling Yard, Bhilai",
      "open_now": true
    },
    {
      "place_id": "ChIJ9er1RswhKToRWpTc-HoEyKk",
      "name": "Hindustan Petroleum Corporation Limited",
      "lat": 21.215933,
      "lng": 81.446176,
      "address": "Ground Floor, NH 6, Durg Raipur Road, Charoda, Durg",
      "open_now": true
    },
    {
      "place_id": "ChIJS8KnoB8iKToRgSAjaEVC8O8",
      "name": "IndianOil",
      "lat": 21.23480099999999,
      "lng": 81.425101,
      "address": "Ground Floor, Abhanpur, Tekari-2",
      "open_now": true
    },
    {
      "place_id": "ChIJO01YsEQhKToRj-BlSWuEMno",
      "name": "IndianOil",
      "lat": 21.17966,
      "lng": 81.439138,
      "address": "Ground Floor Somni, Industrial Estate Bhilai",
      "open_now": true
    },
    {
      "place_id": "ChIJ7e5KMIAjKToRA9W13dNoomc",
      "name": "Reliance Petroleum",
      "lat": 21.23551,
      "lng": 81.41416199999999,
      "address": "No 46, Heavy Industrial Area Hathkhoj, Bhilai",
      "open_now": true
    },
    {
      "place_id": "ChIJowLDR0EiKToRi2JWcTDTZEI",
      "name": "Reliance Petrol Pump",
      "lat": 21.2268,
      "lng": 81.40169999999999,
      "address": "Hathkhoj",
      "open_now": true
    },
    {
      "place_id": "ChIJf2GooEAjKToR9F0Paj8dHDU",
      "name": "ATUL OXYGEN COMPANY",
      "lat": 21.2281949,
      "lng": 81.3866812,
      "address": "28/B, Light Industrial Area, Bhilai",
      "open_now": true
    },
    {
      "place_id": "ChIJXW1cbdPfKDoRgtsnwUvI3dE",
      "name": "BPCL Petrol Pump",
      "lat": 21.2559798,
      "lng": 81.55767159999999,
      "address": "National Highway 6, Tatibandh, Raipur",
      "open_now": true
    },
    {
      "place_id": "ChIJ68cSDubfKDoRxwDxZhB0LvE",
      "name": "Bharat Petroleum",
      "lat": 21.251445,
      "lng": 81.53281799999999,
      "address": "Kumhari, Raipur, NH-6, Armori Bhandara Highway, Raipur, Raipur",
      "open_now": true
    },
    {
      "place_id": "ChIJf--3nPDfKDoRI2iypSw_KJs",
      "name": "Bharat Petroleum Petrol / CNG",
      "lat": 21.2496278,
      "lng": 81.523213,
      "address": "Raipur-Bhilai-Durg Expressway Road (NH6), Ward Number 15, Kumhari, Bhilai",
      "open_now": null
    },
    {
      "place_id": "ChIJM0643D_eKDoRi_vdmf4LiUg",
      "name": "Bharat Petroleum R. B. DIESELS",
      "lat": 21.24261809999999,
      "lng": 81.5809161,
      "address": "Amanaka, Raipur",
      "open_now": null
    },
    {
      "place_id": "ChIJ03xA0cLfKDoR22-YyKTtIXY",
      "name": "Bharat Petroleum, Petrol Pump -Vimal Transport",
      "lat": 21.2496895,
      "lng": 81.5432874,
      "address": "KUMHARI (NH-6), DURG",
      "open_now": null
    },
    {
      "place_id": "ChIJKfWl4-XfKDoRnucC0pXRSy4",
      "name": "Jio-bp",
      "lat": 21.2513028,
      "lng": 81.5320844,
      "address": "Ground Floor, Opposite Yug Bodh Prakashan, Nh 6, Kumhari",
      "open_now": true
    },
    {
      "place_id": "ChIJayEB7uXfKDoRUqE3bOyJqds",
      "name": "IndianOil",
      "lat": 21.2511943,
      "lng": 81.531207,
      "address": "Ground Floor, Dhamdha, Kumhari",
      "open_now": true
    },
    {
      "place_id": "ChIJJ67LfSzeKDoRDEg0l1m2A3g",
      "name": "IndianOil",
      "lat": 21.2565676,
      "lng": 81.56251549999999,
      "address": "Ground Floor, Tatibandh, Raipur",
      "open_now": true
    },
    {
      "place_id": "ChIJP6jmkR3fKDoRhY85ZAqppqE",
      "name": "Jai Siddhivinayak Petroleum",
      "lat": 21.2586913,
      "lng": 81.5663538,
      "address": "N.H.53,Near Bajipura Sumul Daan Factory, Titva (Bajipura), Ta-Valod,Di",
      "open_now": null
    },
    {
      "place_id": "ChIJb2GRnrPfKDoRrjQQ1dH2who",
      "name": "Hindustan Petroleum Corporation Limited",
      "lat": 21.258191,
      "lng": 81.56696099999999,
      "address": "Ground Floor, Ring Road, Chowk, Tatibandh, Raipur",
      "open_now": true
    },
    {
      "place_id": "ChIJK-t_aQDhKDoRSlo_s1B8RMg",
      "name": "Induria Fuels CG",
      "lat": 21.2690109,
      "lng": 81.564864,
      "address": "7H97+JW5, Tatibandh, Raipur",
      "open_now": true
    },
    {
      "place_id": "ChIJiTb-_CfeKDoRBJx401u5nFQ",
      "name": "IndianOil",
      "lat": 21.263508,
      "lng": 81.570854,
      "address": "Ring Road Number 2, Tatibandh, Durg",
      "open_now": true
    },
    {
      "place_id": "ChIJ6bVvEqrfKDoRFOYXpmVHYsM",
      "name": "Hindustan Petroleum Corporation Limited",
      "lat": 21.25986559999999,
      "lng": 81.5754541,
      "address": "Ground Floor, Apollo pharmacy line, near Bharat Mata School, MIG-22, Great Eastern Road, Shri Shanti Nath Nagar, Tatibandh, Raipur",
      "open_now": true
    },
    {
      "place_id": "ChIJRzz1GwDfKDoRn6PJ4CIdpTQ",
      "name": "BHAV SINGH THAKUR FUELS",
      "lat": 21.2489404,
      "lng": 81.5788103,
      "address": "6HXH+HGF, Sarona",
      "open_now": null
    },
    {
      "place_id": "ChIJ3dbCIHrfKDoRkZpOmmC81yA",
      "name": "Jio BP Ring Road 1",
      "lat": 21.244863,
      "lng": 81.57887699999999,
      "address": "6HWH+4FX, Raipur",
      "open_now": true
    },
    {
      "place_id": "ChIJ6forlZnfKDoRvnNkuaZNxsI",
      "name": "Bharat Petroleum, Petrol Pump -Gulab Thakur Fuel Station",
      "lat": 21.2432605,
      "lng": 81.57964570000001,
      "address": "RR1 SARONA,WALFORD CITY SI, Raipur",
      "open_now": true
    },
    {
      "place_id": "ChIJ0RQbZL3hKDoRXbgKywPXs9Y",
      "name": "Bharat Petroleum, Petrol Pump -Oberoi Freight Carriers",
      "lat": 21.2663763,
      "lng": 81.578937,
      "address": "SONDONGRI",
      "open_now": null
    },
    {
      "place_id": "ChIJeZGD7YzfKDoRc-VOybd28cg",
      "name": "Hindustan Petroleum Corporation Limited",
      "lat": 21.243908,
      "lng": 81.58008099999999,
      "address": "Ground Floor, Ring Road Number 1, Sarona",
      "open_now": true
    },
    {
      "place_id": "ChIJD0-JHFDfKDoRD93NqXZ7HLE",
      "name": "IndianOil",
      "lat": 21.2508075,
      "lng": 81.5833983,
      "address": "Ground Floor, Doomar Talab Thana Road, Raipur",
      "open_now": true
    },
    {
      "place_id": "ChIJxUiKmbnfKDoRbSV063QUNnE",
      "name": "Hindustan Petroleum Corporation Limited",
      "lat": 21.260371,
      "lng": 81.58308099999999,
      "address": "Ground Floor Portico, near Hotel Sarovar, Hirapur Road, Tatibandh, Raipur",
      "open_now": true
    },
    {
      "place_id": "ChIJs4dUK_7cKDoRLAOKdt0962c",
      "name": "Bharat Petroleum Petrol",
      "lat": 21.2202664,
      "lng": 81.6499595,
      "address": "No.1, Dhamtari Road, Pachpedi Naka, Raipur",
      "open_now": null
    },
    {
      "place_id": "ChIJyzm6IdncKDoRlmiR0wBMkmo",
      "name": "IndianOil",
      "lat": 21.2265732,
      "lng": 81.6501869,
      "address": "Ground Floor, Amlidih, Raipur",
      "open_now": true
    },
    {
      "place_id": "ChIJc1_osQPdKDoRsbR_z1OTeTI",
      "name": "Pujari Fuels",
      "lat": 21.2244172,
      "lng": 81.6548407,
      "address": "Ashoka millenium, Ring Road Number 1, Beside, Raipur",
      "open_now": true
    },
    {
      "place_id": "ChIJT0ztRwPdKDoRgKayFSi0xAo",
      "name": "Shanti HP Gas Agency",
      "lat": 21.2257014,
      "lng": 81.6574722,
      "address": "Shopno B3, G K Milestones, New Rajendra Nagar, Raipur",
      "open_now": true
    },
    {
      "place_id": "ChIJd1aSShrdKDoRq4nxr6OUXc4",
      "name": "IndianOil",
      "lat": 21.230811,
      "lng": 81.662498,
      "address": "Pachpedi Naka, Telibandha, Purena",
      "open_now": true
    },
    {
      "place_id": "ChIJYTcZZpjdKDoRQXZgLVar3eQ",
      "name": "Motorists Paradise PETROL PUMP",
      "lat": 21.2449953,
      "lng": 81.6385361,
      "address": "Moudhapara, Raipur",
      "open_now": null
    },
    {
      "place_id": "ChIJKdT7y5jdKDoRoRvW1ul5kHw",
      "name": "HP Petrol Pump - Chawla Service Station",
      "lat": 21.2456864,
      "lng": 81.64060359999999,
      "address": "OPP. Secretariate Shastri Chowk",
      "open_now": true
    },
    {
      "place_id": "ChIJ42uY1tvdKDoRg3q2Kut96tY",
      "name": "Hindustan Petroleum Corporation Limited",
      "lat": 21.233921,
      "lng": 81.609241,
      "address": "Ground Floor, Link Road, Mahadev Ghat Road, Raipur",
      "open_now": true
    },
    {
      "place_id": "ChIJYbJ7A-jdKDoRetdX40gmD1g",
      "name": "FR Fuels Bharat Petroleum",
      "lat": 21.243007,
      "lng": 81.615011,
      "address": "opposite Raj Kumar College, Great Eastern Road, Raipur",
      "open_now": true
    },
    {
      "place_id": "ChIJh39Z5HneKDoRD1sK9HtehZg",
      "name": "Hindustan Petroleum Corporation Limited",
      "lat": 21.229542,
      "lng": 81.5989029,
      "address": "Khasra No 631/11, PH, 104, Mahadev Ghat Road, Raipura, Raipur",
      "open_now": true
    },
    {
      "place_id": "ChIJJw3lCFjdKDoRj2b6cFY5zGc",
      "name": "IndianOil",
      "lat": 21.2419533,
      "lng": 81.6683058,
      "address": "Ground Floor, Mowa, Raipur",
      "open_now": true
    },
    {
      "place_id": "ChIJGUrLkpv4VRERVcMMAvyYNZ4",
      "name": "IndianOil",
      "lat": 21.2207069,
      "lng": 81.5928321,
      "address": "Ground Floor, Raipura, Raipur",
      "open_now": true
    },
    {
      "place_id": "ChIJI7Kxl6vdKDoRlYkjUFtA4qg",
      "name": "IndianOil",
      "lat": 21.2241029,
      "lng": 81.6439481,
      "address": "Ground Floor, near Pujari Park Road, Tikrapara, Raipur",
      "open_now": true
    },
    {
      "place_id": "ChIJ_UC_7__cKDoRYJpEtIEBi2c",
      "name": "Hindustan Petroleum Corporation Limited",
      "lat": 21.2202201,
      "lng": 81.6487772,
      "address": "Ground Floor, Tikrapara, Raipur",
      "open_now": true
    },
    {
      "place_id": "ChIJ51-xKGjdKDoReD174oRINq0",
      "name": "Hindustan Petroleum Corporation Limited",
      "lat": 21.216851,
      "lng": 81.624415,
      "address": "Ground Floor, Ring Road Number 1, Sunder Nagar, Bhatagaon, Raipur",
      "open_now": true
    },
    {
      "place_id": "ChIJ51KWFfvdKDoR90HD11OvHik",
      "name": "Hindustan Petroleum Corporation Limited",
      "lat": 21.22083,
      "lng": 81.649219,
      "address": "Ground Floor, NH 43, Ring Road Number 1, Chowk, Tikrapara",
      "open_now": true
    },
    {
      "place_id": "ChIJ_canHlncKDoRqpCEjrCTHS0",
      "name": "IndianOil",
      "lat": 21.205009,
      "lng": 81.64407299999999,
      "address": "Ground Floor, Boriyakhurd",
      "open_now": true
    },
    {
      "place_id": "ChIJde5O7vLdKDoRiuFEOk3N1Yo",
      "name": "Hindustan Petroleum Corporation Limited",
      "lat": 21.228172,
      "lng": 81.637056,
      "address": "Ground Floor, Jal Grih Marg, Tikrapara, Raipur",
      "open_now": true
    },
    {
      "place_id": "ChIJl5A8BK_dKDoR-5lTgHcAfH0",
      "name": "IndianOil",
      "lat": 21.22908809999999,
      "lng": 81.63984119999999,
      "address": "Ground Floor, Old Dhamtari Road, Tikrapara, Raipur",
      "open_now": true
    },
    {
      "place_id": "ChIJQwFt3zTdKDoRB5r93fRr_uY",
      "name": "Hindustan Petroleum Corporation Limited",
      "lat": 21.213606,
      "lng": 81.622267,
      "address": "Ground Floor, Jal Grih Marg, Bhatagaon, Raipur",
      "open_now": true
    },
    {
      "place_id": "ChIJpb0FhjjCKDoR62bcfBxdIgs",
      "name": "IndianOil",
      "lat": 21.240801,
      "lng": 81.757701,
      "address": "Ground Floor, Tulsi -2",
      "open_now": true
    },
    {
      "place_id": "ChIJUduu7zjCKDoRYDfB0TW-SxY",
      "name": "Hindustan Petroleum Corporation Limited",
      "lat": 21.2420524,
      "lng": 81.7582307,
      "address": "Ground Floor, Ring Road Number 3, Tulsi -2",
      "open_now": true
    },
    {
      "place_id": "ChIJMT32GCvCKDoRsHpvG-zkZ1M",
      "name": "Hindustan Petroleum",
      "lat": 21.2278349,
      "lng": 81.7777325,
      "address": "NH-6, Nagpur - Bhandara - Rajnandgaon - Raipur Highway, Mandir Hasaud",
      "open_now": true
    },
    {
      "place_id": "ChIJwXFLyn3CKDoRNdSeokvko3I",
      "name": "Hindustan Petroleum Corporation Limited",
      "lat": 21.2651904,
      "lng": 81.73764829999999,
      "address": "Khasra No 120/2, 121/1 123/1 & 124/1, Ring Road Number 3, Pirda-2",
      "open_now": true
    },
    {
      "place_id": "ChIJow8cjnnDKDoRCoQAPN33VhU",
      "name": "IndianOil",
      "lat": 21.2329151,
      "lng": 81.75496609999999,
      "address": "Ground Floor, Raju Dhaba, Mandir Hasaud",
      "open_now": true
    },
    {
      "place_id": "ChIJ0XDeiDjCKDoRW23gWmbDbVg",
      "name": "In Oil",
      "lat": 21.2411219,
      "lng": 81.7576601,
      "address": "India",
      "open_now": null
    },
    {
      "place_id": "ChIJCwUUMvrCKDoRW87KMPjrEhM",
      "name": "HP PETROL PUMP - JAI MATADI SERVICE STATION",
      "lat": 21.2338,
      "lng": 81.72872,
      "address": "HPC Dealer NH 6, Mandir Hsaud Road, Telibandha, Dist. (CG), Raipur",
      "open_now": true
    },
    {
      "place_id": "ChIJ781tPfrCKDoRU55RtiPoVLc",
      "name": "Hindustan Petroleum Corporation Limited",
      "lat": 21.234707,
      "lng": 81.72867099999999,
      "address": "Ground Floor, NH 53, Serikhedi, Raipur",
      "open_now": true
    },
    {
      "place_id": "ChIJ28QOGSvCKDoRvzn_WuIs9hY",
      "name": "Hindustan Petroleum Corporation Limited",
      "lat": 21.2286401,
      "lng": 81.7754801,
      "address": "Ground Floor, opposite Railway Station, Mandir Hasaud",
      "open_now": true
    },
    {
      "place_id": "ChIJO1AXvvrCKDoR3jyrn4c03Ac",
      "name": "IndianOil - SWAGAT",
      "lat": 21.235047,
      "lng": 81.725235,
      "address": "Ground Floor, Chedi Khedi, Raipur",
      "open_now": true
    },
    {
      "place_id": "ChIJ8bF4FADDKDoRK08PR6D7SAo",
      "name": "Rathore Fuel",
      "lat": 21.21004,
      "lng": 81.7581683,
      "address": "6Q65+27, Atal Nagar-Nava Raipur",
      "open_now": null
    },
    {
      "place_id": "ChIJCV2NAUfDKDoRnus36aaY4Hs",
      "name": "Hindustan Petroleum Corporation Limited",
      "lat": 21.2504771,
      "lng": 81.7732814,
      "address": "Ispat Plant, Ground Floor Monnet, Road, Near, Kurud-2",
      "open_now": true
    },
    {
      "place_id": "ChIJ2Uuq_ELBKDoRfs6SlKoHkJc",
      "name": "Rama HP Fuels",
      "lat": 21.2275295,
      "lng": 81.77907569999999,
      "address": "Memra saraipali, Kolkata - Mumbai Highway, Kolkata",
      "open_now": null
    },
    {
      "place_id": "ChIJ6SgoiXbBKDoRZ_U3X5jYIuY",
      "name": "Hindustan Petroleum Corporation Limited",
      "lat": 21.22687389999999,
      "lng": 81.7821428,
      "address": "Khasra No 318, near HP LPG Filling Plant, 2 & 319/2 & 320/1 NH 6, Mandir Hasaud",
      "open_now": true
    },
    {
      "place_id": "ChIJvUjdDX_BKDoRw_1fG7519ng",
      "name": "HPCL RAIPUR",
      "lat": 21.2254289,
      "lng": 81.78202999999999,
      "address": "6QGJ+5RC, National Highway 59, Raipur",
      "open_now": null
    },
    {
      "place_id": "ChIJF4agZn_BKDoR0Ok-Xg9iTM8",
      "name": "HP PETROL PUMP - BHAGAT SERVICE CENTRE",
      "lat": 21.226806,
      "lng": 81.78246399999999,
      "address": "Near HP LPG Filling Plant, NH -6,, Mandir Hasaud",
      "open_now": true
    },
    {
      "place_id": "ChIJjXvOJ1DDKDoRCjAUUd3AcL4",
      "name": "Hindustan Petroleum Corporation Limited",
      "lat": 21.267745,
      "lng": 81.758782,
      "address": "Ground Floor, Tulsi -2",
      "open_now": true
    },
    {
      "place_id": "ChIJS_rJEADDKDoR4hs8PTpe398",
      "name": "Awas Chowk , Atal Nagar Nava Raipur",
      "lat": 21.1983461,
      "lng": 81.77006779999999,
      "address": "5QXC+82, Atal Nagar-Nava Raipur",
      "open_now": null
    },
    {
      "place_id": "ChIJAxrtHHbBKDoRclH8ECfdR18",
      "name": "IndianOil - SWAGAT",
      "lat": 21.2276684,
      "lng": 81.79439769999999,
      "address": "Ground Floor NH 53, Mandir Hasaud, Chowk, Chhatauna",
      "open_now": true
    },
    {
      "place_id": "ChIJGV5r72zDKDoRGHNPpPKoMkc",
      "name": "Hindustan Petroleum Corporation Limited",
      "lat": 21.198415,
      "lng": 81.771818,
      "address": "Ground Floor, near BRT Depot Naya, Naya Raipur Marg, Raipur",
      "open_now": true
    },
    {
      "place_id": "ChIJyQnpLF69KDoRq8u3NbHwwAY",
      "name": "BPC-Shri Ram Fuels",
      "lat": 21.1967657,
      "lng": 81.95757739999999,
      "address": "5XW5+P24, Main Road, Arang",
      "open_now": null
    },
    {
      "place_id": "ChIJieyP-qi-KDoRRo1zNAyfSaM",
      "name": "IndianOil",
      "lat": 21.197591,
      "lng": 81.950197,
      "address": "Ground Floor, Arang Road, Baihar",
      "open_now": true
    },
    {
      "place_id": "ChIJZwDzsue_KDoRMYYC4_HzHqI",
      "name": "Hindustan Petroleum Corporation Limited",
      "lat": 21.198918,
      "lng": 81.938621,
      "address": "Ground Floor, NH 53, Raipur Arang, Road, Rasni",
      "open_now": true
    },
    {
      "place_id": "ChIJowXf_XS8KDoRBqo0Mc8WlAg",
      "name": "Hindustan Petroleum Corporation Limited",
      "lat": 21.191513,
      "lng": 81.98145699999999,
      "address": "Ground Floor NH 6, Raipur Saraipali, Road, Arang",
      "open_now": true
    },
    {
      "place_id": "ChIJZW4B98e-KDoRlkQ3c1RGguI",
      "name": "IndianOil",
      "lat": 21.199777,
      "lng": 81.93844899999999,
      "address": "Ground Floor, Arang",
      "open_now": true
    },
    {
      "place_id": "ChIJMcaWJza9KDoRTW33rGxIRBc",
      "name": "Bharat Petroleum, Petrol Pump -Yuvraj Filling Station",
      "lat": 21.18908,
      "lng": 81.9859239,
      "address": "Arang Road",
      "open_now": null
    },
    {
      "place_id": "ChIJd4FDfXi7KDoRcDEquFbSdCk",
      "name": "Preet fuels petrol pump",
      "lat": 21.1813193,
      "lng": 81.99772730000001,
      "address": "Champaran Arang Road, Paragaon",
      "open_now": true
    },
    {
      "place_id": "ChIJH2rvvOC9KDoRgUa4AfRpZuM",
      "name": "Bharat Petroleum, Petrol Pump -BP-Rasani",
      "lat": 21.2020312,
      "lng": 81.9189126,
      "address": "RASANI, RAIPUR",
      "open_now": true
    },
    {
      "place_id": "ChIJi29GMLOkKDoRtiifVde48mA",
      "name": "Hindustan Petroleum Corporation Limited",
      "lat": 21.176791,
      "lng": 82.041141,
      "address": "Ground Floor, Ghoradi, Birkoni",
      "open_now": true
    },
    {
      "place_id": "ChIJLzHVGaKkKDoRwmjAhZw6rm0",
      "name": "IndianOil",
      "lat": 21.1881474,
      "lng": 82.06287189999999,
      "address": "NATIONAL HIGHWAY 06, Birkoni",
      "open_now": true
    },
    {
      "place_id": "ChIJ7az7XtylKDoRshGWKiZ_vDE",
      "name": "Ganpati Fuels - Jio BP Petrol Pump",
      "lat": 21.1869177,
      "lng": 82.088336,
      "address": "Ganpati fuels, near Birkoni, opposite Agriculture University, National Highway 53, Industrial Area, Kanpa",
      "open_now": true
    },
    {
      "place_id": "ChIJ_____6KkKDoR9bQnvPjbnHc",
      "name": "Bhavesh Mobaile Shop Petrol Pump",
      "lat": 21.18430559999999,
      "lng": 82.0597816,
      "address": "53M5+PWF, Birkoni",
      "open_now": true
    },
    {
      "place_id": "ChIJYZhPbRmlKDoRHELDHvwjg0E",
      "name": "R G Fuels-BPCL",
      "lat": 21.1771572,
      "lng": 82.0454522,
      "address": "CSIDC INDUSTRIAL AREA, Birkoni",
      "open_now": true
    },
    {
      "place_id": "ChIJ6_xjFGOlKDoRa8urPIM0d4Q",
      "name": "IndianOil",
      "lat": 21.17677609999999,
      "lng": 82.0441908,
      "address": "NH 6, Bhawanipatna - Raipur Highway, Birkoni",
      "open_now": true
    },
    {
      "place_id": "ChIJrf0hLrOkKDoRYxD5FH5SCgQ",
      "name": "HP PETROL PUMP - BHAVESH AUTO CARE",
      "lat": 21.176273,
      "lng": 82.040936,
      "address": "Vill Birkoni Ghoradi, Raipur",
      "open_now": true
    },
    {
      "place_id": "ChIJdUn-Q1cXJjoRKjYt2CbTSls",
      "name": "IndianOil",
      "lat": 21.219218,
      "lng": 82.392933,
      "address": "Ground Floor Jhalap, Patewa, Achanakpur",
      "open_now": true
    },
    {
      "place_id": "ChIJbbhd8XcZJjoRh5R_gDCFtK4",
      "name": "Hindustan Petroleum Corporation Limited",
      "lat": 21.2196683,
      "lng": 82.36233829999999,
      "address": "Ground Floor, near Raithum Chowk, Raithum Road, Turidih",
      "open_now": true
    },
    {
      "place_id": "ChIJX2Tqqk8bJjoRmHImHuclgtY",
      "name": "Singhanpur indane gas",
      "lat": 21.1939563,
      "lng": 82.3655311,
      "address": "59V8+H6J, Singhanpur",
      "open_now": null
    },
    {
      "place_id": "ChIJo-4IYx0aJjoR52kKzWjW0y0",
      "name": "Hindustan Petroleum Corporation Limited",
      "lat": 21.207563,
      "lng": 82.37589299999999,
      "address": "Khasra No 439/3, Bagbahra Road, Chindpan, Jhalap",
      "open_now": true
    },
    {
      "place_id": "ChIJxUbnUlYZJjoRSYE7Fezrjgs",
      "name": "Petrol Pump Torala",
      "lat": 21.2206989,
      "lng": 82.30611259999999,
      "address": "68C4+7CH, Torla",
      "open_now": null
    },
    {
      "place_id": "ChIJLRT_EPkUJjoROzUgVKq0Hbw",
      "name": "IndianOil",
      "lat": 21.2537079,
      "lng": 82.52207949999999,
      "address": "Ground Floor, NH 6, Pithora Road, Patewa",
      "open_now": true
    },
    {
      "place_id": "ChIJJU1Fa_kUJjoR7F5oApZwBdI",
      "name": "Sanjay Service Centre.",
      "lat": 21.2535666,
      "lng": 82.5223298,
      "address": "National Highway 6, Pithora",
      "open_now": null
    },
    {
      "place_id": "ChIJEVZBm_IVJjoRKXQbiBr7t0M",
      "name": "Bharat Petroleum Petrol Pump , SHRI KALKI PETROLEUM",
      "lat": 21.254407,
      "lng": 82.5296728,
      "address": "VILL: NANDELI, NANDELI-KHARSIA RDTEH:, Kharsia",
      "open_now": true
    },
    {
      "place_id": "ChIJHcI0RwAVJjoRr6dW3p3klnM",
      "name": "Jio bp Petrol Pump (Pithora)",
      "lat": 21.2556584,
      "lng": 82.5342368,
      "address": "53, National Highway, Pithora",
      "open_now": true
    },
    {
      "place_id": "ChIJ9_Z7QAAVJjoR9gi8zbg70oU",
      "name": "Kavita fuels",
      "lat": 21.2220625,
      "lng": 82.5115625,
      "address": "6GC6+RJ, janghora",
      "open_now": true
    },
    {
      "place_id": "ChIJs6FWLwAVJjoRFCzZ2L9xntQ",
      "name": "Gambhir fuels",
      "lat": 21.25584319999999,
      "lng": 82.5344799,
      "address": "7G4M+8QQ, Rajasewai",
      "open_now": true
    },
    {
      "place_id": "ChIJa6Vw-gcXJjoRYQLBcOvhcrk",
      "name": "Hindustan Petroleum Corporation Limited",
      "lat": 21.235527,
      "lng": 82.4608521,
      "address": "Ground Floor, NH 53, Jampali",
      "open_now": true
    },
    {
      "place_id": "ChIJg5CXIAAXJjoRMhh6R5VS-dk",
      "name": "Jampali",
      "lat": 21.2346601,
      "lng": 82.46010260000001,
      "address": "6FM6+V29",
      "open_now": true
    },
    {
      "place_id": "ChIJRyGJrr1pJjoRbh7gm7i-7PU",
      "name": "Hindustan Petroleum Corporation Limited",
      "lat": 21.2836377,
      "lng": 82.67221289999999,
      "address": "PH No 46, Khasra No 436, NH 6, Pithora, Sankra",
      "open_now": true
    },
    {
      "place_id": "ChIJ6UxlG6FrJjoROzk2FeyqWPg",
      "name": "Bhaart petroleum bpcl - pithora highway service",
      "lat": 21.2854444,
      "lng": 82.6297721,
      "address": "7JPH+5WC, Kurmadih",
      "open_now": true
    },
    {
      "place_id": "ChIJe5Bu2hFBKzoRUcoAbaJoAHg",
      "name": "IndianOil",
      "lat": 21.2829177,
      "lng": 82.6255714,
      "address": "Ground Floor, Pithora Saraipali Road, National Highway 53, Loharakot",
      "open_now": true
    },
    {
      "place_id": "ChIJx0L6XpppJjoR-CnEGRacVHU",
      "name": "Shri Krishna Fuels KSK",
      "lat": 21.2779893,
      "lng": 82.6620521,
      "address": "7MH6+5RV, Bijepur",
      "open_now": null
    },
    {
      "place_id": "ChIJB-6dzZNpJjoR3Dmbk4Rhg_4",
      "name": "IndianOil",
      "lat": 21.27822,
      "lng": 82.66222549999999,
      "address": "Ground Floor, Pithora, Sankara",
      "open_now": true
    },
    {
      "place_id": "ChIJi_NDLgBpJjoR1aCtrJkl5HQ",
      "name": "Pithora",
      "lat": 21.2817046,
      "lng": 82.6673644,
      "address": "7MM8+5VR, jonk, संकरा",
      "open_now": null
    },
    {
      "place_id": "ChIJDy_tTzprJjoRVHsaNkt42EU",
      "name": "Hindustan Petroleum Corporation Limited",
      "lat": 21.274318,
      "lng": 82.606414,
      "address": "Ground Floor, Memra",
      "open_now": true
    },
    {
      "place_id": "ChIJnTgOCCdnJjoRV3bQokiuZiQ",
      "name": "Phuljhar Highway Station - Bharat Petroleum",
      "lat": 21.276284,
      "lng": 82.807447,
      "address": "Mahasamund NH-6, Bhawanipatna - Raipur Highway, Basna",
      "open_now": true
    },
    {
      "place_id": "ChIJvV22bSFnJjoRBvqMYpwj-p4",
      "name": "Shree Shyam Fuels BPCL",
      "lat": 21.2698917,
      "lng": 82.77706429999999,
      "address": "near Gill Dhaba, National Highway 53, Salhe Tar",
      "open_now": true
    },
    {
      "place_id": "ChIJs3gdf_tnJjoR-UcZWz4uv-g",
      "name": "HP GANESH PETROL PUMP",
      "lat": 21.271183,
      "lng": 82.751556,
      "address": "Ground Floor, Sawitri",
      "open_now": true
    },
    {
      "place_id": "ChIJ0YzGt9RnJjoRVyWawLnVmj0",
      "name": "Shri Krishna Fuels",
      "lat": 21.3072698,
      "lng": 82.7967974,
      "address": "Ground Floor, Shivrinarayan Road, Basna",
      "open_now": true
    },
    {
      "place_id": "ChIJj3R9zbFhJjoR9R9zoCHCzbY",
      "name": "IndianOil",
      "lat": 21.2740164,
      "lng": 82.8275536,
      "address": "Ground Floor, Padampur Road, Basna",
      "open_now": true
    },
    {
      "place_id": "ChIJU2NNY2dhJjoREVnP6R-OrMo",
      "name": "Bharat Petroleum, Petrol Pump -Phuljher Highway Station",
      "lat": 21.280492,
      "lng": 82.8328746,
      "address": "BASNA, MAHASAMUND",
      "open_now": true
    },
    {
      "place_id": "ChIJMeAdcqeMJjoRO6FF4gKi1vo",
      "name": "IndianOil",
      "lat": 21.3139526,
      "lng": 82.9943765,
      "address": "8X7V+RF4, Ground Floor Saraipali, NH 6, Mahasamund,Amarkot, Saraipali",
      "open_now": true
    },
    {
      "place_id": "ChIJr4tIx5mLJjoRToKPo2yzLtM",
      "name": "TULSI FUEL BPCL",
      "lat": 21.3101875,
      "lng": 82.9850625,
      "address": "Lukapara",
      "open_now": true
    },
    {
      "place_id": "ChIJp599r_6NJjoRQTxiezRpwlw",
      "name": "Bharat Petroleum, Petrol Pump -Sohanlal Motilal",
      "lat": 21.3149749,
      "lng": 83.00212169999999,
      "address": "N.H 6, Saraipali",
      "open_now": true
    },
    {
      "place_id": "ChIJ_UGLAAz1JjoRwzURhfKGVGM",
      "name": "Hindustan Petroleum Corporation Limited",
      "lat": 21.316218,
      "lng": 83.01061399999999,
      "address": "Ground Floor, Old NH 6, Main Road, Kisdi, Saraipali",
      "open_now": true
    },
    {
      "place_id": "ChIJibQF_0KNJjoRz8Id1w_YNAY",
      "name": "Jagganath Petro Fuelss",
      "lat": 21.2872912,
      "lng": 83.00247019999999,
      "address": "Padampur Road, Arjunda",
      "open_now": true
    },
    {
      "place_id": "ChIJx4PFREyLJjoRxNwskUxjywE",
      "name": "IndianOil",
      "lat": 21.32486,
      "lng": 82.978934,
      "address": "Ground Floor Paterapali, Saraipali",
      "open_now": true
    },
    {
      "place_id": "ChIJ88si-CqLJjoRnLJbESIChvk",
      "name": "Jai Prahallad Petroleum",
      "lat": 21.3061202,
      "lng": 82.96521489999999,
      "address": "near MARUTI SKY, Jai Prahallad Petroleum NH53, near MARUTI SKY, SHOWROOM, GRAM, Harratar",
      "open_now": true
    },
    {
      "place_id": "ChIJ24LxMLmLJjoREOIis71MKB0",
      "name": "Hindustan Petroleum Corporation Limited",
      "lat": 21.3071661,
      "lng": 82.96478909999999,
      "address": "Ground Floor, Harratar",
      "open_now": true
    },
    {
      "place_id": "ChIJNSm_ZgCNJjoR-Qr9jFgsoBA",
      "name": "Shri jagannath fuels jhilmila",
      "lat": 21.3181081,
      "lng": 83.02217399999999,
      "address": "829C+6VV, Saraipali",
      "open_now": null
    },
    {
      "place_id": "ChIJK5lZE8WMJjoRfQGpCazGnEg",
      "name": "IndianOil",
      "lat": 21.3171807,
      "lng": 83.0237173,
      "address": "Ground Floor, Jhilmila",
      "open_now": true
    },
    {
      "place_id": "ChIJcRlrEV31JjoRIHP8rysDsv0",
      "name": "Hindustan Petroleum Corporation Limited",
      "lat": 21.344254,
      "lng": 82.985102,
      "address": "Khasra No 492/5, Bagaijor",
      "open_now": true
    },
    {
      "place_id": "ChIJEQSOKhKNJjoRgdQxktnLU2U",
      "name": "Shrinath fuels",
      "lat": 21.3097499,
      "lng": 83.0398668,
      "address": "825Q+VW, Darrabhatha",
      "open_now": true
    },
    {
      "place_id": "ChIJY2ngSwD1JjoRny1iwHhUIcQ",
      "name": "Yogesh Fuels",
      "lat": 21.3492091,
      "lng": 82.98261629999999,
      "address": "Saraipali Marg, Kendudhar",
      "open_now": true
    },
    {
      "place_id": "ChIJuSWWc32NJjoRuWpn637miy0",
      "name": "Hindustan Petroleum Corporation Limited",
      "lat": 21.294594,
      "lng": 83.07820099999999,
      "address": "Ground Floor, NH 53, Saraipali",
      "open_now": true
    },
    {
      "place_id": "ChIJWZVRMf2TJjoRvz-EYOzUAMo",
      "name": "Hindustan Petroleum Corporation Limited",
      "lat": 21.2962498,
      "lng": 83.0842854,
      "address": "Ground Floor, Chattigirola",
      "open_now": true
    },
    {
      "place_id": "ChIJI6wzdX2NJjoRp54UJbfZVrU",
      "name": "HP PETROL PUMP - AUTO CARE CENTRE",
      "lat": 21.294083,
      "lng": 83.0784537,
      "address": "Vill.- Bhothaldih, TAH Saraipalli National Highway NO. -6, Raipur",
      "open_now": true
    },
    {
      "place_id": "ChIJJQ8kmxO_JjoRpN_Q8m6TItM",
      "name": "BP-Arjunda, BPCL Petrol,CNG & EV Pump",
      "lat": 21.314903,
      "lng": 83.30882419999999,
      "address": "8875+XG8, Karalmal",
      "open_now": null
    },
    {
      "place_id": "ChIJETWZuOi_JjoRXejmdyzvj-E",
      "name": "IndianOil",
      "lat": 21.3095761,
      "lng": 83.3764833,
      "address": "Ground Floor, Madhupur, Bausenmura, Sohela",
      "open_now": true
    },
    {
      "place_id": "ChIJpQ-wgve4JjoRJylYGiVPMLY",
      "name": "IndianOil",
      "lat": 21.30950009999999,
      "lng": 83.3767001,
      "address": "Ground Floor, Sohela",
      "open_now": true
    },
    {
      "place_id": "ChIJWbhOhy-_JjoRzNLu-lRerNY",
      "name": "Bhopla Filling Station B P C L",
      "lat": 21.3051535,
      "lng": 83.32614629999999,
      "address": "Karalmal",
      "open_now": null
    },
    {
      "place_id": "ChIJZ1fAEkK_JjoRFUxw3zgJKjU",
      "name": "IndianOil",
      "lat": 21.3105001,
      "lng": 83.31840009999999,
      "address": "Ground Floor NH 6, Karalmal, Bausenmura, Sohela",
      "open_now": true
    },
    {
      "place_id": "ChIJQ5Eddxa_JjoRM7kwqmGG734",
      "name": "Bharat Petroleum, COCO Petrol Pump, BP-Karalmal",
      "lat": 21.312458,
      "lng": 83.3129841,
      "address": "KARALMAL, NH 6, BARGARH, BARGARH",
      "open_now": true
    },
    {
      "place_id": "ChIJDRF866LHJjoRDuSzSIYLog0",
      "name": "Bharat petroleum",
      "lat": 21.3454494,
      "lng": 83.3737237,
      "address": "89WF+6HJ, Rengali",
      "open_now": true
    },
    {
      "place_id": "ChIJE8qbyse5JjoRTvCG_cTpZcU",
      "name": "Bharat Petroleum, Petrol Pump -Udit Filling Station",
      "lat": 21.3027437,
      "lng": 83.3990437,
      "address": "NEAR SOHELA, GRINJAL, BARGARH, Bargarh",
      "open_now": true
    },
    {
      "place_id": "ChIJqf9K0iS5JjoRLipOIl1jJCg",
      "name": "Bharat Petroleum, Petrol Pump -BP-Arjunda",
      "lat": 21.296856,
      "lng": 83.3977164,
      "address": "BARGARH, ARJUNDA, NH 6, Bargarh",
      "open_now": true
    },
    {
      "place_id": "ChIJn9Q4YwBLIToRl8raxuzMMH4",
      "name": "Hindustan Petroleum Corporation Limited",
      "lat": 21.314091,
      "lng": 83.467579,
      "address": "Ground Floor, National Highway 53, Nagaon, Dus Mile Chowk",
      "open_now": true
    },
    {
      "place_id": "ChIJt7F7Zcu3JjoRUG7Vd5ZDPew",
      "name": "DEBTA FUELS - Bharat Petroleum - Petrol Pump",
      "lat": 21.3143125,
      "lng": 83.45893749999999,
      "address": "Dus Mile Chowk",
      "open_now": true
    },
    {
      "place_id": "ChIJo3GjrU21JjoRArbc3s5zOfc",
      "name": "HP Petrol Pump",
      "lat": 21.3385998,
      "lng": 83.58906979999999,
      "address": "8HQQ+CJP, NH 6, Sayan",
      "open_now": null
    },
    {
      "place_id": "ChIJbVc3fYVKIToRqsHQX1O6-wQ",
      "name": "Hindustan Petroleum Corporation Limited",
      "lat": 21.3428823,
      "lng": 83.62627479999999,
      "address": "Ground Floor, Gandhi Chowk, Bargarh",
      "open_now": true
    },
    {
      "place_id": "ChIJMXf5aYdKIToR6rhsR3u7bJY",
      "name": "IndianOil",
      "lat": 21.34760009999999,
      "lng": 83.634001,
      "address": "Ground Floor, NH 6, Bargarh Bazar, Bargarh",
      "open_now": true
    },
    {
      "place_id": "ChIJ_04gtlxLIToR9Wvl3i0zQQ0",
      "name": "Bulktainer Shipping Limited private Petrol Pump",
      "lat": 21.3363628,
      "lng": 83.5942381,
      "address": "8HPV+GMX, Bargarh",
      "open_now": null
    },
    {
      "place_id": "ChIJZQbHcwC1JjoRQO6ehMwU8s4",
      "name": "Shakti Fuel",
      "lat": 21.3387415,
      "lng": 83.58918709999999,
      "address": "8HQQ+GMM, Sayan",
      "open_now": null
    },
    {
      "place_id": "ChIJG_casU21JjoRLs-WxFP3KNg",
      "name": "IndianOil",
      "lat": 21.3379313,
      "lng": 83.5890545,
      "address": "Ground Floor, NH 6, Bargarh Bazar, Haldipali",
      "open_now": true
    },
    {
      "place_id": "ChIJRXk-ZU61JjoRQwtltLDXc4w",
      "name": "Hindustan Petroleum Corporation Limited",
      "lat": 21.338801,
      "lng": 83.586201,
      "address": "Ground Floor, NH 6, Haldipali",
      "open_now": true
    },
    {
      "place_id": "ChIJr3tznbO1JjoR5gwj_HIx-CM",
      "name": "Geeta Filling Station",
      "lat": 21.34047799999999,
      "lng": 83.5832271,
      "address": "8HRM+839, Sayan",
      "open_now": true
    },
    {
      "place_id": "ChIJMVmOZ6NKIToRvVSl8P_J80g",
      "name": "IndianOil",
      "lat": 21.3434001,
      "lng": 83.6085001,
      "address": "Ground Floor, near Bargarh Bazar, Chowk, Bhatli Road, Bargarh",
      "open_now": true
    },
    {
      "place_id": "ChIJC6TX6J5LIToReyuAFC9Uams",
      "name": "Sri Jagannath Energy Bay",
      "lat": 21.3252134,
      "lng": 83.6022899,
      "address": "NH-26, near DUMER PALI ROAD, ROAD, Ambapali Road, Bargarh",
      "open_now": null
    },
    {
      "place_id": "ChIJVfbFoqdKIToRWZEztSha3yY",
      "name": "HP Petrol Pump - Maa Santoshi Fuels",
      "lat": 21.3519453,
      "lng": 83.6047246,
      "address": "AT & PO- Dang, Bhatli Road, Deogaon",
      "open_now": true
    },
    {
      "place_id": "ChIJ1-gjQ6JLIToR6uJIvUgzy2w",
      "name": "DEBANSH GENTS SALOON",
      "lat": 21.33447,
      "lng": 83.6191585,
      "address": "Bargarh",
      "open_now": null
    },
    {
      "place_id": "ChIJtWwCMABLIToRtJyEuO5BUHs",
      "name": "Bharat petroleum",
      "lat": 21.3462723,
      "lng": 83.63017839999999,
      "address": "8JWJ+93Q, Bargarh",
      "open_now": null
    },
    {
      "place_id": "ChIJI_9F5iRLIToRwSCGhSlnmho",
      "name": "Bharat Petroleum, Petrol Pump -Radharani Fuels",
      "lat": 21.3488781,
      "lng": 83.63820369999999,
      "address": "NH6, BARGARH TOWN, BARGARH, Bargarh",
      "open_now": true
    },
    {
      "place_id": "ChIJnRXOaHW1JjoRh-vAi0bBhoQ",
      "name": "IndianOil",
      "lat": 21.3301183,
      "lng": 83.5504923,
      "address": "Ground Floor, NH 6, Gobindpur",
      "open_now": true
    },
    {
      "place_id": "ChIJE0BZmik2IToRfhpibeWPiDU",
      "name": "Hindustan Petroleum Corporation Limited",
      "lat": 21.3605441,
      "lng": 83.71366689999999,
      "address": "Ground Floor, NH 6, Suktapali",
      "open_now": true
    },
    {
      "place_id": "ChIJV2Uj9xY3IToRm-fhm-73Dl0",
      "name": "Vijaya Laxmi Filling Station",
      "lat": 21.36184,
      "lng": 83.7221184,
      "address": "9P6C+PRQ, Suktapali",
      "open_now": null
    },
    {
      "place_id": "ChIJzbQput03IToRfXQoh5W6t1k",
      "name": "IndianOil",
      "lat": 21.3623977,
      "lng": 83.7281392,
      "address": "Ground Floor, Sukutapali NH 6, Bargarh, Basupali, Rengali",
      "open_now": true
    },
    {
      "place_id": "ChIJAbT0YAA3IToRcw435va7lz8",
      "name": "Hindustan Petroleum Corporation Limited",
      "lat": 21.362772,
      "lng": 83.73949499999999,
      "address": "Ground Floor, NH 6, Debahal, Rengali Camp",
      "open_now": true
    },
    {
      "place_id": "ChIJKU3VQ943IToRt-tjgL4japU",
      "name": "HP PETROL PUMP - BUNNY FILLING STATION DEBAHAL",
      "lat": 21.36305,
      "lng": 83.73949999999999,
      "address": "AT Debahal P.o.-rengali Camp Via-attabira, Sambalpur",
      "open_now": true
    },
    {
      "place_id": "ChIJqYP9dr03IToRcrOd8AyMU-4",
      "name": "VENKATESWAR FUELS",
      "lat": 21.3632433,
      "lng": 83.7397611,
      "address": "NH-53, Kolkata - Mumbai Highway, Debahal",
      "open_now": true
    },
    {
      "place_id": "ChIJH3nsnvA3IToRmIRbu5IBjgE",
      "name": "M/s Odyssey fuels",
      "lat": 21.3649689,
      "lng": 83.74380769999999,
      "address": "Rengalipali, Attabira, Bargarh",
      "open_now": true
    },
    {
      "place_id": "ChIJgTTFfORJIToRLNHC2PnMKbI",
      "name": "Reliance Petroleum",
      "lat": 21.3501206,
      "lng": 83.6913326,
      "address": "Plot No 3519,3520 Nh 6, Barahagoda",
      "open_now": true
    },
    {
      "place_id": "ChIJBdM8NQBJIToRgevYUNzKDCU",
      "name": "Jio bp bargarh",
      "lat": 21.3504277,
      "lng": 83.691026,
      "address": "Bargarh Ms Kumar Fuels NH-6, plot no. 3519, 3520, Taluka, Barahagoda",
      "open_now": null
    },
    {
      "place_id": "ChIJK7FLRL9JIToR0fS9yu8NaN4",
      "name": "Gartia Amulya Filling Station, BPCL",
      "lat": 21.3513064,
      "lng": 83.6867053,
      "address": "Kolkata - Mumbai Highway, Barahagoda",
      "open_now": true
    },
    {
      "place_id": "ChIJoUJatHs-IToR4IGAq3mGanc",
      "name": "IndianOil",
      "lat": 21.451955,
      "lng": 83.89751419999999,
      "address": "Ground Floor, NH 6, Goshala",
      "open_now": true
    },
    {
      "place_id": "ChIJx60mL_s-IToRXUULEkWhxQ0",
      "name": "IndianOil - SWAGAT",
      "lat": 21.419596,
      "lng": 83.879486,
      "address": "Gosala, NH 6, Kalamati",
      "open_now": true
    },
    {
      "place_id": "ChIJWRZdeN4-IToRBfqC8wWG8Vw",
      "name": "Hindustan Petroleum Corporation Limited",
      "lat": 21.416895,
      "lng": 83.866155,
      "address": "Ground Floor, NH 6, Ladukhai, Sambalpur",
      "open_now": true
    },
    {
      "place_id": "ChIJdbrI99Y-IToRPNmD8QrU7_o",
      "name": "HP PETROL PUMP - AUTO CARE CENTRE, Godbhaga",
      "lat": 21.4131558,
      "lng": 83.85427519999999,
      "address": "HPC Retail Outlet Godbagha, Sambalpur",
      "open_now": true
    },
    {
      "place_id": "ChIJDQin_ks_IToRsJD3d-o_S9E",
      "name": "Jio-bp",
      "lat": 21.4256926,
      "lng": 83.8953883,
      "address": "Plot No 4332, Kalamati",
      "open_now": true
    },
    {
      "place_id": "ChIJeaJ_GwA_IToRQaEwukLQcIM",
      "name": "Reliance Petrol Pump",
      "lat": 21.4263373,
      "lng": 83.89585269999999,
      "address": "CVFV+XXV, NH 6, Kalamati",
      "open_now": null
    },
    {
      "place_id": "ChIJc_9QOkM-IToRm3Wrj2Zsvbc",
      "name": "Sunil Gas Point",
      "lat": 21.4320366,
      "lng": 83.90109819999999,
      "address": "India",
      "open_now": null
    },
    {
      "place_id": "ChIJ_y-zHHs-IToRZfMXUJgGXbA",
      "name": "Hindustan Petroleum Corporation Limited",
      "lat": 21.449631,
      "lng": 83.897291,
      "address": "Ground Floor, NH 6, Kantapali, A Katapali",
      "open_now": true
    },
    {
      "place_id": "ChIJZYb9QqQ_IToRtWrc7DSxlc4",
      "name": "IndianOil",
      "lat": 21.39464,
      "lng": 83.89198999999999,
      "address": "Ground Floor Sahajbahal, Basantpur",
      "open_now": true
    },
    {
      "place_id": "ChIJl4H9fmo_IToRvC8INsQNnlI",
      "name": "Hindustan Petroleum Corporation Limited",
      "lat": 21.4135594,
      "lng": 83.8544646,
      "address": "Ground Floor, NH 6, Godabhaga",
      "open_now": true
    },
    {
      "place_id": "ChIJkzknk8M_IToRsqzuJefn4tc",
      "name": "IndianOil",
      "lat": 21.4231774,
      "lng": 83.8488569,
      "address": "Ground Floor, kendupali, Dulampur",
      "open_now": true
    },
    {
      "place_id": "ChIJp2D0rbc9IToRE-wnZk8HedQ",
      "name": "Kesari Nandan service station",
      "lat": 21.4611381,
      "lng": 83.8999918,
      "address": "Jagannath Temple, Sambalpur",
      "open_now": true
    },
    {
      "place_id": "ChIJBeS7VI8_IToRqvQHevgsBxE",
      "name": "IndianOil",
      "lat": 21.4064201,
      "lng": 83.84969009999999,
      "address": "Ground Floor Gadtiapali, Attabira, Godbhaga, Dulampur",
      "open_now": true
    },
    {
      "place_id": "ChIJL8JikCg_IToRK-6kfrXR7rI",
      "name": "S k fuels",
      "lat": 21.40587409999999,
      "lng": 83.8496143,
      "address": "CR4X+8RX, Gartiapali",
      "open_now": null
    },
    {
      "place_id": "ChIJMzWGVOYVIToRRaU5xlbQA5E",
      "name": "Hindustan Petroleum Corporation Limited",
      "lat": 21.440761,
      "lng": 83.93390099999999,
      "address": "Ground Floor Goshala, Mundoghat, Road, Raghunathpali",
      "open_now": true
    },
    {
      "place_id": "ChIJlTpeOO4WIToRACX_BKquoa8",
      "name": "Hindustan Petroleum Corporation Limited",
      "lat": 21.494474,
      "lng": 83.986717,
      "address": "Ground Floor, NH 53, Ainthapali, Sambalpur",
      "open_now": true
    },
    {
      "place_id": "ChIJ1Znjme4WIToROI9UP5-t5UY",
      "name": "IndianOil",
      "lat": 21.4951833,
      "lng": 83.986915,
      "address": "Ground Floor, Ainthapali, Sambalpur",
      "open_now": true
    },
    {
      "place_id": "ChIJ979QVz8WIToR8ZbxT1u1q7k",
      "name": "Hindustan Petroleum Corporation Limited",
      "lat": 21.4905852,
      "lng": 83.9531015,
      "address": "Ground Floor, Khetrajpur, Sambalpur",
      "open_now": true
    },
    {
      "place_id": "ChIJGfsVhHsWIToRB_hwBTr7blc",
      "name": "Hindustan Petroleum Corporation Limited",
      "lat": 21.4707523,
      "lng": 83.96902159999999,
      "address": "Ground Floor, Mudipara, Sambalpur",
      "open_now": true
    },
    {
      "place_id": "ChIJI4kO3CMWIToRqOeFaJvldAs",
      "name": "Hindustan Petroleum Corporation Limited",
      "lat": 21.488855,
      "lng": 83.9378733,
      "address": "Ground Floor, Ring Road, durgapali, Sambalpur",
      "open_now": true
    },
    {
      "place_id": "ChIJi_vM1CoUIToRB6CCqmM5z2U",
      "name": "Bharat Petroleum",
      "lat": 21.4596561,
      "lng": 83.97442749999999,
      "address": "FX5F+VQ7, Kacheri Road, Dalaipara, Sambalpur",
      "open_now": true
    },
    {
      "place_id": "ChIJ-eCDQvMXIToRXOUQaojqmfE",
      "name": "Sambalpur Filling Station",
      "lat": 21.4949457,
      "lng": 83.9725024,
      "address": "FXVF+X2C, Kenghati, near Sindhurpankh Chowk, National Highway 53",
      "open_now": true
    },
    {
      "place_id": "ChIJaRL0ZQAXIToRU00Gu4tUeY0",
      "name": "JIO Petrol Pump",
      "lat": 21.4945238,
      "lng": 83.96564699999999,
      "address": "FXV8+R72, Sambalpur",
      "open_now": null
    },
    {
      "place_id": "ChIJywQRCvEWIToRsqPA5rpg-Xk",
      "name": "IndianOil",
      "lat": 21.49472889999999,
      "lng": 83.97980570000001,
      "address": "Ground Floor, NH 6, Ainthapali, Sambalpur",
      "open_now": true
    },
    {
      "place_id": "ChIJ6QV61vAWIToRQqP8o-WhN4g",
      "name": "Bikash Fuels Petrol Pump",
      "lat": 21.495347,
      "lng": 83.9800621,
      "address": "Gujarat State Highway 6, Panchagochhia, Sambalpur",
      "open_now": true
    },
    {
      "place_id": "ChIJQfzeDvwXIToR5AljU3HXm_U",
      "name": "OM SANITARY",
      "lat": 21.494978,
      "lng": 83.98132729999999,
      "address": "Bus Stand, Near, opposite to Hotel Kaveri, NH-6, Service Road, Ainthapali, Sambalpur",
      "open_now": null
    },
    {
      "place_id": "ChIJI_3cCfEWIToR0_zFQL3WbsQ",
      "name": "Tatanagar Service Station BPCL",
      "lat": 21.4943039,
      "lng": 83.9823294,
      "address": "FXVJ+PWG, Service Road, Ainthapali, Kainsir",
      "open_now": true
    },
    {
      "place_id": "ChIJJaW6mPEWIToRnzWwRMsmGQ8",
      "name": "Nr.Tatanagar Service Station",
      "lat": 21.4937926,
      "lng": 83.9827371,
      "address": "FXVM+G39, Kainsir",
      "open_now": true
    },
    {
      "place_id": "ChIJ5-WP_UUWIToRt7015TBdd_Q",
      "name": "Tatanagar Enterprises",
      "lat": 21.4968482,
      "lng": 83.9585195,
      "address": "near Truck Union office, Bareipali, Sambalpur",
      "open_now": true
    },
    {
      "place_id": "ChIJ44Y6_YwWIToRacVYJlPICO4",
      "name": "Hindustan Petroleum",
      "lat": 21.4841271,
      "lng": 83.9822484,
      "address": "Dviteeya Manjil, Balaji Business Center, Main Road, Budharaja, Sambalpur",
      "open_now": true
    },
    {
      "place_id": "ChIJA6syaIwWIToR6WhPmF2QjSo",
      "name": "IndianOil",
      "lat": 21.4824055,
      "lng": 83.98100339999999,
      "address": "SH-10, Budharaja Road, Sakhipara, Sambalpur",
      "open_now": true
    },
    {
      "place_id": "ChIJAejFf30WIToRo-AmPnYeiNY",
      "name": "Reseve police line petrol pump",
      "lat": 21.4697145,
      "lng": 83.9723451,
      "address": "FX9C+VWQ, Police Line Road, Modipada, Sambalpur",
      "open_now": null
    },
    {
      "place_id": "ChIJN9OFhTEWIToR6VLPxRhm6Fc",
      "name": "IndianOil",
      "lat": 21.5021733,
      "lng": 83.944655,
      "address": "Ground Floor, A Katapali, Chowk, NH 6, Remed",
      "open_now": true
    },
    {
      "place_id": "ChIJ2arn2twWIToRqwDcwbhWT-0",
      "name": "Baidarnuapal,Bhallupali Chwok,Petrol Pump, BPCL",
      "lat": 21.4997999,
      "lng": 83.99871759999999,
      "address": "State Highway 10, Ainthapali, Baidarnuapali",
      "open_now": true
    },
    {
      "place_id": "ChIJHXKXqrgXIToRPVWRGlsmZWI",
      "name": "Samleswari Fuels ( ସମ୍ଲେଶ୍ୱରୀ ଫ୍ୟୁଏଲ୍ସ )",
      "lat": 21.4997397,
      "lng": 83.99883179999999,
      "address": "Baidar Nuapali, Sambalpur",
      "open_now": true
    },
    {
      "place_id": "ChIJ3bQD-9ASIToRoncJxLSYBOg",
      "name": "BPCL Petrol Pump",
      "lat": 21.3800844,
      "lng": 84.0664326,
      "address": "Sambalpur",
      "open_now": null
    },
    {
      "place_id": "ChIJk_LKORkTIToRW-6kZPTbJHE",
      "name": "IndianOil",
      "lat": 21.398309,
      "lng": 84.053095,
      "address": "Ground Floor Jhankarpali, Jujomura, Batemura",
      "open_now": true
    },
    {
      "place_id": "ChIJs1tG0jITIToRhx5p3hVsE9k",
      "name": "Hindustan Petroleum Corporation Limited",
      "lat": 21.40539099999999,
      "lng": 84.046438,
      "address": "Ground Floor, NH 53, Maneswar, Halipali",
      "open_now": true
    },
    {
      "place_id": "ChIJn_eQfQATIToR3MCgIm6mYJQ",
      "name": "IndianOil",
      "lat": 21.4088242,
      "lng": 84.0434586,
      "address": "Ground Floor Maneswar, Sadar, Halipali",
      "open_now": true
    },
    {
      "place_id": "ChIJycN27EYTIToRCM8zP9cg3Cc",
      "name": "IndianOil",
      "lat": 21.4116928,
      "lng": 84.0399128,
      "address": "Ground Floor, NH 55, Bhubneswar Hwy, Sambalpur",
      "open_now": true
    },
    {
      "place_id": "ChIJzS5DRABzIToRPBaFEq53LGI",
      "name": "यूरिया पम्प गद्गाद्बहल ओडिशा",
      "lat": 21.2855549,
      "lng": 84.1301201,
      "address": "74PJ+36C, Gadgadbahal",
      "open_now": true
    },
    {
      "place_id": "ChIJ8ahM18RxIToRzoIUYdb8SaI",
      "name": "Jio BP Mobility Station (Trinity Enterprises)",
      "lat": 21.2731388,
      "lng": 84.13556319999999,
      "address": "Kansar",
      "open_now": null
    },
    {
      "place_id": "ChIJXRdX65hxIToR_hMPp6ZRaG8",
      "name": "IndianOil",
      "lat": 21.25585749999999,
      "lng": 84.1367693,
      "address": "Ground Floor Kansar, Jujumura",
      "open_now": true
    },
    {
      "place_id": "ChIJGzvenJJxIToReQX-rH3G5hQ",
      "name": "HP Oil Petrol Pump",
      "lat": 21.2509077,
      "lng": 84.133449,
      "address": "742M+998, Sambalpur - Cuttack Highway, Dangapal",
      "open_now": true
    },
    {
      "place_id": "ChIJuWtaNmtxIToRQVMy0Jo7OUk",
      "name": "Hindustan Petroleum Corporation Limited",
      "lat": 21.250542,
      "lng": 84.13341899999999,
      "address": "Ground Floor, NH 55, near Fire Station, Jujomura",
      "open_now": true
    },
    {
      "place_id": "ChIJUxpOTIBxIToRgGGJBxgJaLY",
      "name": "Burhani Fueling",
      "lat": 21.1866886,
      "lng": 84.1666613,
      "address": "55P8+MMF, Sahajbahal",
      "open_now": null
    },
    {
      "place_id": "ChIJxauHEV1xIToRQXdEKdMpy48",
      "name": "Hindustan Petroleum Corporation Limited",
      "lat": 21.2290801,
      "lng": 84.14482799999999,
      "address": "Ground Floor, NH 55, near Jitu Dhaba, Jujomura",
      "open_now": true
    },
    {
      "place_id": "ChIJ46pUF0qBIToRAKKMKUGteOU",
      "name": "Petrol & CNG Pump",
      "lat": 21.0725896,
      "lng": 84.34962399999999,
      "address": "Redhakhol",
      "open_now": true
    },
    {
      "place_id": "ChIJ10XKiROBIToRhlNxkB2BfrM",
      "name": "IndianOil",
      "lat": 21.06647,
      "lng": 84.327395,
      "address": "Ground Floor NH 42, Redhakhol",
      "open_now": true
    },
    {
      "place_id": "ChIJHWVaiHyHIToRgPJecAEG6c8",
      "name": "Hindustan Petroleum Corporation Limited",
      "lat": 21.0739845,
      "lng": 84.3684859,
      "address": "Ground Floor, NH 55, Redhakhol",
      "open_now": true
    },
    {
      "place_id": "ChIJ6ynx9xccIjoR1gkkDLcCWqU",
      "name": "IndianOil",
      "lat": 20.9392466,
      "lng": 84.70031159999999,
      "address": "Ground Floor, Boinda",
      "open_now": true
    },
    {
      "place_id": "ChIJeXO-7oEHIjoRqJKN_ZpDm2c",
      "name": "Hindustan Petroleum Corporation Limited",
      "lat": 20.8924375,
      "lng": 84.8740625,
      "address": "VVRF+XJH, Bhagirathipur",
      "open_now": true
    },
    {
      "place_id": "ChIJd_yHlUsHIjoRmJnsUiwwT60",
      "name": "Bharat Petroleum",
      "lat": 20.910422,
      "lng": 84.8843163,
      "address": "WV6M+5P8, Chhendipada - Jarapada Road, Durgapurpansahi",
      "open_now": true
    },
    {
      "place_id": "ChIJB56K81cGIjoRTKJETtbKGxg",
      "name": "Ratan Filling Station Bharat Petroleum CNG",
      "lat": 20.873321,
      "lng": 84.888385,
      "address": "VVFQ+89C, National Highway 42, Jarapadapanasahi",
      "open_now": true
    },
    {
      "place_id": "ChIJJ-No-9EHIjoRgfnXGCaIwDE",
      "name": "Hindustan Petroleum Corporation Limited",
      "lat": 20.900998,
      "lng": 84.845818,
      "address": "Ground Floor NH 55, Jerenga, Jarapada, Laxmidharpur",
      "open_now": true
    },
    {
      "place_id": "ChIJ-WLOagAFIjoRfChydl_fe88",
      "name": "Kaltax chowk Angul",
      "lat": 20.9011206,
      "lng": 84.8443179,
      "address": "WR2V+CPW, Sambalpur - Angul - Dhenkanal - Cuttack Road, Laxmidharpur",
      "open_now": null
    },
    {
      "place_id": "ChIJeYUTo20FIjoRiqYLplW3-7E",
      "name": "IndianOil",
      "lat": 20.903041,
      "lng": 84.838529,
      "address": "Lock No Ig, Set Govindpanasahi, 192 10/2/1, Jerang",
      "open_now": true
    },
    {
      "place_id": "ChIJIWlh3_wHIjoRAWz5tGE9A80",
      "name": "Hindustan Petroleum Corporation Limited",
      "lat": 20.86147099999999,
      "lng": 84.906331,
      "address": "Ground Floor NH 55, Ugi, Malisahi, Jarapada",
      "open_now": true
    },
    {
      "place_id": "ChIJdaUDQACnGDoRHoMk4QTNEbc",
      "name": "Naik fuel",
      "lat": 20.8212039,
      "lng": 84.9947548,
      "address": "RXCV+FWJ, Tubey",
      "open_now": null
    },
    {
      "place_id": "ChIJ4z0ODWqnGDoR-UWpQlsxYpQ",
      "name": "IndianOil",
      "lat": 20.821529,
      "lng": 84.978218,
      "address": "Ground Floor, Tubey",
      "open_now": true
    },
    {
      "place_id": "ChIJXXbnd6CnGDoRVXQTdNjnlxE",
      "name": "IndianOil",
      "lat": 20.8084833,
      "lng": 85.0047996,
      "address": "Ground Floor, Tubey",
      "open_now": true
    },
    {
      "place_id": "ChIJJWtcqRenGDoR9XTwo9fStsg",
      "name": "Laxmi Nursingha DEF FILLING STATION",
      "lat": 20.8056377,
      "lng": 85.0089866,
      "address": "NH- 55, Badakera",
      "open_now": true
    },
    {
      "place_id": "ChIJMV5jM-6pGDoRgWXf-0tAapg",
      "name": "Tapoban filling station",
      "lat": 20.8308476,
      "lng": 84.96468899999999,
      "address": "RXJ7+8VP, National Highway 55, Santarapur",
      "open_now": null
    },
    {
      "place_id": "ChIJb3zcZAC5GDoRntGkKkHpKkA",
      "name": "Tulasipala",
      "lat": 20.81187929999999,
      "lng": 85.1916559,
      "address": "R56R+QM, Tulasipal",
      "open_now": null
    },
    {
      "place_id": "ChIJBQjEMBK5GDoR1fYLG2zmbHM",
      "name": "IndianOil",
      "lat": 20.8082116,
      "lng": 85.2113045,
      "address": "Ground Floor, Garhsantri, Banarpal - Hindol Road, Arahat",
      "open_now": true
    },
    {
      "place_id": "ChIJDyKsXg_HGDoRLfl_VvBzqlo",
      "name": "Bharat Petroleum Petrol Pump , SAMAL FUEL STATION",
      "lat": 20.801545,
      "lng": 85.303122,
      "address": "AT MOUZA-GHANTALPASI, PS-MOTANGAPS NO-17, TAHASIL, Dhenkanal",
      "open_now": true
    },
    {
      "place_id": "ChIJufMsRwDHGDoRYjyRC_aws28",
      "name": "Shree balaji enterprises",
      "lat": 20.7866432,
      "lng": 85.33174559999999,
      "address": "Q8PJ+MM5, Meramandali",
      "open_now": null
    },
    {
      "place_id": "ChIJgz3Gg_TGGDoR-pVC_nidLP8",
      "name": "IndianOil",
      "lat": 20.7863934,
      "lng": 85.3320488,
      "address": "Ground Floor Meramandali, Nimirndha, Beruanpal",
      "open_now": true
    },
    {
      "place_id": "ChIJRfHK083HGDoRSXkOw4aBRtk",
      "name": "SHREE LOKANATH FILLING STATION",
      "lat": 20.7842353,
      "lng": 85.33867769999999,
      "address": "Similipatna, Meramandali, Dhenkanal NH-55 po-meramandali, Dhenkanal 24/7 open, Clean toilet, Drinking water, free Air Nava Limited plant, Side",
      "open_now": true
    },
    {
      "place_id": "ChIJ-RfUPyLHGDoR5-hU0lFt_Wc",
      "name": "IndianOil",
      "lat": 20.8157752,
      "lng": 85.2858475,
      "address": "Ground Floor, Nh 55, Meramandali",
      "open_now": true
    },
    {
      "place_id": "ChIJBZg4EInHGDoRSumvJUHfs8I",
      "name": "IndianOil",
      "lat": 20.816567,
      "lng": 85.286007,
      "address": "Ground Floor, Kharagprasad Meramundali, Motanga, Dhenkanal, Arahat",
      "open_now": true
    },
    {
      "place_id": "ChIJqV8SlUHHGDoR-PiOwNNgfm0",
      "name": "SS Filling station Bharat Patrolium",
      "lat": 20.8165375,
      "lng": 85.28389059999999,
      "address": "R78M+JH6, Itapa",
      "open_now": null
    },
    {
      "place_id": "ChIJqSqfnQ3HGDoR3saf9VpUUNc",
      "name": "Hindustan Petroleum Corporation Limited",
      "lat": 20.8172464,
      "lng": 85.2829193,
      "address": "Ground Floor, Motanga, Kurunti",
      "open_now": true
    },
    {
      "place_id": "ChIJQV1i6aXFGDoRAlGaOS9RiqI",
      "name": "Essar Petrol Pump Nath Filling Station",
      "lat": 20.7780455,
      "lng": 85.3578606,
      "address": "Q9H5+649, Sambalpur - Angul - Dhenkanal - Cuttack Road, Haladia Bahal",
      "open_now": true
    },
    {
      "place_id": "ChIJDRd4xbHEGDoRBmRc23Ntc0A",
      "name": "Hindustan Petroleum Corporation Limited",
      "lat": 20.75997599999999,
      "lng": 85.430504,
      "address": "Ground Floor, Hindol Road, Odapada",
      "open_now": true
    },
    {
      "place_id": "ChIJ5cHAjvTEGDoRXOkU8V06mIo",
      "name": "Bharat Petroleum",
      "lat": 20.7726242,
      "lng": 85.4005576,
      "address": "India",
      "open_now": null
    },
    {
      "place_id": "ChIJz_mT9JrDGDoRbI9N6-b8eSk",
      "name": "MS/HSD- MAA TARINI FILLING STATION",
      "lat": 20.7242348,
      "lng": 85.4176098,
      "address": "At, Babandha",
      "open_now": true
    },
    {
      "place_id": "ChIJNU3bjLHDGDoRjIas2u0IsLc",
      "name": "Hindustan Petroleum Corporation Limited",
      "lat": 20.723803,
      "lng": 85.41420699999999,
      "address": "Ground Floor, Rasol, Babandha",
      "open_now": true
    },
    {
      "place_id": "ChIJ7zYp7V3EGDoRWkI8tmHJUns",
      "name": "Hindustan Petroleum Corporation Limited",
      "lat": 20.770721,
      "lng": 85.389851,
      "address": "Ground Floor, JP Campus, Hindol - Gudiakateni Road, Balaramprasad",
      "open_now": true
    },
    {
      "place_id": "ChIJbRAVJqjFGDoRW3TNqES2O_s",
      "name": "IndianOil",
      "lat": 20.769937,
      "lng": 85.3891974,
      "address": "Ground Floor, Hindol - Gudiakateni Road, Motonga, Balaramprasad",
      "open_now": true
    },
    {
      "place_id": "ChIJa8zz-drfGDoR-ZcX48GvzNU",
      "name": "IndianOil",
      "lat": 20.6648982,
      "lng": 85.5734267,
      "address": "Ground Floor, Maa Tarini Nagar, near Shakti Sugar Pvt. Lmt, NH 55, Bypass Road, Dhenkanal",
      "open_now": true
    },
    {
      "place_id": "ChIJscGrbQ3fGDoRQYgLfIvHLvs",
      "name": "Shree Jagannath fuels HSD BPCL",
      "lat": 20.6968566,
      "lng": 85.53765179999999,
      "address": "MGWQ+P3R, National Highway 55, Mulisinga",
      "open_now": null
    },
    {
      "place_id": "ChIJk4i_LmHeGDoRz9LbjdPsLgQ",
      "name": "Petrol Pump",
      "lat": 20.6968566,
      "lng": 85.53765179999999,
      "address": "MGWQ+P3R, National Highway 55, Mulisinga",
      "open_now": null
    },
    {
      "place_id": "ChIJ_82ZfX_fGDoRy2EuHneGnPY",
      "name": "ANANYA FILLING STATION",
      "lat": 20.7058598,
      "lng": 85.52638259999999,
      "address": "SIMINOI, Gadasila",
      "open_now": true
    },
    {
      "place_id": "ChIJ-RLd7K_fGDoR1hyi_9bsJuw",
      "name": "HP Petrol Filling Station",
      "lat": 20.69269509999999,
      "lng": 85.5706644,
      "address": "",
      "open_now": true
    },
    {
      "place_id": "ChIJFzzliG_fGDoRtNrRVc6AmIk",
      "name": "Hindustan Petroleum Corporation Limited",
      "lat": 20.692891,
      "lng": 85.570791,
      "address": "Ground Floor, Bebarta Kateni",
      "open_now": true
    },
    {
      "place_id": "ChIJhRXFdaXdGDoRR-pnoiuXQZY",
      "name": "IndianOil",
      "lat": 20.697867,
      "lng": 85.50594,
      "address": "Ground Floor Kasiadihi, Odapada, Balarampur",
      "open_now": true
    },
    {
      "place_id": "ChIJa922MQDdGDoRa5XP3FP20CA",
      "name": "Hindustan Petroleum Corporation Limited",
      "lat": 20.7167061,
      "lng": 85.5111713,
      "address": "near Siminai, Khata No 48/70, Plot No 379 NH 55, Gadasila, near Siminai, Bypass, Jharagadia",
      "open_now": true
    },
    {
      "place_id": "ChIJ86PpuW3fGDoR7eSt6L40rGw",
      "name": "Pintu Lubricants",
      "lat": 20.6856828,
      "lng": 85.5773901,
      "address": "Korian By Pass, National Highway 55, Dhenkanal",
      "open_now": null
    },
    {
      "place_id": "ChIJq5GY2j_fGDoRrHKW0160f7g",
      "name": "Bharat Petroleum, Petrol Pump -Sagarmal Agarwalla",
      "lat": 20.6770869,
      "lng": 85.5742367,
      "address": "PANCHUPATI-DHENKENAL, Dhenkanal",
      "open_now": true
    },
    {
      "place_id": "ChIJKR1aei0fGToRezmiSOJpMyU",
      "name": "AARTI PETROLEUM",
      "lat": 20.6348473,
      "lng": 85.6216928,
      "address": "JJMC+WMP, College bypass, near MARUTI Suzuki Showroom, Kathagada Sahi, Dhenkanal",
      "open_now": true
    },
    {
      "place_id": "ChIJpw72sGEfGToRMlTtgaaQOWQ",
      "name": "IndianOil",
      "lat": 20.6346873,
      "lng": 85.6213057,
      "address": "Ground Floor, Kathagada, near Dhenkanal, College, Dhenkanal",
      "open_now": true
    },
    {
      "place_id": "ChIJY-X3YrkfGToR4jMewCP5iQo",
      "name": "Bharat Petroleum",
      "lat": 20.6252894,
      "lng": 85.6279522,
      "address": "India",
      "open_now": null
    },
    {
      "place_id": "ChIJv2Aj2bsfGToRdzu9H9omPkY",
      "name": "Surya Petrol & CNG filling Station",
      "lat": 20.6254152,
      "lng": 85.6282652,
      "address": "JJGH+586, Dhenkanal",
      "open_now": true
    },
    {
      "place_id": "ChIJb6VPOaUfGToRu1YN-M2ENzM",
      "name": "IndianOil",
      "lat": 20.6392439,
      "lng": 85.6177628,
      "address": "Godrej Lock No 22004, College, Dhenkanal",
      "open_now": true
    },
    {
      "place_id": "ChIJG_CHkpwfGToRqOUZIVtgBD4",
      "name": "Kalyani Gas Agency (HP GAS)",
      "lat": 20.6171332,
      "lng": 85.6331414,
      "address": "JJ8M+V72, Gobindpur",
      "open_now": true
    },
    {
      "place_id": "ChIJBeLQ6useGToRw7EqcHuXdls",
      "name": "HP Petrol Pump - Panda & Bros.",
      "lat": 20.6110823,
      "lng": 85.6396948,
      "address": "Baladiabandha NH 42 PS Sadar, Gobindpur",
      "open_now": true
    },
    {
      "place_id": "ChIJkVekiP8fGToRAnIlCue1_YY",
      "name": "IndianOil",
      "lat": 20.6514844,
      "lng": 85.60598,
      "address": "Ground Floor Dhenkanal College Rd, Nijigarh, Kunjakanta, Dhenkanal",
      "open_now": true
    },
    {
      "place_id": "ChIJI4CiuGzhGDoRBtKVQiNbhIA",
      "name": "Hindustan Petroleum Corporation Limited",
      "lat": 20.652196,
      "lng": 85.60147599999999,
      "address": "Ground Floor, Panjia Sahi, Dhenkanal",
      "open_now": true
    },
    {
      "place_id": "ChIJDdUTfZ7hGDoRmX9MjHO2OLI",
      "name": "Jayanta Pvt Ltd",
      "lat": 20.6536759,
      "lng": 85.58934630000002,
      "address": "10, Khamarsahi, Dhenkanal",
      "open_now": null
    },
    {
      "place_id": "ChIJsy_4bADfGDoRG5v7Bn3RIUI",
      "name": "Rameswar petrol pump",
      "lat": 20.6667292,
      "lng": 85.60153059999999,
      "address": "MJ82+MJR, Rameswarpur",
      "open_now": null
    },
    {
      "place_id": "ChIJ13W7-PrfGDoRKqoj7caO_zI",
      "name": "Sagarmal Petrol Pump",
      "lat": 20.6656514,
      "lng": 85.5945194,
      "address": "MH8V+7R6, Dhenkanal",
      "open_now": null
    },
    {
      "place_id": "ChIJbfbFmFkZGToRrM4PYIW_utg",
      "name": "IndianOil",
      "lat": 20.56826,
      "lng": 85.69712,
      "address": "Ground Floor NH 42, Athagarh, Near College, Mathurapur",
      "open_now": true
    },
    {
      "place_id": "ChIJJbAfTeAbGToR2_phjJftArU",
      "name": "Bharat Petroleum, Petrol Pump -Sri Gopal Supply Agency",
      "lat": 20.5622329,
      "lng": 85.725278,
      "address": "Khuntuni Road, Cuttack",
      "open_now": true
    },
    {
      "place_id": "ChIJQ-slYiYaGToR60jk8Nn1yrw",
      "name": "IndianOil",
      "lat": 20.5594643,
      "lng": 85.73851810000001,
      "address": "Ground Floor Rampei, NH 42, College, Athagarh",
      "open_now": true
    },
    {
      "place_id": "ChIJC2S9V2AZGToRsRnIpNO5YAc",
      "name": "IndianOil",
      "lat": 20.5667167,
      "lng": 85.70801829999999,
      "address": "Lock No 21002 102 NH 42, Khuntuni, Near Athagarh College, Bhogara",
      "open_now": true
    },
    {
      "place_id": "ChIJ0bl4rmIZGToRKP2aYmcjse8",
      "name": "Royal Filling Station",
      "lat": 20.5669346,
      "lng": 85.70745939999999,
      "address": "Sambalpur - Cuttack Highway, Krushnashyampur",
      "open_now": true
    },
    {
      "place_id": "ChIJkRPrAiQbGToRayYPC1DGFU0",
      "name": "Hindustan Petroleum Corporation Limited",
      "lat": 20.558101,
      "lng": 85.70445099999999,
      "address": "Ground Floor, Athagarh, Golei Chowk, Bhogara, Near, Chowk, Khuntuni",
      "open_now": true
    },
    {
      "place_id": "ChIJ11_uaQURGToRJXNJ055_gdY",
      "name": "JMS ENTERPRISE",
      "lat": 20.52934,
      "lng": 85.81699309999999,
      "address": "National Highway 42, Baula",
      "open_now": true
    },
    {
      "place_id": "ChIJv3C-WyQRGToRutJPMC7ipmc",
      "name": "Hindustan Petroleum Corporation Limited",
      "lat": 20.5340182,
      "lng": 85.821282,
      "address": "Ground Floor Gurudijhatia, Chhaga Station Road, Baula",
      "open_now": true
    },
    {
      "place_id": "ChIJF5pSrhkRGToR1ZdW6hUDxEg",
      "name": "Swain &Sons",
      "lat": 20.5218994,
      "lng": 85.8305587,
      "address": "GRCJ+Q63, Sambalpur - Angul - Dhenkanal - Cuttack Road, Jhatia",
      "open_now": null
    },
    {
      "place_id": "ChIJrYChE50RGToRlXeLmD62xs8",
      "name": "Hindustan Petroleum Corporation Limited",
      "lat": 20.5216423,
      "lng": 85.8306984,
      "address": "Ground Floor, NH 42, Choudwar Bali Road, Kuspangi",
      "open_now": true
    },
    {
      "place_id": "ChIJTR9PgkgRGToROXtd0B0CjQ4",
      "name": "Hindustan Petroleum Corporation Limited",
      "lat": 20.516761,
      "lng": 85.82784099999999,
      "address": "Ground Floor, Choudwar, Nuapatna, Tangi, Near, Dhabaleswar Temple Road, Cuttack",
      "open_now": true
    },
    {
      "place_id": "ChIJK49DDo0RGToRD0Pr0cCInHs",
      "name": "IndianOil",
      "lat": 20.512944,
      "lng": 85.814809,
      "address": "Ground Floor Mahalpada, Kakhadi, Choudwar, Dhurusia",
      "open_now": true
    },
    {
      "place_id": "ChIJeYKjFNYRGToRPqN8Hmim0x4",
      "name": "IndianOil",
      "lat": 20.5404661,
      "lng": 85.8043833,
      "address": "Ground Floor Nh 55 Oranda, Gurudijhatia",
      "open_now": true
    },
    {
      "place_id": "ChIJd2C6-yQRGToRyxxE0JSXL8o",
      "name": "Satyajay Filling Station",
      "lat": 20.509012,
      "lng": 85.82610559999999,
      "address": "Nuapatna, Near, Utkal Gourav Madhusudan Setu, Nuapatna",
      "open_now": true
    },
    {
      "place_id": "ChIJKaeR-FAQGToRM7Fblx9yLjg",
      "name": "Indian Oil",
      "lat": 20.5097182,
      "lng": 85.7995449,
      "address": "GQ5X+VRM, Bidyadharpur, Kakhadi",
      "open_now": true
    },
    {
      "place_id": "ChIJ_3AsWfcRGToRRdaa7uBPBnc",
      "name": "Kunja Bihari Fuel Station",
      "lat": 20.4843982,
      "lng": 85.8149843,
      "address": "Plotno. 10-6CM, 1619/B, CDA Sec - 10, Cuttack",
      "open_now": true
    },
    {
      "place_id": "ChIJO75sz2UNGToRZ9fPPSaxxz0",
      "name": "Bharat Petroleum Petrol Station",
      "lat": 20.4638534,
      "lng": 85.9040083,
      "address": "FW74+93H, Gandarpur, Cuttack",
      "open_now": true
    },
    {
      "place_id": "ChIJ-0ez42ENGToRCpN5NDlvkmI",
      "name": "Hindustan Petroleum",
      "lat": 20.4733373,
      "lng": 85.90569510000002,
      "address": "Sikharpur, Near Gurudwara, NH 5, Sikharpur, Cuttack",
      "open_now": true
    },
    {
      "place_id": "ChIJhfuUNGENGToRyjl4ZfjfqLY",
      "name": "Essar Petrol Pump",
      "lat": 20.4673634,
      "lng": 85.9067891,
      "address": "Gandarpur, Cuttack",
      "open_now": true
    },
    {
      "place_id": "ChIJUd1_bJ8NGToR6GclmOflPQk",
      "name": "IndianOil",
      "lat": 20.450931,
      "lng": 85.886337,
      "address": "Lock, 11004, Ring Road, Khan Nagar, Arunodaya Colony, Cuttack",
      "open_now": true
    },
    {
      "place_id": "ChIJmR0ktoMNGToRMrmDqbSFhNo",
      "name": "Hardhik & co. (Bharat Petroleum Petrol Pump)",
      "lat": 20.4656149,
      "lng": 85.88663009999999,
      "address": "FV8P+6MR, Bajrakabati Road, Samanta Sahi, Siba Bazar, Cuttack",
      "open_now": true
    },
    {
      "place_id": "ChIJNb8OEKoNGToRHKW5VYr47PU",
      "name": "IndianOil",
      "lat": 20.43119,
      "lng": 85.8902367,
      "address": "Ground Floor, Bajrakabari Road, Srikoruan, Urali",
      "open_now": true
    },
    {
      "place_id": "ChIJpakVAnkSGToR_R22wwnsNd8",
      "name": "Hindustan Petroleum Corporation Limited",
      "lat": 20.4760651,
      "lng": 85.8822457,
      "address": "Ground Floor, Maachhua Bazar, Cuttack",
      "open_now": true
    },
    {
      "place_id": "ChIJi1TNRbgSGToRSnsWKgX03ZM",
      "name": "IndianOil",
      "lat": 20.4967377,
      "lng": 85.9216976,
      "address": "Lock, 12001, NH 5, A D Market, Jagatpur",
      "open_now": true
    },
    {
      "place_id": "ChIJLW_Mnu8NGToRSMhUAeM6by4",
      "name": "Jay Jagannath Store",
      "lat": 20.4564989,
      "lng": 85.91728499999999,
      "address": "FW48+HWV, near SBI Atm, Naya Bazaar, Cuttack",
      "open_now": null
    },
    {
      "place_id": "ChIJmZNVMr0NGToRxx4jm1B6kpU",
      "name": "IndianOil",
      "lat": 20.454592,
      "lng": 85.910934,
      "address": "Lock No 21007, Naya Bazaar, Cuttack",
      "open_now": true
    },
    {
      "place_id": "ChIJNwUBIwANGToRggVQpyqfkBI",
      "name": "BPCL NRO sikharpur",
      "lat": 20.4658397,
      "lng": 85.9153484,
      "address": "FW88+84Q, kanheipur",
      "open_now": null
    },
    {
      "place_id": "ChIJzWGaizUNGToRr7BotXzeqpc",
      "name": "IndianOil",
      "lat": 20.449997,
      "lng": 85.926895,
      "address": "Naya Bazaar, Bidyadharpur, Cuttack",
      "open_now": true
    },
    {
      "place_id": "ChIJm2-kvm4NGToRACMO8jEiOXk",
      "name": "OMP Petrol Bunk",
      "lat": 20.4567854,
      "lng": 85.9038806,
      "address": "Cuttack - Paradeep Road, Cuttack",
      "open_now": true
    },
    {
      "place_id": "ChIJGUID1mYNGToRu8CXiDNr6yU",
      "name": "TRUPTI MARUTI SERVICE STATION",
      "lat": 20.4672039,
      "lng": 85.9074363,
      "address": "India",
      "open_now": null
    },
    {
      "place_id": "ChIJ80QvKAANGToR2ou6Ad7embA",
      "name": "Bharat Petroleum (Raj Fuel Station)",
      "lat": 20.4444078,
      "lng": 85.9109874,
      "address": "CWV6+P8Q, Old Jagannatha Road, Madhu Patna Colony, Cuttack",
      "open_now": true
    },
    {
      "place_id": "ChIJS-OJzWYNGToRMzDwvE24vr0",
      "name": "NAYARA",
      "lat": 20.4673494,
      "lng": 85.9068125,
      "address": "India",
      "open_now": null
    },
    {
      "place_id": "ChIJ_9zXGQBzGToRbA2wgY3yLE0",
      "name": "SARITA KISHAN SEVA KENDRA",
      "lat": 20.4519479,
      "lng": 85.9368423,
      "address": "Bidyadharpur, Cuttack",
      "open_now": null
    },
    {
      "place_id": "ChIJ7RNsVnANGToRAHB9zo0pGwM",
      "name": "JAGANATH OIL",
      "lat": 20.4588955,
      "lng": 85.8973221,
      "address": "India",
      "open_now": null
    },
    {
      "place_id": "ChIJ0VSyfUsNGToRFk8vDEAunAM",
      "name": "Hindustan Petroleum Corporation Limited",
      "lat": 20.4661437,
      "lng": 85.8966566,
      "address": "Ground Floor, College Square, Cuttack",
      "open_now": true
    },
    {
      "place_id": "ChIJh22hjHcNGToRC5Ve5pixUnE",
      "name": "Popular Enterparises",
      "lat": 20.4385112,
      "lng": 85.9045519,
      "address": "CWQ3+CR3, Cuttack-42 Mouza Road, Balisahi, Government Press Employee Quarters, Cuttack",
      "open_now": null
    },
    {
      "place_id": "ChIJv12_1LdxGToRfXI6vbwWUJk",
      "name": "IndianOil",
      "lat": 20.3848376,
      "lng": 86.0655337,
      "address": "Ground Floor Ramkuanrpur, Kisannagar, Somapur",
      "open_now": true
    },
    {
      "place_id": "ChIJX43zQiZxGToR0kR-62Ny6yE",
      "name": "Hindustan Petroleum Corporation Limited",
      "lat": 20.3957639,
      "lng": 86.0492934,
      "address": "Ground Floor, Archhili",
      "open_now": true
    },
    {
      "place_id": "ChIJpZ1jjDtxGToRnKlvUtJZK6k",
      "name": "IndianOil",
      "lat": 20.3989924,
      "lng": 86.0391963,
      "address": "Ground Floor Kamarpada, Jashpada, Kesannagar",
      "open_now": true
    },
    {
      "place_id": "ChIJBWH-iPFxGToR7ZA7BfMW_C0",
      "name": "Hindustan Petroleum Corporation Limited",
      "lat": 20.3991804,
      "lng": 86.0386772,
      "address": "Ground Floor, Kishannagar, Kamarapada",
      "open_now": true
    },
    {
      "place_id": "ChIJ40-wRTtxGToRlPMjU8ZH38o",
      "name": "HP PETROL PUMP - JAI MAA SANTOSHI FILLING STATION",
      "lat": 20.3992851,
      "lng": 86.0386705,
      "address": "Cuttack Paradip Road, Taluka Sompur, PS Krishnanagar, Archhili",
      "open_now": true
    },
    {
      "place_id": "ChIJv-3iq-l2GToRhEnnt75uDbg",
      "name": "Hindustan Petroleum Corporation Limited",
      "lat": 20.3553124,
      "lng": 86.0409652,
      "address": "Ground Floor, Kandarpur Machhagaon, Road SH 43, Biridi, Hajipur",
      "open_now": true
    },
    {
      "place_id": "ChIJ2QRA2cB2GToRMovW8WzJMIk",
      "name": "Devi Fuels, BPC Petrol Pump Daleighai, Biridi",
      "lat": 20.3627711,
      "lng": 86.03440979999999,
      "address": "Cuttack - Jagatsinghpur Road",
      "open_now": true
    },
    {
      "place_id": "ChIJJyIgDEp5GToRFCBov7os2h4",
      "name": "Padmalaya Filling Station",
      "lat": 20.3743916,
      "lng": 86.1145557,
      "address": "Sarapur",
      "open_now": true
    },
    {
      "place_id": "ChIJEztFAgZ3GToRdkvxmBunLzI",
      "name": "IP",
      "lat": 20.3398363,
      "lng": 86.0630437,
      "address": "India",
      "open_now": null
    },
    {
      "place_id": "ChIJD2Js8zRxGToRour2Wq7G8kE",
      "name": "IndianOil",
      "lat": 20.4205343,
      "lng": 86.0848698,
      "address": "Ground Floor Samantrapur, Kisannagar, Ayatpur",
      "open_now": true
    },
    {
      "place_id": "ChIJkyMBTMZ-GToR_nxbATH50qc",
      "name": "Hindustan Petroleum Corporation Limited",
      "lat": 20.3575961,
      "lng": 86.18694839999999,
      "address": "Ground Floor, Purana Odapada, Raghunathpur",
      "open_now": true
    },
    {
      "place_id": "ChIJxaeangZ_GToRoZ6XTLy0DWE",
      "name": "HP gas",
      "lat": 20.3306303,
      "lng": 86.2258694,
      "address": "86JG+785, Salijanga",
      "open_now": null
    },
    {
      "place_id": "ChIJCyH4IB15GToRWMGzM_LpjMg",
      "name": "Mahavir Store",
      "lat": 20.359961,
      "lng": 86.1656287,
      "address": "Raghunathpur",
      "open_now": null
    },
    {
      "place_id": "ChIJucw8KkZ5GToRTu6JMzYaric",
      "name": "Gourisankar Empire",
      "lat": 20.3637864,
      "lng": 86.1640096,
      "address": "9577+GJ6, Unnamed Road, Raghunathpur",
      "open_now": true
    },
    {
      "place_id": "ChIJrXXretHTGzoRv7KhRZMc3Co",
      "name": "IndianOil",
      "lat": 20.3125176,
      "lng": 86.3043441,
      "address": "Ground Floor, SH 12, Tarajanga",
      "open_now": true
    },
    {
      "place_id": "ChIJm_4rZbjUGzoRrUp_Sy-FJyc",
      "name": "Bharat Petroleum Petrol Pump , BISWANATH FILLING STATION",
      "lat": 20.30679,
      "lng": 86.31828999999999,
      "address": "SH-12, Sarala Road, Tirtol",
      "open_now": true
    },
    {
      "place_id": "ChIJLdqQ_r7VGzoRWe0VCUH9DXs",
      "name": "Bharat Petroleum Petrol Pump , SHIVANI FILLING STATION",
      "lat": 20.333956,
      "lng": 86.269579,
      "address": "AT, Jeypore",
      "open_now": true
    },
    {
      "place_id": "ChIJBZVgKhfVGzoR69FhRsBIMoM",
      "name": "Maa Sarala Fuel Station",
      "lat": 20.3070704,
      "lng": 86.3346692,
      "address": "near Maa Sarala Market Complex, Road, Tirtol",
      "open_now": null
    },
    {
      "place_id": "ChIJISnD3UbTGzoRdzeRlm9w7fk",
      "name": "IndianOil",
      "lat": 20.3078317,
      "lng": 86.34392330000001,
      "address": "Ground Floor, Tirtol",
      "open_now": true
    },
    {
      "place_id": "ChIJWVBNgHjLGzoRvGaD-8PEUwI",
      "name": "IndianOil",
      "lat": 20.3176383,
      "lng": 86.5003133,
      "address": "Ground Floor Sandhapur, Kujang, Balia, Paradeep",
      "open_now": true
    },
    {
      "place_id": "ChIJK1r71h7LGzoRogQc9puGwu4",
      "name": "Hindustan Petroleum Corporation Limited",
      "lat": 20.3240065,
      "lng": 86.5355156,
      "address": "Ground Floor, Kujang",
      "open_now": true
    },
    {
      "place_id": "ChIJm4Dgjyi1GzoRborsfHEkJPs",
      "name": "IndianOil",
      "lat": 20.3093863,
      "lng": 86.6176113,
      "address": "Ground Floor Paradeep, Udayabhat, Balia",
      "open_now": true
    },
    {
      "place_id": "ChIJcSmoqsLKGzoRb2QgLQIS1w0",
      "name": "BPCL Petrol Pump Baliyarsingh Filling Station",
      "lat": 20.3208453,
      "lng": 86.55019639999999,
      "address": "Santara",
      "open_now": true
    },
    {
      "place_id": "ChIJCbvqesm0GzoRCQcxrNjQTFw",
      "name": "Reliance Petroleum",
      "lat": 20.3087775,
      "lng": 86.6304657,
      "address": "1458/P, 1460/P, 1461/P, 1464, P To 1466 Udaybhat, Do Chaki, Paradeep",
      "open_now": true
    },
    {
      "place_id": "ChIJg4yAMQC1GzoRCBSou--1mI8",
      "name": "Sarat & Brothers Fillingstation",
      "lat": 20.3135547,
      "lng": 86.58815349999999,
      "address": "8H7Q+C7C, Kathagada, Bhutumundai",
      "open_now": null
    },
    {
      "place_id": "ChIJvzPMlES1GzoRX1gKwk7tRHw",
      "name": "IndianOil",
      "lat": 20.3138967,
      "lng": 86.5923383,
      "address": "Ground Floor Kathagada, Paradeepgarh, National Highway 5A, Balia",
      "open_now": true
    },
    {
      "place_id": "ChIJ4com4xW1GzoRxQNp3Tzmx6M",
      "name": "Nayara Petrol Pump - Bhagaban Filling Station",
      "lat": 20.3188273,
      "lng": 86.61214249999999,
      "address": "Plot No. 132/1519 , Khata - 562/25 , Paradeepgarh Kujanga, Paradeep",
      "open_now": true
    },
    {
      "place_id": "ChIJcxZVDQBLGjoR4pgYqwb5ycM",
      "name": "Abhijit sarkar",
      "lat": 20.2962809,
      "lng": 86.6076633,
      "address": "7JW5+Q7G, Niharuni",
      "open_now": null
    },
    {
      "place_id": "ChIJ-fRa0y_LGzoR4RULW3k5lnk",
      "name": "IndianOil",
      "lat": 20.32102,
      "lng": 86.54633299999999,
      "address": "Ground Floor Krushnachandrapur, Kujang, Balia",
      "open_now": true
    },
    {
      "place_id": "ChIJMVH6GwC1GzoRJkwifbpNq5A",
      "name": "Udayabata",
      "lat": 20.3055739,
      "lng": 86.62204109999999,
      "address": "8J4C+6RF, Udayabata",
      "open_now": null
    },
    {
      "place_id": "ChIJI3BSDgC1GzoRZAD6cXTdyMU",
      "name": "Kalyani fuel Station",
      "lat": 20.3055739,
      "lng": 86.62204109999999,
      "address": "8J4C+6RF, Udayabata",
      "open_now": null
    },
    {
      "place_id": "ChIJXf2feQC1GzoRyJjLaJpjRFU",
      "name": "Kalyani Fuel Station BPCL",
      "lat": 20.3115183,
      "lng": 86.62609549999999,
      "address": "8J6G+JC, Paradeep",
      "open_now": null
    }
  ]
}