{
  "city": "Bandipora",
  "state": "Jammu and Kashmir",
  "count": 42,
  "center": {
    "lat": 34.4,
    "lng": 74.3167
  },
  "pumps": [
    {
      "place_id": "ChIJMd6VegDj4DgR08RR8gCoRcw",
      "name": "NELIPORA FILLING STATION",
      "address": "96G5+M3V, Neli Pora",
      "lat": 34.37674620000001,
      "lng": 74.2076606,
      "open_now": null
    },
    {
      "place_id": "ChIJ8VFNTQAF4TgRWgtHqMXWrhg",
      "name": "Pandit petroleum hp pump",
      "address": "984W+MVC, Sogam",
      "lat": 34.356679,
      "lng": 74.34715489999999,
      "open_now": true
    },
    {
      "place_id": "ChIJ4UdBbQAF4TgRDC4CVG-DB3c",
      "name": "Petrol Pump Kralgund",
      "address": "near Nhwy, 133 Iqbal Market Street",
      "lat": 34.3563876,
      "lng": 74.3478945,
      "open_now": null
    },
    {
      "place_id": "ChIJB00r9xsF4TgRWa_a7LnTOqA",
      "name": "Hindustan Petroleum Corporation Limited",
      "address": "Ground Floor, Handwara",
      "lat": 34.367601,
      "lng": 74.33290099999999,
      "open_now": true
    },
    {
      "place_id": "ChIJtSDgXK4F4TgR4t_BvqmLcU4",
      "name": "Hindustan Petroleum Corporation Limited",
      "address": "Ground Floor Rafiabad, Road, Shitlu",
      "lat": 34.3252222,
      "lng": 74.3661181,
      "open_now": true
    },
    {
      "place_id": "ChIJ-cu9D2kH4TgR57sXthDEHrY",
      "name": "Petrol Pump",
      "address": "Hadipora Rafiabad",
      "lat": 34.2906043,
      "lng": 74.3811777,
      "open_now": true
    },
    {
      "place_id": "ChIJGaT8db8F4TgRXVYCYUatZnQ",
      "name": "Naseer Ahamd Pandith",
      "address": "Hadipora Rafiabad Bandipore, Hadipora Main Road",
      "lat": 34.2943125,
      "lng": 74.3887949,
      "open_now": null
    },
    {
      "place_id": "ChIJSRLpdQAF4TgR2zZF9LDHDAg",
      "name": "Fuel Station Wadoora",
      "address": "994V+VRJ, Wadoora",
      "lat": 34.3572005,
      "lng": 74.3945066,
      "open_now": null
    },
    {
      "place_id": "ChIJ3R52nj8P4TgROvO_8bYwY7k",
      "name": "Bharat Petroleum",
      "address": "8C9J+52Q, Shangergund",
      "lat": 34.31795520000001,
      "lng": 74.4301211,
      "open_now": null
    },
    {
      "place_id": "ChIJy50JdwEP4TgRzIKz4I5v4aY",
      "name": "Petrol Pump Seeloo",
      "address": "2, Seelo",
      "lat": 34.3439712,
      "lng": 74.4136247,
      "open_now": null
    },
    {
      "place_id": "ChIJiz0yHXgP4TgRZcPpfr8xxD8",
      "name": "Hamara Pump Seloo - Aziz Fuel Filling Station",
      "address": "Sopore-Kupwara Road, Seelo",
      "lat": 34.33998659999999,
      "lng": 74.4172961,
      "open_now": true
    },
    {
      "place_id": "ChIJcSZY8w4P4TgRMwn_kH9PdH8",
      "name": "Hindustan Petroleum Corporation Limited",
      "address": "Ground Floor, Sopore-Kupwara Road, Sopore",
      "lat": 34.340001,
      "lng": 74.417301,
      "open_now": true
    },
    {
      "place_id": "ChIJZwpWZQAJ4TgRRVZDBqXbLbs",
      "name": "HP Fuel station",
      "address": "7CXG+623, Hadipora Main Road, Sopore",
      "lat": 34.2980204,
      "lng": 74.42505799999999,
      "open_now": null
    },
    {
      "place_id": "ChIJx4I7bgAJ4TgRhqwDuFsAwTI",
      "name": "Rafiqs Filling station Reben Nowpora",
      "address": "7CXH+2W7, Nowpora Kalan",
      "lat": 34.29753379999999,
      "lng": 74.4297871,
      "open_now": null
    },
    {
      "place_id": "ChIJtUyTafgJ4TgRqhdNApnF5Cw",
      "name": "Hindustan Petroleum Corporation Limited",
      "address": "Ground Floor, Hadipora Main Road",
      "lat": 34.2942179,
      "lng": 74.4344264,
      "open_now": true
    },
    {
      "place_id": "ChIJ00cdDIsJ4TgRK9XcikvjQHM",
      "name": "Apple Town Filling Station, Nowpora, Sopore",
      "address": "OG, Hadipora Main Road, Nowpora Kalan",
      "lat": 34.29285370000001,
      "lng": 74.4441982,
      "open_now": true
    },
    {
      "place_id": "ChIJJQN8BgIJ4TgRrXnjh_j_w80",
      "name": "IndianOil",
      "address": "Ground Floor Noorbagh, Sopore Bypass, Kupwara Rd, Bomai",
      "lat": 34.295156,
      "lng": 74.449497,
      "open_now": true
    },
    {
      "place_id": "ChIJBUqtBAAJ4TgRV4rUQhquNws",
      "name": "Ar-Rawda Filling Station",
      "address": "Fruit mandi, Sopore",
      "lat": 34.28123229999999,
      "lng": 74.4378091,
      "open_now": null
    },
    {
      "place_id": "ChIJa2dmCwAJ4TgREPWHa3VpxtU",
      "name": "Hindustan Petroleum Corporation Limited",
      "address": "Ground Floor, Sopore",
      "lat": 34.288301,
      "lng": 74.447001,
      "open_now": true
    },
    {
      "place_id": "ChIJJwSexCUJ4TgRMavy_5FkbUk",
      "name": "IndianOil",
      "address": "opposite New Colony, Road, Kupwara",
      "lat": 34.2896118,
      "lng": 74.4576918,
      "open_now": true
    },
    {
      "place_id": "ChIJ__IkhHYJ4TgRpxwpSnnhaNE",
      "name": "IndianOil",
      "address": "Sopore",
      "lat": 34.2906949,
      "lng": 74.458658,
      "open_now": true
    },
    {
      "place_id": "ChIJk1QRObYP4TgRAXlhBot7YLQ",
      "name": "Ajaz War",
      "address": "near Hassan Moters, 33, near Hassan Moters",
      "lat": 34.3203264,
      "lng": 74.4722055,
      "open_now": null
    },
    {
      "place_id": "ChIJ39Rs4YEc4TgRpqVpvYuVBDQ",
      "name": "IndianOil",
      "address": "Sopore-Kupwara Road, Maidan-e-chogal",
      "lat": 34.409018,
      "lng": 74.311544,
      "open_now": true
    },
    {
      "place_id": "ChIJocW5Ncgd4TgR0vyGmBVTFig",
      "name": "IndianOil",
      "address": "Lock No 4916 Rajwara Road, Shilhal, Handwara",
      "lat": 34.40139599999999,
      "lng": 74.277025,
      "open_now": true
    },
    {
      "place_id": "ChIJ6aWGy4oc4TgRRTTuSQgPI5g",
      "name": "Bharat Petroleum - Goussya Filling Station (GFS)",
      "address": "Handwara Kulangam Road, College Road, Handwara",
      "lat": 34.4092035,
      "lng": 74.2894599,
      "open_now": true
    },
    {
      "place_id": "ChIJzdxD2GEc4TgRFFHI7LcRaPw",
      "name": "Hindustan Petroleum Corporation Limited",
      "address": "Ground Floor, Kulgam Road, Handwara",
      "lat": 34.4109412,
      "lng": 74.2921388,
      "open_now": true
    },
    {
      "place_id": "ChIJv6JoRwDj4DgRY1F9P_abfe8",
      "name": "AL HAYAT FILLING STATION",
      "address": "C52W+V9V, Zachaldara",
      "lat": 34.40224190000001,
      "lng": 74.19592039999999,
      "open_now": null
    },
    {
      "place_id": "ChIJ2w43UZ4f4TgRK2Be3PIGWSA",
      "name": "Neelipora magam",
      "address": "F725+43G, Handwara",
      "lat": 34.4503188,
      "lng": 74.2576888,
      "open_now": null
    },
    {
      "place_id": "ChIJP0hSK94f4TgRgtMFltNcTjs",
      "name": "Aabshar Fuels (IOCL)",
      "address": "Drugmulla",
      "lat": 34.4903247,
      "lng": 74.2795788,
      "open_now": true
    },
    {
      "place_id": "ChIJdf5lTswf4TgRwQj90GGWRJE",
      "name": "IndianOil",
      "address": "Ground Floor, Bumhama",
      "lat": 34.5136201,
      "lng": 74.26021820000001,
      "open_now": true
    },
    {
      "place_id": "ChIJBxXONPcf4TgRWS8t3oh8SLM",
      "name": "IndianOil",
      "address": "G7G3+FRF, near Acd complex, Kupwara",
      "lat": 34.5208125,
      "lng": 74.2600625,
      "open_now": true
    },
    {
      "place_id": "ChIJ7yoZD36DGjkRUCtqA-I5TwY",
      "name": "Bhat Construction",
      "address": "97 High Way, Kupwara",
      "lat": 34.52618,
      "lng": 74.254616,
      "open_now": null
    },
    {
      "place_id": "ChIJGeNlxtkf4TgRTTh6hJ2q3aQ",
      "name": "Al Khaliq Joo Filling Station",
      "address": "Cheerkote Lolab",
      "lat": 34.5281496,
      "lng": 74.2577076,
      "open_now": true
    },
    {
      "place_id": "ChIJhxULuvgf4TgRlT2cWgB9ZgU",
      "name": "Hindustan Petroleum Corporation Limited",
      "address": "Ground Floor, Kupwara Chowkibal Road, Kupwara",
      "lat": 34.5307356,
      "lng": 74.2245521,
      "open_now": true
    },
    {
      "place_id": "ChIJRUyzOKjh4DgRbv_HUqpAa0g",
      "name": "IndianOil",
      "address": "Kupwara-Kralpora Road, Batergam",
      "lat": 34.52843219999999,
      "lng": 74.2134746,
      "open_now": true
    },
    {
      "place_id": "ChIJq-bJ7eTh4DgR6AJ8lG3YkTI",
      "name": "Dolipora petrol",
      "address": "Villgam",
      "lat": 34.4646875,
      "lng": 74.1671875,
      "open_now": true
    },
    {
      "place_id": "ChIJYfY5xyvh4DgR2pptWEMKzUs",
      "name": "EVERGREEN FILLING STATION KRALPORA",
      "address": "Kralpora",
      "lat": 34.4798483,
      "lng": 74.16404849999999,
      "open_now": null
    },
    {
      "place_id": "ChIJo0NzeAfh4DgRXWm30wd_8h0",
      "name": "Hindustan Petroleum Corporation Limited",
      "address": "Ground Floor, Handwara Road, Villgam",
      "lat": 34.460301,
      "lng": 74.163201,
      "open_now": true
    },
    {
      "place_id": "ChIJDSOBoATh4DgRUP9S6zcI8n4",
      "name": "A-1 Filling Station Bharat Petroleum",
      "address": "Hayan",
      "lat": 34.5226395,
      "lng": 74.18737,
      "open_now": true
    },
    {
      "place_id": "ChIJL_BqO1gf4TgRbsH3vvlTBOI",
      "name": "IndianOil",
      "address": "Forest Block",
      "lat": 34.5397358,
      "lng": 74.29925469999999,
      "open_now": true
    },
    {
      "place_id": "ChIJ6_-JZPYZ4TgRgmOsIDAqvR4",
      "name": "Sana Filling Station",
      "address": "G9HJ+CXH, Wavoora",
      "lat": 34.5285736,
      "lng": 74.3824944,
      "open_now": true
    },
    {
      "place_id": "ChIJAQf6qYgZ4TgRUsy_2CnMQ0E",
      "name": "Faisal Muneer",
      "address": "1208",
      "lat": 34.528628,
      "lng": 74.382485,
      "open_now": null
    }
  ]
}