{
  "city": "Shopian",
  "state": "Jammu and Kashmir",
  "count": 104,
  "center": {
    "lat": 33.7833,
    "lng": 75.1167
  },
  "pumps": [
    {
      "place_id": "ChIJ7WOcf7cD4jgR6AAlWRrMJNg",
      "name": "Hindustan Petroleum Corporation Limited",
      "address": "Ground Floor, Shopian Wanpoh Road, Balsoo",
      "lat": 33.7024389,
      "lng": 75.0260639,
      "open_now": true
    },
    {
      "place_id": "ChIJG_E6nQYD4jgR1JmahxRdQsY",
      "name": "Petrol pump",
      "address": "Yaripora",
      "lat": 33.71156250000001,
      "lng": 75.0179375,
      "open_now": true
    },
    {
      "place_id": "ChIJM9Uo174D4jgRW_KFraK5noo",
      "name": "Bharat Petroleum petrol Pump Bogund",
      "address": "137, Bogund",
      "lat": 33.6901388,
      "lng": 75.05519939999999,
      "open_now": null
    },
    {
      "place_id": "ChIJKZmxuJ0D4jgR8D0g808XuXE",
      "name": "G2 FILLING STATION",
      "address": "P2G7+FH5, opposite New Bus Stand, Balsoo Yaipora Road, Yaripora",
      "lat": 33.7262802,
      "lng": 75.0140552,
      "open_now": true
    },
    {
      "place_id": "ChIJY72Wll0E4jgRmrGv_N-lIRk",
      "name": "Hindustan Petroleum Corporation Limited",
      "address": "Ground Floor, Wanpoh Kulgam Road, Khudwani",
      "lat": 33.7216234,
      "lng": 75.08568,
      "open_now": true
    },
    {
      "place_id": "ChIJG45DQnQD4jgRrSXDdg12Q0I",
      "name": "SAHAIB FILLING STATION",
      "address": "Kujar Road, Frisal",
      "lat": 33.74807990000001,
      "lng": 75.0445792,
      "open_now": true
    },
    {
      "place_id": "ChIJ4ZQYdMoB4jgRjeEr-HRivbE",
      "name": "Valley filing station",
      "address": "M2FV+R48, Srandoo, Jadi Pora Khalsa, Shindoo Kulpora",
      "lat": 33.6742465,
      "lng": 75.0427359,
      "open_now": null
    },
    {
      "place_id": "ChIJp1VARaUB4jgRzbZ4S6URhDI",
      "name": "Pertol Pump",
      "address": "Devsar",
      "lat": 33.673547,
      "lng": 75.0415429,
      "open_now": null
    },
    {
      "place_id": "ChIJhapQSQAH4jgR5Wo9jbshbyw",
      "name": "Naik Fuel Centre",
      "address": "Bhan",
      "lat": 33.68152190000001,
      "lng": 75.07894569999999,
      "open_now": true
    },
    {
      "place_id": "ChIJJbVVcQAF4jgR53fLJHZGx8A",
      "name": "COCO KASHMIR (COMPANY OWNED COMPANY OPERATED RETAIL OUTLET )",
      "address": "P3QW+2JH, Turka Thachloo",
      "lat": 33.7375647,
      "lng": 75.09659529999999,
      "open_now": true
    },
    {
      "place_id": "ChIJT4yaTgAF4jgRpy25AvqsNMA",
      "name": "IndianOil",
      "address": "Ground Floor, Wanpoh",
      "lat": 33.72748319999999,
      "lng": 75.10360709999999,
      "open_now": true
    },
    {
      "place_id": "ChIJ5S6RX0sE4jgRkpACXwzgCos",
      "name": "Hindustan Petroleum Corporation Limited",
      "address": "Ground Floor, NH 1A, near Jammu, Srinagar - Kanyakumari Highway, Laram Jangi Pora",
      "lat": 33.7149609,
      "lng": 75.10649769999999,
      "open_now": true
    },
    {
      "place_id": "ChIJdxSHXScF4jgR1hNR9b0QGv4",
      "name": "HP petrol pump",
      "address": "P4G3+WRW, National Highway 444, Wanpoh",
      "lat": 33.72735179999999,
      "lng": 75.10458290000001,
      "open_now": true
    },
    {
      "place_id": "ChIJT79DNCYB4jgRICIrMXVsLfs",
      "name": "MEHRAJ AHMAD KUMBAY",
      "address": "103, ORIEL KUND Hardu, Tang Marg",
      "lat": 33.6574781,
      "lng": 75.0376619,
      "open_now": null
    },
    {
      "place_id": "ChIJKYMtcskB4jgR6j_tfkl2zKY",
      "name": "TARIQ AHMAD KUMBAY",
      "address": "ORIEL KUNDspn, 103 Hurda Aboora, Tang Marg",
      "lat": 33.6574781,
      "lng": 75.0376619,
      "open_now": null
    },
    {
      "place_id": "ChIJvWvaoG0B4jgRWfEZrxNVWmE",
      "name": "Hindustan Petroleum Corporation Limited",
      "address": "Ground Floor, Kulgam",
      "lat": 33.6590315,
      "lng": 75.0278422,
      "open_now": true
    },
    {
      "place_id": "ChIJ6VrXfXod4jgRbvqiTMYsn50",
      "name": "IndianOil",
      "address": "Ground Floor, Shirpora",
      "lat": 33.7704213,
      "lng": 75.0557034,
      "open_now": true
    },
    {
      "place_id": "ChIJAwqhehAF4jgRvNUjM3hVdCo",
      "name": "Hyder Filling Station",
      "address": "near police post Mir bazar, 20 kulgam road, Anantnag",
      "lat": 33.69113209999999,
      "lng": 75.1125158,
      "open_now": null
    },
    {
      "place_id": "ChIJgwEMRe8B4jgR6zKdHoCGD9M",
      "name": "IndianOil",
      "address": "Ground Floor, Kulgam",
      "lat": 33.6565792,
      "lng": 75.0254822,
      "open_now": true
    },
    {
      "place_id": "ChIJmetnH9YF4jgRKHRzSI-w-h0",
      "name": "Hindustan Petroleum Corporation Limited",
      "address": "Ground Floor, near Jammu Srinagar Road, NH 1A Mir Bazaar Road, Nepora",
      "lat": 33.6884917,
      "lng": 75.114778,
      "open_now": true
    },
    {
      "place_id": "ChIJdagiRwAH4jgRIAYS7whew7U",
      "name": "Bhat Fuel Station Akhran",
      "address": "Akhran",
      "lat": 33.6756553,
      "lng": 75.10677489999999,
      "open_now": true
    },
    {
      "place_id": "ChIJjSPgGMQF4jgR2g9stf-4WFc",
      "name": "IndianOil",
      "address": "Ground Floor Khannabal Road, Janglat Mandi, Anantnag",
      "lat": 33.7350559,
      "lng": 75.1179988,
      "open_now": true
    },
    {
      "place_id": "ChIJ7z9y8kcH4jgRMwqr7-1ACFs",
      "name": "IndianOil",
      "address": "Ground Floor Nipora, NH 1A Manjmoh",
      "lat": 33.687348,
      "lng": 75.11616099999999,
      "open_now": true
    },
    {
      "place_id": "ChIJ75_zLHgB4jgRfvubkMZr-0g",
      "name": "K S K BRAZLOO",
      "address": "J2VW+VPG New hospital qazigund, road, Brazlo",
      "lat": 33.6446875,
      "lng": 75.0468125,
      "open_now": true
    },
    {
      "place_id": "ChIJNQ_Q1nEF4jgR-xHpSfR5QqU",
      "name": "IndianOil",
      "address": "Ground Floor, Monghal, Acchabal,Brinal Lamar, Achabal",
      "lat": 33.7057168,
      "lng": 75.129965,
      "open_now": true
    },
    {
      "place_id": "ChIJ461i5HcF4jgRNNWHGPbe1kY",
      "name": "Zum zum filling station پیٹرول پمپ",
      "address": "Anantnag",
      "lat": 33.73614749999999,
      "lng": 75.14194839999999,
      "open_now": true
    },
    {
      "place_id": "ChIJh-w87Q0F4jgRJURqt0fpxns",
      "name": "Bharat Petroleum - بھارت پٹرولیم",
      "address": "Khanabal, Anantnag, NH-1A, Srinagar Jammu Highway, Anantnag, Anantnag",
      "lat": 33.744019,
      "lng": 75.126734,
      "open_now": true
    },
    {
      "place_id": "ChIJlw6XXHgF4jgRUqqHLPH4_Oc",
      "name": "IndianOil",
      "address": "near Bus Stand, KP Road, Anantnag",
      "lat": 33.7382974,
      "lng": 75.1442969,
      "open_now": true
    },
    {
      "place_id": "ChIJtbb4HGoP4jgRTP21x4TYV-M",
      "name": "Hindustan Petroleum Corporation Limited",
      "address": "Ground Floor, Kokernag Road, Achabal",
      "lat": 33.7183648,
      "lng": 75.1721754,
      "open_now": true
    },
    {
      "place_id": "ChIJmdabnCob4jgRBm3PxA57KbM",
      "name": "Hindustan Petroleum Corporation Limited",
      "address": "Ground Floor, Bijbehara",
      "lat": 33.77717209999999,
      "lng": 75.1075012,
      "open_now": true
    },
    {
      "place_id": "ChIJjccOs5sF4jgRG25eHYadE4I",
      "name": "IndianOil",
      "address": "Ground Floor, Khanabal Bridge, Anantnag",
      "lat": 33.7354451,
      "lng": 75.1430969,
      "open_now": true
    },
    {
      "place_id": "ChIJo_GubXkF4jgR-K8fRWf-FdQ",
      "name": "IndianOil",
      "address": "Ground Floor, Mehndi Kadal, Anantnag",
      "lat": 33.7352075,
      "lng": 75.1434821,
      "open_now": true
    },
    {
      "place_id": "ChIJQUU29rcF4jgR-JdpkUH_CEo",
      "name": "United Filling Station",
      "address": "United Filling Station, Anantnag",
      "lat": 33.737908,
      "lng": 75.14343029999999,
      "open_now": null
    },
    {
      "place_id": "ChIJB9O5x7AF4jgREc3L1XdMpQ0",
      "name": "Irfan Ahmad Khuroo",
      "address": "60 Near General Bus Stand, KP Road, Anantnag",
      "lat": 33.7378642,
      "lng": 75.1454232,
      "open_now": null
    },
    {
      "place_id": "ChIJOTxllFcP4jgRN_msVTdGMFs",
      "name": "Hindustan Petroleum Corporation Limited",
      "address": "No 2, Ground Floor ADV Road, Dialgam, near KM Stone, Bon Dialgam",
      "lat": 33.7036506,
      "lng": 75.1562189,
      "open_now": true
    },
    {
      "place_id": "ChIJN2J8ZgAP4jgRPcFI2fCAT50",
      "name": "Abu Hamzah Properties",
      "address": "P524+84P, Bon Dialgam",
      "lat": 33.7008408,
      "lng": 75.1553319,
      "open_now": null
    },
    {
      "place_id": "ChIJJXWPrmAP4jgRvLJ5dIHCYao",
      "name": "Aijaz Ahmad Bhat",
      "address": "near Petrol Pump, 20 Achabal Road, Anantnag",
      "lat": 33.7250164,
      "lng": 75.1574681,
      "open_now": null
    },
    {
      "place_id": "ChIJHyPQPhcF4jgRn7wuDpbCBaI",
      "name": "IndianOil",
      "address": "Ground, Batangoo Playground, Akingam",
      "lat": 33.75060199999999,
      "lng": 75.121337,
      "open_now": true
    },
    {
      "place_id": "ChIJ5fOtqlYP4jgR_hQEzG-pDqs",
      "name": "IndianOil",
      "address": "Ground Floor, Bondalagam, Anantnag",
      "lat": 33.6997927,
      "lng": 75.160294,
      "open_now": true
    },
    {
      "place_id": "ChIJhZREkhcF4jgRK5Xjf6X7JWw",
      "name": "Hafiz Filling Station",
      "address": "NH 1, Kanjigund",
      "lat": 33.7532758,
      "lng": 75.1198653,
      "open_now": true
    },
    {
      "place_id": "ChIJJfmR3WUP4jgRlRdEWMpwlgE",
      "name": "IndianOil",
      "address": "Anantnag",
      "lat": 33.7226875,
      "lng": 75.1648125,
      "open_now": true
    },
    {
      "place_id": "ChIJna1iw88P4jgRelASv5-RqK8",
      "name": "Bharat petroleum pump",
      "address": "P5C8+9WG, NH 1B, Anantnag",
      "lat": 33.7209478,
      "lng": 75.16733909999999,
      "open_now": null
    },
    {
      "place_id": "ChIJqaHOyKwP4jgRpQ3ReZZRjMI",
      "name": "Achabal Filling Station",
      "address": "Takia Bal",
      "lat": 33.7161886,
      "lng": 75.1745467,
      "open_now": true
    },
    {
      "place_id": "ChIJ9xS4OlEJ4jgR_Ujx78ixUmw",
      "name": "Bharat Petroleum Petrol Pump , KHANDAY FILLING STATION",
      "address": "PERTH, Dialgam",
      "lat": 33.6844346,
      "lng": 75.1678009,
      "open_now": true
    },
    {
      "place_id": "ChIJdQi4hwYH4jgRExSMJNv91sg",
      "name": "REZWAN MUSHTAQ",
      "address": "Near Main Road, Mandhole",
      "lat": 33.6588423,
      "lng": 75.11494929999999,
      "open_now": null
    },
    {
      "place_id": "ChIJsx3IbEYG4jgRkol9t5SNJKw",
      "name": "Hasina Filling Station CHECK RAJ WALI Bharat patrol",
      "address": "M45G+C9P, National Highway 44",
      "lat": 33.6585883,
      "lng": 75.12594279999999,
      "open_now": true
    },
    {
      "place_id": "ChIJVbj4OmcP4jgRymp-UZNsPU4",
      "name": "Aftab Filling Station",
      "address": "20, near Trahab, Achabal",
      "lat": 33.7442315,
      "lng": 75.1844165,
      "open_now": null
    },
    {
      "place_id": "ChIJEaAGxz0b4jgRR4LTGPp0gTY",
      "name": "Qadri Service Station (HP Petrol Pump)",
      "address": "NH 1A, Bijbehara",
      "lat": 33.77752950000001,
      "lng": 75.10718969999999,
      "open_now": null
    },
    {
      "place_id": "ChIJNQFuPAAb4jgRacNk4X-T2L0",
      "name": "HAMZAH SEAT MANUFACTURERS PAZALPORA",
      "address": "Q4J4+F6H, Bijbehara",
      "lat": 33.78118269999999,
      "lng": 75.105609,
      "open_now": null
    },
    {
      "place_id": "ChIJcRHtK8sb4jgRF1Pqdt08Av4",
      "name": "Parray",
      "address": "123, Parraypora",
      "lat": 33.7810129,
      "lng": 75.0978416,
      "open_now": null
    },
    {
      "place_id": "ChIJ_8DbHQAJ4jgRLB6i2LANtv0",
      "name": "Aftab filling station petrol pump",
      "address": "M6XC+WGP, Kangan Hal",
      "lat": 33.6998331,
      "lng": 75.22133579999999,
      "open_now": null
    },
    {
      "place_id": "ChIJVfLSXDEJ4jgR2rKRwpsElLo",
      "name": "Hindustan Petroleum Corporation Limited",
      "address": "Ground Floor, Road Jogigund, Achabal",
      "lat": 33.688756,
      "lng": 75.214574,
      "open_now": true
    },
    {
      "place_id": "ChIJ5RFmozAP4jgRJT2peNVje8A",
      "name": "Ashiq Hussain Malik",
      "address": "Petrol Pump, 121 Road, Mattan",
      "lat": 33.7534556,
      "lng": 75.19962129999999,
      "open_now": null
    },
    {
      "place_id": "ChIJ9cSrnPIP4jgRjFIxE-NAzHY",
      "name": "IndianOil",
      "address": "Ground Floor Khanabal, Road, Pahalgam",
      "lat": 33.753528,
      "lng": 75.199826,
      "open_now": true
    },
    {
      "place_id": "ChIJ5zLRA5UP4jgRl-4z8u8I5vk",
      "name": "Mattan Filling Station",
      "address": "Petrol Pump, near Mattan, 36 KP Road, Anantnag",
      "lat": 33.7535375,
      "lng": 75.20056799999999,
      "open_now": null
    },
    {
      "place_id": "ChIJJ1jt430P4jgRoJUh2vAe9ew",
      "name": "Umeir Yaqoob Dar",
      "address": "near Mattan Petrol Pump, 20 Mattan Road, Anantnag",
      "lat": 33.7535375,
      "lng": 75.20056799999999,
      "open_now": null
    },
    {
      "place_id": "ChIJoZNU5M0P4jgRcR7x-ZRjyjQ",
      "name": "Mattan Filling Station",
      "address": "Islamabad Mattan Road, Mattan",
      "lat": 33.7543058,
      "lng": 75.1995194,
      "open_now": null
    },
    {
      "place_id": "ChIJ886MtW8J4jgR9od8p11G9DQ",
      "name": "Mir Oil Station",
      "address": "Malikpora Hakura",
      "lat": 33.653262,
      "lng": 75.1945956,
      "open_now": null
    },
    {
      "place_id": "ChIJTY5kGWcJ4jgRNbX2B0yu8VU",
      "name": "SHEIKH-UL ALAM FILLING STATION HAKURA",
      "address": "SHEIKH-UL ALAM FILLING STATION, 01, Hakura Badas Gam",
      "lat": 33.6491952,
      "lng": 75.198196,
      "open_now": null
    },
    {
      "place_id": "ChIJ5_WKrtsL4jgR5nUTm_aTX-Q",
      "name": "Petrol pump",
      "address": "M7V9+8C6, Shangus",
      "lat": 33.6932832,
      "lng": 75.26851049999999,
      "open_now": null
    },
    {
      "place_id": "ChIJf8302mMb4jgR3G-dyS4swQQ",
      "name": "IndianOil",
      "address": "Ground Floor, Bijbehara",
      "lat": 33.78750009999999,
      "lng": 75.06179999999999,
      "open_now": true
    },
    {
      "place_id": "ChIJX6ynQ54d4jgR_i-4yQr0kxk",
      "name": "Self Business",
      "address": "150, Melahura",
      "lat": 33.8063717,
      "lng": 75.05144059999999,
      "open_now": null
    },
    {
      "place_id": "ChIJsz0Tx2Ic4jgRJubPteTW1yo",
      "name": "IndianOil",
      "address": "Ground Floor, Pulwama Sangam Road, Shopian Road, Watchi",
      "lat": 33.8129001,
      "lng": 75.0486,
      "open_now": true
    },
    {
      "place_id": "ChIJK2Mb52Ed4jgR1d0muCH-krk",
      "name": "IndianOil",
      "address": "Ground Floor, Niklora",
      "lat": 33.801688,
      "lng": 74.999907,
      "open_now": true
    },
    {
      "place_id": "ChIJrffjZBcb4jgRCWOocLnk7nE",
      "name": "Bijbehara Petrol Pump",
      "address": "Q3XW+J7W, NH1A, Bijbehara",
      "lat": 33.79911749999999,
      "lng": 75.0956934,
      "open_now": null
    },
    {
      "place_id": "ChIJX_Igarwb4jgR9MkvEJyTvI8",
      "name": "IndianOil",
      "address": "Ground Floor, Sangam",
      "lat": 33.82219389999999,
      "lng": 75.0739596,
      "open_now": true
    },
    {
      "place_id": "ChIJ-ZuiQhgb4jgRid25Ao_mDXY",
      "name": "IndianOil",
      "address": "opposite PHE Office, Ground Floor, Bijbehara, opposite PHE Office, Arwani",
      "lat": 33.7973044,
      "lng": 75.0983372,
      "open_now": true
    },
    {
      "place_id": "ChIJncNzPxcb4jgRPKM8oVGKQbk",
      "name": "HP PETROL PUMP - R K AUTOCARE",
      "address": "NH-1A, Bijbehara",
      "lat": 33.797314,
      "lng": 75.09835749999999,
      "open_now": true
    },
    {
      "place_id": "ChIJYZhkAekb4jgRF_K41BBougs",
      "name": "IndianOil",
      "address": "National Highway 44 Sangam, Bijbehara",
      "lat": 33.8223047,
      "lng": 75.07468349999999,
      "open_now": true
    },
    {
      "place_id": "ChIJqVt09EQb4jgRgzYXDvfcg8Q",
      "name": "IndianOil",
      "address": "JN,DIST, Anantnag",
      "lat": 33.8262464,
      "lng": 75.06856619999999,
      "open_now": true
    },
    {
      "place_id": "ChIJva3CcwAb4jgRCvMgF8vqD_A",
      "name": "South kashmir filling station",
      "address": "R3HC+2R4, Sangam",
      "lat": 33.8275058,
      "lng": 75.07206560000002,
      "open_now": true
    },
    {
      "place_id": "ChIJGXIdR-sd4jgR_rhs-mu9D80",
      "name": "IndianOil",
      "address": "Ground Floor, Litter",
      "lat": 33.8148531,
      "lng": 74.996765,
      "open_now": true
    },
    {
      "place_id": "ChIJ_aPqutEb4jgRJ8XH_xPe74k",
      "name": "IndianOil",
      "address": "No 1546/421, Bijbehara",
      "lat": 33.79481369999999,
      "lng": 75.1120933,
      "open_now": true
    },
    {
      "place_id": "ChIJw4Vp6k0d4jgRlg-j7xqp3Tk",
      "name": "IndianOil",
      "address": "Ground Floor Hef, Shirmal",
      "lat": 33.79692099999999,
      "lng": 74.98121309999999,
      "open_now": true
    },
    {
      "place_id": "ChIJb8DnfQAd4jgRRuKZrIh3Fmg",
      "name": "Bhat filling station",
      "address": "R3R3+25V, Dogri Pora",
      "lat": 33.8401016,
      "lng": 75.0529256,
      "open_now": true
    },
    {
      "place_id": "ChIJFz6Txtod4jgR7qlnUO238EE",
      "name": "IndianOil",
      "address": "Ground Floor Shopian, Kani Pora",
      "lat": 33.77018639999999,
      "lng": 74.9775614,
      "open_now": true
    },
    {
      "place_id": "ChIJ946Z5Qgb4jgRW70ITeA_Yrc",
      "name": "Classic Filling Station",
      "address": "Bijbehara",
      "lat": 33.7952811,
      "lng": 75.1224684,
      "open_now": null
    },
    {
      "place_id": "ChIJDRqPfAAb4jgRLlmNeVrnLVI",
      "name": "Hindustan Petroleum Corporation Limited",
      "address": "Ground Floor Srigufwara, Road, Bijbehara",
      "lat": 33.794367,
      "lng": 75.125779,
      "open_now": true
    },
    {
      "place_id": "ChIJO-VPffYb4jgRw_q9HavFoJg",
      "name": "Zahid Nazir",
      "address": "Petrol Pump Dupatyar, Dupatyar Petrol Pump 192124",
      "lat": 33.7946418,
      "lng": 75.12573689999999,
      "open_now": null
    },
    {
      "place_id": "ChIJjbcgEiEb4jgRcIAtv00QatM",
      "name": "Petrol Pump",
      "address": "Classic Filling Station, Phalagam Road, Bijbehara",
      "lat": 33.7943375,
      "lng": 75.1258005,
      "open_now": null
    },
    {
      "place_id": "ChIJXy5CFekd4jgRq1kGHpRmfrw",
      "name": "Akhtar filling station (Bharat Petroleum - भारत पेट्रोलियम)",
      "address": "NH44 Sethar, Sangam",
      "lat": 33.85025509999999,
      "lng": 75.0519466,
      "open_now": true
    },
    {
      "place_id": "ChIJ24BhVpYd4jgRsfrXfY-RjB0",
      "name": "IndianOil",
      "address": "Ground Floor, Satter, Halmolabijbhera,Arwani",
      "lat": 33.8536001,
      "lng": 75.04939999999999,
      "open_now": true
    },
    {
      "place_id": "ChIJJy0JI8IR4jgRu-7ykovL6zc",
      "name": "Bhat Gas Delivery Point, Nowpora",
      "address": "R53F+MX3, Bijbehara",
      "lat": 33.80441959999999,
      "lng": 75.17491880000001,
      "open_now": null
    },
    {
      "place_id": "ChIJKSZ6VAAR4jgRjjwDctcgBSs",
      "name": "Gas Agency",
      "address": "R6QJ+2MP, Dachee Gam",
      "lat": 33.8377086,
      "lng": 75.2318748,
      "open_now": null
    },
    {
      "place_id": "ChIJL33V_mQR4jgROdbm7S0honA",
      "name": "Sakhi kashmir gas service",
      "address": "Chatrasoo Badroo",
      "lat": 33.8377036,
      "lng": 75.2332334,
      "open_now": null
    },
    {
      "place_id": "ChIJawid_LYf4jgRMtN0aI3_BKw",
      "name": "IndianOil",
      "address": "Ground Floor Padgampora, Awantipur, City",
      "lat": 33.9002001,
      "lng": 74.9947,
      "open_now": true
    },
    {
      "place_id": "ChIJa16_AKge4jgRJ9L1E6iDCGs",
      "name": "Crescent Filling Station",
      "address": "Pathan Mohalla, Pulwama NH-1A, Srinagar Jammu, Highway, Bijbehara",
      "lat": 33.85568600000001,
      "lng": 75.049523,
      "open_now": null
    },
    {
      "place_id": "ChIJV6wWbF8f4jgRgfTr5UNTfQY",
      "name": "IndianOil",
      "address": "Ground Floor",
      "lat": 33.8657402,
      "lng": 75.0474224,
      "open_now": true
    },
    {
      "place_id": "ChIJP37PXDUf4jgRXQxuQiRD1QU",
      "name": "Bharat Petroleum, Petrol Pump -Hafiz Filling Station",
      "address": "BATINGOO,ON NH44 DIST.ANA, ANANTNAG",
      "lat": 33.8715518,
      "lng": 75.0455473,
      "open_now": true
    },
    {
      "place_id": "ChIJlZt0Y8Af4jgROX_SjsK1gv0",
      "name": "MOHAMMAD IQBAL BHAT",
      "address": "321 Chersoo - Chandrigam Road, Awantipora",
      "lat": 33.8878726,
      "lng": 75.02917289999999,
      "open_now": null
    },
    {
      "place_id": "ChIJh2rWJggf4jgRX_tjQs23uQU",
      "name": "Mushtaq Ahmed Parray",
      "address": "Parray Building, 111, Pulwama",
      "lat": 33.8878735,
      "lng": 75.02915349999999,
      "open_now": null
    },
    {
      "place_id": "ChIJUwmNqeUe4jgRjcamUZJaJ-8",
      "name": "Sheeraz Filling Station HPCL Petrol Pump",
      "address": "Chersoo Awantipora, Pulwama, NH-1A, Srinagar Jammu Highway, Bijbehara, Bijbehara",
      "lat": 33.8878472,
      "lng": 75.0282972,
      "open_now": true
    },
    {
      "place_id": "ChIJB8vu6mge4jgR96xsoGTcI6Q",
      "name": "KSK Filling Station Gulzarpora Pulwama Kmr",
      "address": "Pulwama District, Gulzarpora",
      "lat": 33.86729719999999,
      "lng": 75.0012831,
      "open_now": true
    },
    {
      "place_id": "ChIJqdboPoIf4jgRTzmEtROZXYI",
      "name": "Jan Mohd Padroo",
      "address": "Kisan Seva Kendra, Gulzarpora",
      "lat": 33.8672776,
      "lng": 75.0011127,
      "open_now": null
    },
    {
      "place_id": "ChIJ31xQTAAZ4jgRcSDsAhX0v0U",
      "name": "Ms.noora filling station",
      "address": "V3QQ+8RG, Buchoo",
      "lat": 33.8883112,
      "lng": 75.08958539999999,
      "open_now": null
    },
    {
      "place_id": "ChIJ75Qo7uUf4jgRoxsx80lxXUA",
      "name": "IndianOil",
      "address": "Ground Floor Awantipur, Anantnag",
      "lat": 33.900095,
      "lng": 75.023232,
      "open_now": true
    },
    {
      "place_id": "ChIJeysZlR8f4jgRQsab4sdFTz0",
      "name": "Zaif Fuels",
      "address": "Awantipora",
      "lat": 33.8908828,
      "lng": 75.00561859999999,
      "open_now": true
    },
    {
      "place_id": "ChIJL9TlmwMf4jgR5jMBBnTk9RE",
      "name": "Hindustan Petroleum Corporation Limited",
      "address": "Ground Floor, NH 1A, Chersoo Awantipora",
      "lat": 33.9001902,
      "lng": 75.02271379999999,
      "open_now": true
    },
    {
      "place_id": "ChIJjdibm80f4jgRWvxmeEOuWXY",
      "name": "Bharat Petroleum Petrol Pump , R.B.SERVICE STATION",
      "address": "LALGAM PULWAMA, JK",
      "lat": 33.9124269,
      "lng": 75.0597052,
      "open_now": true
    },
    {
      "place_id": "ChIJr-r8pWEZ4jgRIMpXGIgqStk",
      "name": "Unique filling station",
      "address": "W378+672, Lalgam",
      "lat": 33.9130117,
      "lng": 75.0656533,
      "open_now": null
    },
    {
      "place_id": "ChIJrTUM1gsf4jgRkCrkXttzH44",
      "name": "IndianOil",
      "address": "Ground Floor Awantipur, Anantnag",
      "lat": 33.911532,
      "lng": 75.017702,
      "open_now": true
    },
    {
      "place_id": "ChIJSW6oVwAZ4jgRUTGUhdDC57Q",
      "name": "Barkat Filling Station Amirabad Tral",
      "address": "amirabad Road, Amirabad",
      "lat": 33.9169443,
      "lng": 75.1084169,
      "open_now": true
    },
    {
      "place_id": "ChIJ23neCJQZ4jgRx-VL7v_GR8o",
      "name": "Sufigm199",
      "address": "Rfa Filling Station, Tral, Pulwama",
      "lat": 33.9179073,
      "lng": 75.1086772,
      "open_now": null
    },
    {
      "place_id": "ChIJLyQLXAAR4jgR1JxrIcM24Mk",
      "name": "Pahalgam Filling Station",
      "address": "KP Road, Sili Gam",
      "lat": 33.8305453,
      "lng": 75.2584092,
      "open_now": true
    }
  ]
}