{
  "city": "Jamshedpur",
  "state": "Jharkhand",
  "count": 136,
  "center": {
    "lat": 22.8,
    "lng": 86.1833
  },
  "pumps": [
    {
      "place_id": "ChIJaWPzxSv79TkRX6Hj3RqAENM",
      "name": "IndianOil",
      "address": "Ground Floor, Ichagarh, Jaikan, Rola, Rola",
      "lat": 22.72182699999999,
      "lng": 86.115158,
      "open_now": true
    },
    {
      "place_id": "ChIJrzqiqI_l9TkRWwUTsZXqfNY",
      "name": "IndianOil",
      "address": "Ground Floor, Adityapur, Jamshedpur",
      "lat": 22.7907933,
      "lng": 86.14773819999999,
      "open_now": true
    },
    {
      "place_id": "ChIJPRUa9urk9TkRWN8Qbl_P0ic",
      "name": "Hindustan Petroleum Corporation Limited",
      "address": "Ground Floor, Adityapur, Jamshedpur",
      "lat": 22.7900307,
      "lng": 86.1523758,
      "open_now": true
    },
    {
      "place_id": "ChIJtRmLuj399TkRSkRAkUd8_ts",
      "name": "Hindustan Petroleum Corporation Limited",
      "address": "P, 1276/P, Khasra No 525, PN 1275, 1371/P, Shiv Nagar, Harharguttu",
      "lat": 22.7620734,
      "lng": 86.1810732,
      "open_now": true
    },
    {
      "place_id": "ChIJzc2wEIL99TkR037j81Bmwr0",
      "name": "Petrol Pump - Shiv Shiva",
      "address": "48-b, Harharguttu, Jugsalai, Jamshedpur",
      "lat": 22.7621727,
      "lng": 86.18113620000001,
      "open_now": true
    },
    {
      "place_id": "ChIJbd5ZKVHl9TkRromLaJkcA18",
      "name": "IndianOil",
      "address": "Ground Floor, Adityapur - Kandra Highway, Gamharia, Jamshedpur",
      "lat": 22.799118,
      "lng": 86.13029499999999,
      "open_now": true
    },
    {
      "place_id": "ChIJIzCTuDXj9TkRVS-fefytHxo",
      "name": "IndianOil",
      "address": "Ground Floor, Jugsalai, Jamshedpur",
      "lat": 22.7698413,
      "lng": 86.1972262,
      "open_now": true
    },
    {
      "place_id": "ChIJ_Z5bPu389TkR2yy4hJYFhos",
      "name": "IndianOil",
      "address": "Ground Floor, Rola, Sunder Nagar, Purihasa",
      "lat": 22.73149,
      "lng": 86.1967232,
      "open_now": true
    },
    {
      "place_id": "ChIJyQevry_j9TkRX9C2jhevjXQ",
      "name": "Bharat Petroleum",
      "address": "near Masjid, Burma Mines Road, Jamshedpur",
      "lat": 22.775222,
      "lng": 86.20772,
      "open_now": true
    },
    {
      "place_id": "ChIJ0wpzE2Xj9TkRBnOAo2R3Lv8",
      "name": "Hindustan Petroleum Corporation Limited",
      "address": "Ground Floor, Bistupur, Jamshedpur",
      "lat": 22.7989519,
      "lng": 86.1839411,
      "open_now": true
    },
    {
      "place_id": "ChIJTfwopNH99TkRdMWbAM4fAno",
      "name": "Shaw Small Emergency Fule",
      "address": "Uparkulitola, Haludbani, Parsudih, Jamshedpur",
      "lat": 22.7412898,
      "lng": 86.20727529999999,
      "open_now": null
    },
    {
      "place_id": "ChIJT4tlgsb89TkRjCpdtWKouek",
      "name": "Sunder Fuels (B.P) Petrol Pump",
      "address": "Tata - Hata Main Road, Golpahari, Parsudih, Jamshedpur",
      "lat": 22.75016149999999,
      "lng": 86.20051989999999,
      "open_now": true
    },
    {
      "place_id": "ChIJHep1u1v89TkRU3vKd5tRb6c",
      "name": "Bharat Petroleum",
      "address": "India",
      "lat": 22.7099785,
      "lng": 86.2022528,
      "open_now": null
    },
    {
      "place_id": "ChIJi3jxulv89TkRk89l0xzzlqQ",
      "name": "Deep & deep bpclPetrol Pupm",
      "address": "P652+XXJ, Tata - Hata Main Road, Kudada",
      "lat": 22.7099532,
      "lng": 86.20240609999999,
      "open_now": null
    },
    {
      "place_id": "ChIJQ-xgEwD99TkR7h63pDd1adE",
      "name": "Hindustan Petroleum Corporation Limited",
      "address": "Ground Floor, Sunder Nagar, Tata - Hata Main Road, Kudada",
      "lat": 22.70672649999999,
      "lng": 86.2026197,
      "open_now": true
    },
    {
      "place_id": "ChIJ2Vuy7c789TkRRLpmd1A36D4",
      "name": "Hindustan Petroleum Corporation Limited",
      "address": "Ground Floor, Tata, Jamshedpur - Chaibasa Road, Karandih",
      "lat": 22.757961,
      "lng": 86.202294,
      "open_now": true
    },
    {
      "place_id": "ChIJY-PnWNf89TkRaiSnVdGwkpw",
      "name": "RAJENDRA & SONS Bharat Petroleum- Petrol Pump",
      "address": "Q636+PMQ, Cinema Road Parasuidh, Tata Nagar, Jamshedpur",
      "lat": 22.7543386,
      "lng": 86.2117229,
      "open_now": true
    },
    {
      "place_id": "ChIJgTscRlz99TkRwsFzn1qG4lE",
      "name": "Bharat Petroleum, Petrol Pump -Rajendra & Sons",
      "address": "Parsudih, Jamshedpur",
      "lat": 22.7481174,
      "lng": 86.2209316,
      "open_now": true
    },
    {
      "place_id": "ChIJUXLbeOLj9TkRWmfLrbyRvzQ",
      "name": "HP PETROL PUMP - SUPER ENERGY",
      "address": "Ground Floor, near Tatanagar, Railway Station, Burma Mines",
      "lat": 22.7720566,
      "lng": 86.2016579,
      "open_now": true
    },
    {
      "place_id": "ChIJ86EEV0Xj9TkRxaCJS8EQAcE",
      "name": "IndianOil",
      "address": "Ground Floor, near Rly Crossing, Jugsalai, Jamshedpur",
      "lat": 22.7776429,
      "lng": 86.1858963,
      "open_now": true
    },
    {
      "place_id": "ChIJK0hCyMT99TkR5wDRG2t8wQE",
      "name": "IndianOil",
      "address": "Khata No 41, P No 153, Agrico, Khukhradih",
      "lat": 22.719006,
      "lng": 86.23505399999999,
      "open_now": true
    },
    {
      "place_id": "ChIJEZ2hTSXj9TkRMkRN2I2g8yc",
      "name": "Hindustan Petroleum Corporation Limited",
      "address": "Ground Floor, near NML Gate, Burma Mines, Jamshedpur",
      "lat": 22.7787044,
      "lng": 86.2056381,
      "open_now": true
    },
    {
      "place_id": "ChIJm3WcQ13j9TkR45sNzp1X_kA",
      "name": "Hindustan Petroleum Corporation Limited",
      "address": "Ground Floor, J.J. Apartments, near Ram Mandir, Jamshedpur",
      "lat": 22.7879881,
      "lng": 86.1843557,
      "open_now": true
    },
    {
      "place_id": "ChIJi4t5KwDl9TkRF0ZBx2V76yY",
      "name": "Pan dukan chauk",
      "address": "Q5P9+J52, LIC Staff Colony, Aditypur Colony Site No 1, Adityapur, Jamshedpur",
      "lat": 22.7865218,
      "lng": 86.16787599999999,
      "open_now": null
    },
    {
      "place_id": "ChIJBTLN1-zl9TkRlTr8ioeOYE4",
      "name": "Petrol",
      "address": "Railway Colony, Adityapur Basti, Adityapur, Jamshedpur",
      "lat": 22.7864684,
      "lng": 86.16724789999999,
      "open_now": null
    },
    {
      "place_id": "ChIJyUFsWmDl9TkRuqdehWavzgQ",
      "name": "Bharat Petroleum, Petrol Pump -Kedia & Co",
      "address": "KARSAWAN, Adityapur, SERAIKALA",
      "lat": 22.7856481,
      "lng": 86.163186,
      "open_now": true
    },
    {
      "place_id": "ChIJ9VgqXqLk9TkRxnjNHv0qxUI",
      "name": "IndianOil",
      "address": "Ground Floor, BDR Furniture, Adityapur, Jamshedpur",
      "lat": 22.7870124,
      "lng": 86.1678055,
      "open_now": true
    },
    {
      "place_id": "ChIJjd7WzRfl9TkRAPK-dtlmXgA",
      "name": "IndianOil",
      "address": "Ground Floor, Adityapur, Jamshedpur",
      "lat": 22.7866185,
      "lng": 86.16596899999999,
      "open_now": true
    },
    {
      "place_id": "ChIJF9KX-2Hj9TkRsYsgi_amTVQ",
      "name": "IndianOil",
      "address": "Outer Circle Road, New Rani Kudar, Bistupur, Jamshedpur",
      "lat": 22.7942671,
      "lng": 86.175613,
      "open_now": true
    },
    {
      "place_id": "ChIJG5QjVgDj9TkR5BQrksLy7YA",
      "name": "Indian Oil",
      "address": "Q5VQ+W83, Tata Steel Plant Area, Jamshedpur",
      "lat": 22.7947585,
      "lng": 86.1882957,
      "open_now": null
    },
    {
      "place_id": "ChIJ177XvoXj9TkRZMf_v9vhouQ",
      "name": "Bharat Petroleum, Petrol Pump -Ak Filling Station",
      "address": "PAMPARA, SERAIKALA KARSAWAN",
      "lat": 22.7956258,
      "lng": 86.1840943,
      "open_now": true
    },
    {
      "place_id": "ChIJG8S9T6z-9TkRTfTUG1s3f5o",
      "name": "IndianOil",
      "address": "Ground Floor Potka, Tata - Hata Main Road, Gitilata",
      "lat": 22.6642104,
      "lng": 86.1812782,
      "open_now": true
    },
    {
      "place_id": "ChIJiUERjcnj9TkR7sTEBFznBDA",
      "name": "Bharat Petroleum, Petrol Pump -Soni Sons",
      "address": "RO, near Hotel Natraj, Bistupur, Jamshedpur",
      "lat": 22.7960387,
      "lng": 86.1839334,
      "open_now": true
    },
    {
      "place_id": "ChIJr82w4uL99TkRH9gzqbi33-0",
      "name": "Bharat Petroleum Petrol Pump , SAI FUELS",
      "address": "Gadhra, Govindpur",
      "lat": 22.7451967,
      "lng": 86.2534231,
      "open_now": true
    },
    {
      "place_id": "ChIJm9kQ7Oz99TkRTNWQvgDL_FU",
      "name": "Abhishek",
      "address": "Ana Chowk, Chhota Gobindpur",
      "lat": 22.7608848,
      "lng": 86.24776229999999,
      "open_now": null
    },
    {
      "place_id": "ChIJjbbzeAD99TkRD5LBNpydflE",
      "name": "Chota Gobindpur bharat petroleum",
      "address": "P7V4+X43, Khankripara, Jamshedpur",
      "lat": 22.744642,
      "lng": 86.25495,
      "open_now": null
    },
    {
      "place_id": "ChIJwxF_UrLi9TkRG3JS1KGZbRg",
      "name": "Bharat Petroleum, Petrol Pump -Red Carpet Service Station",
      "address": "P.O, Telco Colony, Jamshedpur",
      "lat": 22.7704084,
      "lng": 86.244103,
      "open_now": true
    },
    {
      "place_id": "ChIJdfsOyFT49TkRsxDg7KZk_8U",
      "name": "IndianOil",
      "address": "Ground Floor, Hata Chaibasa Road Rajnagar, Hensal, Kutum",
      "lat": 22.7525538,
      "lng": 86.25414529999999,
      "open_now": true
    },
    {
      "place_id": "ChIJOVvvEfUH9jkRaqYLIEVXwxc",
      "name": "IndianOil",
      "address": "Janta Market, Gobindpur, Housing Colony, Chhota Gobindpur",
      "lat": 22.7452759,
      "lng": 86.2581043,
      "open_now": true
    },
    {
      "place_id": "ChIJ0yxhiebi9TkR3MAY8x-0y5o",
      "name": "IndianOil",
      "address": "Ground Floor, Tuiladungri, Jamshedpur",
      "lat": 22.7958677,
      "lng": 86.2120715,
      "open_now": true
    },
    {
      "place_id": "ChIJD6QFR2jj9TkR5PBviefpkzY",
      "name": "Bharat Petroleum, Petrol Pump -Green Park Service Station",
      "address": "P.O. GOLMURI JAMSHEDPUR, SINGHBHUM EAST",
      "lat": 22.7897978,
      "lng": 86.2253075,
      "open_now": true
    },
    {
      "place_id": "ChIJmd34RObi9TkRZBH3UG_VvKg",
      "name": "Hindustan Petroleum Corporation Limited",
      "address": "Ground Floor, Golmuri, Jamshedpur",
      "lat": 22.7939341,
      "lng": 86.22441429999999,
      "open_now": true
    },
    {
      "place_id": "ChIJl6bipWoH9jkRmSRxLtWvwD4",
      "name": "MAA SHERAWALI FUELS Bharat petroleum",
      "address": "Unnamed Road, Khankripara, Jamshedpur",
      "lat": 22.7348461,
      "lng": 86.2629285,
      "open_now": true
    },
    {
      "place_id": "ChIJ-5PhwasH9jkRhw5_4WMhuuo",
      "name": "BPCL M/s Manglik Hariom Fuels",
      "address": "P735+JWW, AEC Complex, Hartopa",
      "lat": 22.7042979,
      "lng": 86.2591221,
      "open_now": null
    },
    {
      "place_id": "ChIJCZh8L3AJ9jkRNL_3rnhdv7Y",
      "name": "M Z ENTERPRISES",
      "address": "Q7C6+5PR, TELCO BARINAGAR, near Sri sri jyotiling Shiv Mandir, Jamshedpur",
      "lat": 22.7704912,
      "lng": 86.26176269999999,
      "open_now": null
    },
    {
      "place_id": "ChIJ3dJGIKzi9TkRkMEf3Pppjig",
      "name": "IndianOil",
      "address": "Ground Floor, Ring Road, Telco Colony, Jamshedpur",
      "lat": 22.7725744,
      "lng": 86.2500309,
      "open_now": true
    },
    {
      "place_id": "ChIJlXeP65EJ9jkRqCN_IzSPv3s",
      "name": "Bharat Petroleum Petrol Pump , SHAKUNTALA & SONS",
      "address": "Ghorabandha, LOHABASA",
      "lat": 22.770485,
      "lng": 86.271106,
      "open_now": true
    },
    {
      "place_id": "ChIJC1_LkAsI9jkRJoIF2q8pGXA",
      "name": "IndianOil",
      "address": "Ground Floor, Luabasa, Ghorabandha, Jamshedpur",
      "lat": 22.7719799,
      "lng": 86.273614,
      "open_now": true
    },
    {
      "place_id": "ChIJB4Yf3WwH9jkRRmNWrwPnrA4",
      "name": "Bajal KSK",
      "address": "M7VM+676, Rajdah",
      "lat": 22.6926985,
      "lng": 86.2834584,
      "open_now": true
    },
    {
      "place_id": "ChIJOx7iGAEJ9jkRFpSeft6pbyE",
      "name": "Bharat Petroleum Petrol Pump , AASTHA AUTOMOBILE",
      "address": "HURLUNG, Jamshedpur",
      "lat": 22.783755,
      "lng": 86.270366,
      "open_now": true
    },
    {
      "place_id": "ChIJDQKpls0J9jkR9bCFZdJzhB4",
      "name": "Bharat Petroleum",
      "address": "Q7Q9+CG3, Unnamed Road, TRF Colony, Baridih, Jamshedpur",
      "lat": 22.7885017,
      "lng": 86.2687814,
      "open_now": true
    },
    {
      "place_id": "ChIJTfhCABcI9jkRnRF1lMaInyU",
      "name": "Birsanagar Petrol Pump",
      "address": "Astha twin city road, Lal tand, near B.ED College, TRF Colony, Baridih, Jamshedpur",
      "lat": 22.788528,
      "lng": 86.268845,
      "open_now": null
    },
    {
      "place_id": "ChIJ1XYMyJXi9TkRh_VT91ptz7o",
      "name": "IndianOil",
      "address": "Ground Floor, Baridih, Jamshedpur",
      "lat": 22.7925061,
      "lng": 86.2399001,
      "open_now": true
    },
    {
      "place_id": "ChIJF0OoZFYJ9jkRnSRIm7O4VPc",
      "name": "M/S K. Mohan Babu Fuel Station",
      "address": "Q7QV+4C8, Hurlung",
      "lat": 22.7877324,
      "lng": 86.2931536,
      "open_now": null
    },
    {
      "place_id": "ChIJA9PbF2EI9jkRccXUyuw_6OE",
      "name": "भारत पेट्रोलियम",
      "address": "India",
      "lat": 22.7876572,
      "lng": 86.2933158,
      "open_now": null
    },
    {
      "place_id": "ChIJzfPfFYbj9TkRZ3HcZSC2Z2o",
      "name": "IndianOil",
      "address": "Car Care Centre, Golmuri, Jamshedpur",
      "lat": 22.794717,
      "lng": 86.22348099999999,
      "open_now": true
    },
    {
      "place_id": "ChIJP_vWCwXl9TkRePA7a-vL1bs",
      "name": "Hindustan Petroleum Corporation Limited",
      "address": "Ground Floor, SH 40, Industrial Area, Adityapur, Assangi",
      "lat": 22.8020254,
      "lng": 86.1255985,
      "open_now": true
    },
    {
      "place_id": "ChIJUWxu8Ybl9TkRbzFDcXOSGeg",
      "name": "Bharat Petroleum Petrol Pump",
      "address": "Tata Kandra Main Road, Chota Gamharia",
      "lat": 22.8190569,
      "lng": 86.097177,
      "open_now": true
    },
    {
      "place_id": "ChIJyX5xAd7u9TkRkm1k2zpMJAk",
      "name": "IndianOil",
      "address": "Ground Floor, Bikanipur",
      "lat": 22.8336967,
      "lng": 86.0483658,
      "open_now": true
    },
    {
      "place_id": "ChIJCX3cTgDl9TkR05u-ghspVgc",
      "name": "Hindustan Petroleum Corporation Limited",
      "address": "Khata No 085, NH 116, Shridungri, Jamshedpur",
      "lat": 22.8037367,
      "lng": 86.12428969999999,
      "open_now": true
    },
    {
      "place_id": "ChIJS2k4DwXl9TkRXtjvYXFEkEU",
      "name": "Bharat Petroleum- Petrol Pump",
      "address": "R42G+QCX, Adityapur Area, Gamharia, Jamshedpur",
      "lat": 22.801993,
      "lng": 86.126114,
      "open_now": null
    },
    {
      "place_id": "ChIJp2uXQgDl9TkRHXQ6fAdO9wk",
      "name": "Bharat petroleum",
      "address": "R474+46Q, Gamharia, Jamshedpur",
      "lat": 22.8128335,
      "lng": 86.10561589999999,
      "open_now": null
    },
    {
      "place_id": "ChIJW__XqOnk9TkRuq0oY5vttRI",
      "name": "IndianOil",
      "address": "Ground Floor, near Adityapur, SH 40, Tata Kandra Road, Industrial Area, Gamharia, Jamshedpur",
      "lat": 22.8137864,
      "lng": 86.1041171,
      "open_now": true
    },
    {
      "place_id": "ChIJ-5Tw8Mfv9TkRwoiahqB35KQ",
      "name": "IndianOil",
      "address": "Ground Floor, Gamharia, Kalikapur",
      "lat": 22.8257935,
      "lng": 86.0908142,
      "open_now": true
    },
    {
      "place_id": "ChIJ0f26OwDj9TkRwNtWGMLkKsM",
      "name": "Gail cng pump",
      "address": "R554+5QX, Jamshedpur",
      "lat": 22.8079996,
      "lng": 86.1569842,
      "open_now": null
    },
    {
      "place_id": "ChIJTavVRozk9TkRPILfQRIc2ws",
      "name": "Hindustan Petroleum Corporation Limited",
      "address": "Ground Floor, Bhatia Basti, Kadma, Jamshedpur",
      "lat": 22.8042209,
      "lng": 86.158351,
      "open_now": true
    },
    {
      "place_id": "ChIJ6YmGMDXv9TkRVu9mS99wXlg",
      "name": "Bharat Petroleum, Petrol Pump -Nav Bharat Petroleum Company",
      "address": "RAMCHANDRAPUR, Gamharia, Jamshedpur",
      "lat": 22.8321663,
      "lng": 86.0794664,
      "open_now": true
    },
    {
      "place_id": "ChIJDf_RuYXk9TkRfIRhreEBaPs",
      "name": "Bharat Petroleum Petrol Pump",
      "address": "Kadma, Jamshedpur",
      "lat": 22.8048073,
      "lng": 86.16703679999999,
      "open_now": null
    },
    {
      "place_id": "ChIJpeHm43rk9TkRM2VhwJv0lE0",
      "name": "Hindustan Petroleum Corporation Limited",
      "address": "Ground Floor, Kagal Nagar, Sonari, Jamshedpur",
      "lat": 22.8215669,
      "lng": 86.1665688,
      "open_now": true
    },
    {
      "place_id": "ChIJyT7HLu7j9TkRtR_fL_qvQiU",
      "name": "IndianOil",
      "address": "Ground Floor, Dhatkidih, Jamshedpur",
      "lat": 22.8037647,
      "lng": 86.1794202,
      "open_now": true
    },
    {
      "place_id": "ChIJE85adpTj9TkR21IzCvc71mM",
      "name": "DCU,Sonari",
      "address": "R5FH+HX2, New Kapali Basti, Ballichela, Sonari, Jamshedpur",
      "lat": 22.8238856,
      "lng": 86.1799039,
      "open_now": null
    },
    {
      "place_id": "ChIJu1z8aYPj9TkRUsToYsPeInA",
      "name": "IndianOil",
      "address": "Circuit House Area, Bistupur, Jamshedpur",
      "lat": 22.8177439,
      "lng": 86.18383949999999,
      "open_now": true
    },
    {
      "place_id": "ChIJ8UIhqhzk9TkRgaRTl92kG_4",
      "name": "Bharat Petroleum",
      "address": "V537+JV4, Kanderbera Road, Dobo",
      "lat": 22.854022,
      "lng": 86.16470129999999,
      "open_now": null
    },
    {
      "place_id": "ChIJXTYHR6fl9TkRw20Zv0-YK8M",
      "name": "HLM Automobile",
      "address": "V537+JVG, Kanderbera Road, Dobo",
      "lat": 22.8540715,
      "lng": 86.1647134,
      "open_now": null
    },
    {
      "place_id": "ChIJB28d7avj9TkRdh5IWDdl6gM",
      "name": "IndianOil",
      "address": "Ground Floor, Chowk, Mango, Jamshedpur",
      "lat": 22.8189689,
      "lng": 86.2120443,
      "open_now": true
    },
    {
      "place_id": "ChIJH-61Sk7i9TkRhqK7IIWsvyo",
      "name": "IndianOil",
      "address": "Gour, Tarabati, Mango, Jamshedpur",
      "lat": 22.8272079,
      "lng": 86.2232494,
      "open_now": true
    },
    {
      "place_id": "ChIJe-Mmnsbj9TkR-c434oemftU",
      "name": "IndianOil",
      "address": "Purulia Road, Chepapul, Kapali, Jamshedpur",
      "lat": 22.84287299999999,
      "lng": 86.201996,
      "open_now": true
    },
    {
      "place_id": "ChIJHeg3mcjj9TkRLiEnlwQ1stE",
      "name": "Petrol Pump",
      "address": "2, Purulia Road, Mango, Jamshedpur",
      "lat": 22.8412607,
      "lng": 86.20618069999999,
      "open_now": true
    },
    {
      "place_id": "ChIJFSaOccrj9TkRV9Nv8-yQSyU",
      "name": "IndianOil",
      "address": "Road Number 14, Jawahar Nagar, Mango, Jamshedpur",
      "lat": 22.837811,
      "lng": 86.212448,
      "open_now": true
    },
    {
      "place_id": "ChIJW80fydvj9TkRGHIuSY_ZB18",
      "name": "IndianOil",
      "address": "Ground Floor, NH 33, Pardih Chowk, Mango, Jamshedpur",
      "lat": 22.8535609,
      "lng": 86.2028711,
      "open_now": true
    },
    {
      "place_id": "ChIJA2lJjMrj9TkRm7mJn6M1JsM",
      "name": "Mishra & Co.",
      "address": "2, Sakchi, Jamshedpur",
      "lat": 22.8087006,
      "lng": 86.2010968,
      "open_now": null
    },
    {
      "place_id": "ChIJTTpbjG_j9TkRVnTp_b83nkY",
      "name": "Bharat Petroleum, Petrol Pump -Sri Sai Filling Station",
      "address": "SNP Area, Sakchi, Jamshedpur",
      "lat": 22.8051439,
      "lng": 86.2028953,
      "open_now": true
    },
    {
      "place_id": "ChIJUW10SAnj9TkRs7o4zmehzlk",
      "name": "IndianOil",
      "address": "Ground Floor, Sakchi, Jamshedpur",
      "lat": 22.8077933,
      "lng": 86.2018475,
      "open_now": true
    },
    {
      "place_id": "ChIJM9Nr_g7j9TkRCQowKOz7nbg",
      "name": "Hindustan Petroleum Corporation Limited",
      "address": "Ground Floor, Sakchi, Jamshedpur",
      "lat": 22.8046854,
      "lng": 86.20323300000001,
      "open_now": true
    },
    {
      "place_id": "ChIJB22hlXbj9TkRZPsLwnThwJ8",
      "name": "Suraj automobiles",
      "address": "Dhalbhum Club Ground, SNP Area, Ambagan, Sakchi, Jamshedpur",
      "lat": 22.8097668,
      "lng": 86.2038039,
      "open_now": null
    },
    {
      "place_id": "ChIJ35sxyRrj9TkRAQ0Xg7gIDRw",
      "name": "Hindustan Petroleum Corporation Limited",
      "address": "Ground Floor, New Kalimati Road, Sakchi, Jamshedpur",
      "lat": 22.800729,
      "lng": 86.207364,
      "open_now": true
    },
    {
      "place_id": "ChIJ5TH3PXHj9TkRIV33wqqmCTc",
      "name": "GAIL CNG R.K Jain Filling Station",
      "address": "Q6W6+XJW, New Kalimati Road, Hirasingh Bagan, Sakchi, Jamshedpur",
      "lat": 22.7974928,
      "lng": 86.2115913,
      "open_now": null
    },
    {
      "place_id": "ChIJJc2Zqvbj9TkR4WGDyKXBrDw",
      "name": "Hindustan Petroleum Corporation Limited",
      "address": "Plot No 3645 3642 & 3621, Old Purulia Road, Mango, Jamshedpur",
      "lat": 22.8208194,
      "lng": 86.20450559999999,
      "open_now": true
    },
    {
      "place_id": "ChIJATZPZ_bj9TkRr7iPwQ3Ejvs",
      "name": "Gourav",
      "address": "Ashoka Tower, 306, Kumar Basti, Mango",
      "lat": 22.8210348,
      "lng": 86.2096893,
      "open_now": null
    },
    {
      "place_id": "ChIJmzjkDqzj9TkRZivGWCW1fiY",
      "name": "Bharat Petroleum",
      "address": "Near, The Second Subarnarekha Bridge, Jamshedpur",
      "lat": 22.81983,
      "lng": 86.2115879,
      "open_now": true
    },
    {
      "place_id": "ChIJreuosxXj9TkRclzQtSJwn2s",
      "name": "SAPNA PRINTER",
      "address": "Bhuiyadih, Jamshedpur",
      "lat": 22.8065754,
      "lng": 86.2214944,
      "open_now": null
    },
    {
      "place_id": "ChIJxz0gLQDj9TkRP8od6s803hE",
      "name": "Indian Petrol Pump",
      "address": "R6J2+GQV, Road Number 12, Zakir Nagar, Mango, Jamshedpur",
      "lat": 22.8314519,
      "lng": 86.201983,
      "open_now": null
    },
    {
      "place_id": "ChIJ8Ro3JgDj9TkRjyAI1IFAXxI",
      "name": "Majhi petrol pump",
      "address": "R6J2+JRM, Old Purulia Road, Zakir Nagar, Mango, Jamshedpur",
      "lat": 22.8315999,
      "lng": 86.2020343,
      "open_now": null
    },
    {
      "place_id": "ChIJ7-iSFgDj9TkR8f_YR_7F1H8",
      "name": "RELIANCE TRANSCONNECT",
      "address": "R6F9+394, Dimna Road, Subhash Colony, Mango, Jamshedpur",
      "lat": 22.8226449,
      "lng": 86.2184618,
      "open_now": true
    },
    {
      "place_id": "ChIJ2dNjSe7i9TkRnHI-Ap43wSA",
      "name": "Sidhgora Bharat Petroleum (B.P) Petrol Pump",
      "address": "Sidhgora, Jamshedpur",
      "lat": 22.8002487,
      "lng": 86.22893069999999,
      "open_now": true
    },
    {
      "place_id": "ChIJPba2k7Xj9TkR3AsIjMjl80c",
      "name": "Hindustan Petroleum Corporation Limited",
      "address": "Ground Floor, Mango, Jamshedpur",
      "lat": 22.83607049999999,
      "lng": 86.2121849,
      "open_now": true
    },
    {
      "place_id": "ChIJH4EwcIzj9TkRv2iTRmUKzXE",
      "name": "Raza Petroleum",
      "address": "Hashmi Mohalla, Road No 1, Silpahari",
      "lat": 22.8447259,
      "lng": 86.1908579,
      "open_now": null
    },
    {
      "place_id": "ChIJzR3mOKzj9TkR0zGxvVbsTj4",
      "name": "Hindustan Petroleum Corporation Limited",
      "address": "Ground Floor, Dimna Road, Shankoshai, Mango, Jamshedpur",
      "lat": 22.8272944,
      "lng": 86.2232523,
      "open_now": true
    },
    {
      "place_id": "ChIJZwECzzDj9TkREUd4Ib2Ljjg",
      "name": "FIROZ TRADERS",
      "address": "FIroz Traders, 1, Road Number 16, Jamshedpur",
      "lat": 22.8403111,
      "lng": 86.20906,
      "open_now": null
    },
    {
      "place_id": "ChIJndv8Wibj9TkRC7m8gkDRiVE",
      "name": "Bharat petrol",
      "address": "R6HF+6G8, Adarsh Nagar, Mango, Jamshedpur",
      "lat": 22.8281665,
      "lng": 86.2239647,
      "open_now": null
    },
    {
      "place_id": "ChIJ8fGb2bkI9jkReJqBSx-_dpg",
      "name": "IndianOil",
      "address": "NH 33, Silpahari",
      "lat": 22.788429,
      "lng": 86.327332,
      "open_now": true
    },
    {
      "place_id": "ChIJLTtlQwDj9TkRQHE-WoHAs1A",
      "name": "Hp gas godown",
      "address": "R7H3+HX6, Deoghar",
      "lat": 22.8289093,
      "lng": 86.25488849999999,
      "open_now": null
    },
    {
      "place_id": "ChIJY3oeaGTj9TkRPTd6ivc0J-Y",
      "name": "Bharat Petroleum Petrol Pump , BP-BALIGUMA",
      "address": "NH-33 BALIGUMAP.O. M.G.M. COLLEGE, 146, Ashiana Suncity, Mango, Jamshedpur",
      "lat": 22.83396,
      "lng": 86.24291199999999,
      "open_now": true
    },
    {
      "place_id": "ChIJMcmMQknj9TkRNDW8jzq9wdM",
      "name": "IndianOil",
      "address": "Bypass Road, Chowk, Argora, Ranchi",
      "lat": 22.828751,
      "lng": 86.22435399999999,
      "open_now": true
    },
    {
      "place_id": "ChIJL4-iPEDi9TkRHb182QOx410",
      "name": "Hindustan Petroleum Corporation Limited",
      "address": "Ground Floor, Dimna Chowk, Mango, Jamshedpur",
      "lat": 22.8358065,
      "lng": 86.23524560000001,
      "open_now": true
    },
    {
      "place_id": "ChIJVyHsf6wJ9jkR7bk48Zo02mU",
      "name": "IndianOil",
      "address": "NH-33, Bhillaipahari, Jagannathpur",
      "lat": 22.81813900000001,
      "lng": 86.29198699999999,
      "open_now": true
    },
    {
      "place_id": "ChIJcYpipcjj9TkRLJ1bY1-NNyY",
      "name": "Yash Petroleum",
      "address": "Shree Complex, Mango, Jamshedpur",
      "lat": 22.8335778,
      "lng": 86.2274442,
      "open_now": null
    },
    {
      "place_id": "ChIJIeXmJPjj9TkR6DST9BPsGF4",
      "name": "IndianOil",
      "address": "Transport Nagar, Mango, Jamshedpur",
      "lat": 22.8343497,
      "lng": 86.2284526,
      "open_now": true
    },
    {
      "place_id": "ChIJ3w3y3Yfj9TkRLG9xQpmyvrU",
      "name": "IndianOil",
      "address": "Transport Nagar, Mango, Jamshedpur",
      "lat": 22.835953,
      "lng": 86.228111,
      "open_now": true
    },
    {
      "place_id": "ChIJueC5R2Dj9TkRkwwf5yWg9rs",
      "name": "भारत पेट्रोलियम, पेट्रोल पम्प - रमेश कुमार जैन",
      "address": "Pardih Chowk, Kumrum, Mango, Jamshedpur",
      "lat": 22.839613,
      "lng": 86.2254019,
      "open_now": true
    },
    {
      "place_id": "ChIJ2Qe4q9Xu9TkRFujXrZM4mfc",
      "name": "Petrol Pump",
      "address": "V332+G7R, Kandra",
      "lat": 22.8538728,
      "lng": 86.0506497,
      "open_now": null
    },
    {
      "place_id": "ChIJEd1CLFTo9TkROacY5pK_jZE",
      "name": "JOHAR PETROLEUM, MANIKUI JHARKHAND INDIA",
      "address": "W355+725, Chandil - Kandra Road, Manikui",
      "lat": 22.9081271,
      "lng": 86.0575992,
      "open_now": null
    },
    {
      "place_id": "ChIJSVRfBPPm9TkRp2Zby0iOqTM",
      "name": "Hindustan Petroleum Corporation Limited",
      "address": "Ground Floor, NH 33, Chandil, Kanderbera, Tilla",
      "lat": 22.885771,
      "lng": 86.14175589999999,
      "open_now": true
    },
    {
      "place_id": "ChIJT6v14S3m9TkR9NZg4QUiFyI",
      "name": "Hindustan Petroleum Corporation Limited",
      "address": "Ground Floor, NH 33, Chandil, Chilgo",
      "lat": 22.9002588,
      "lng": 86.1030676,
      "open_now": true
    },
    {
      "place_id": "ChIJCWPPS1vn9TkRJbSMhypClaw",
      "name": "Bharat Petroleum, Petrol Pump -Subarnarekha Automobiles & Service",
      "address": "KANDERBERA, JAMSHEDPUR, SERAIKALA KARSAWAN",
      "lat": 22.884775,
      "lng": 86.1484554,
      "open_now": true
    },
    {
      "place_id": "ChIJUedqTyvm9TkRAAAAMNeeKwg",
      "name": "HLM FUEL STATION",
      "address": "W34X+47Q, NH-33, Chilgo",
      "lat": 22.9053319,
      "lng": 86.0982195,
      "open_now": null
    },
    {
      "place_id": "ChIJPwjKPlLn9TkRrb1CR2-LRBo",
      "name": "Bachmann fuel Bharat petroleum",
      "address": "W34X+47V, Karnidih",
      "lat": 22.90537059999999,
      "lng": 86.0981678,
      "open_now": true
    },
    {
      "place_id": "ChIJL41FLQDn9TkRnpiPC93g5X0",
      "name": "Dalma service station",
      "address": "V5M2+QRW, Kandarberya",
      "lat": 22.8844867,
      "lng": 86.1520761,
      "open_now": null
    },
    {
      "place_id": "ChIJYZ_pU4Dn9TkRH-5Uz5yho0U",
      "name": "IndianOil",
      "address": "Ground Floor NH 33, Chandil, Kanderbera, Adardih",
      "lat": 22.8845926,
      "lng": 86.152192,
      "open_now": true
    },
    {
      "place_id": "ChIJU1lQg1Pp9TkRmhONi6X2b4U",
      "name": "Kandra Filling Station, Seraikela, Jamshedpur",
      "address": "opposite Nilanchal Power & Iron Ltd, Kandra Chowka Rd, Kandra, Ratanpur Mauza, Jamshedpur",
      "lat": 22.8729758,
      "lng": 86.06156779999999,
      "open_now": true
    },
    {
      "place_id": "ChIJy57C8snl9TkR_NXk8DNp2C0",
      "name": "Hindustan Petroleum Corporation Limited",
      "address": "Khata No 218, Plot No 103, Kanderbera Road, Chandil, Dobo",
      "lat": 22.8535923,
      "lng": 86.16585839999999,
      "open_now": true
    },
    {
      "place_id": "ChIJyWsK2Hno9TkRmuQj3YEwHR4",
      "name": "Indian Oil",
      "address": "W39R+259, National Highway 18, Bhadudih",
      "lat": 22.9175351,
      "lng": 86.0904815,
      "open_now": null
    },
    {
      "place_id": "ChIJ-9KwEtTo9TkRp3ilXavtD2M",
      "name": "Hindustan Petroleum Corporation Limited",
      "address": "Ground Floor, near Telephone Exchange, Chandil Road, Kandra",
      "lat": 22.86185679999999,
      "lng": 86.0572543,
      "open_now": true
    },
    {
      "place_id": "ChIJiUjY09fu9TkR9UwDZkuqu3E",
      "name": "IndianOil",
      "address": "Ground Floor, Bazar, Main Road, Hudu",
      "lat": 22.84778399999999,
      "lng": 86.052475,
      "open_now": true
    },
    {
      "place_id": "ChIJT7PBbNbh9TkR9vrkz-rLJjo",
      "name": "Reliance Petroleum",
      "address": "NH-33, BESIDE MOTEL HIGHWAY, VILLAGE ANBONI, POST OFFICE, DISTRICT: SARAIK, Kandarberya",
      "lat": 22.8788403,
      "lng": 86.1790867,
      "open_now": true
    },
    {
      "place_id": "ChIJqXQbT0nh9TkR8QzzHUMVC68",
      "name": "Kartik Oran Service station IOC Pump",
      "address": "Asan Bani",
      "lat": 22.8786844,
      "lng": 86.181105,
      "open_now": true
    },
    {
      "place_id": "ChIJUZoP4Qrh9TkRzruD0gk4Afw",
      "name": "Jio-bp",
      "address": "Ground Floor Kanderbera, Beside Motel Highway, Nh 33, Anboni, Tilla",
      "lat": 22.878417,
      "lng": 86.183028,
      "open_now": true
    },
    {
      "place_id": "ChIJtVvM2Wzo9TkR9O5AukJZPzk",
      "name": "Hindustan Petroleum Corporation Limited",
      "address": "Ground Floor, NH 33, Humid",
      "lat": 22.9282066,
      "lng": 86.0805029,
      "open_now": true
    },
    {
      "place_id": "ChIJv66hx1jp9TkRwSblP3uwSKU",
      "name": "IndianOil",
      "address": "Ground Floor Chota Lakha, Adardih",
      "lat": 22.9137619,
      "lng": 86.0541052,
      "open_now": true
    },
    {
      "place_id": "ChIJLSjQtUPh9TkRGf_EL73zW_8",
      "name": "IndianOil",
      "address": "Ground Floor, Asan Bani",
      "lat": 22.876592,
      "lng": 86.192163,
      "open_now": true
    },
    {
      "place_id": "ChIJN6WWBl3h9TkRbdoRbw2P7z8",
      "name": "Asan Bani Highway Services (TCI Petrol Pump)",
      "address": "NH 33 Asanbani PO Kanderbera Chandil, Jamshedpur",
      "lat": 22.8750387,
      "lng": 86.1958666,
      "open_now": true
    },
    {
      "place_id": "ChIJk8A_LGjh9TkRnoTPYJNSOGo",
      "name": "Bharat Petroleum",
      "address": "V5GW+39F, National Highway 18, Asan Bani",
      "lat": 22.8751915,
      "lng": 86.1959187,
      "open_now": null
    },
    {
      "place_id": "ChIJH_bZhwHh9TkRBjOFfLMVI3A",
      "name": "IndianOil",
      "address": "Ground Floor NH 33, Saraikela Kharsewa, Fazlugora",
      "lat": 22.86469,
      "lng": 86.2019834,
      "open_now": true
    },
    {
      "place_id": "ChIJZxBkpnTj9TkRDD4cJtx_QeY",
      "name": "GAIL india CNG Station",
      "address": "V633+J59, National Highway 18, Kumrum, Mango, Jamshedpur",
      "lat": 22.8540492,
      "lng": 86.2029961,
      "open_now": null
    },
    {
      "place_id": "ChIJ0SM-ds7j9TkRIRaKJzilP6M",
      "name": "M/S Pride Fuels",
      "address": "NH-33, Pardih Chowk, Kumrum, Mango, Jamshedpur",
      "lat": 22.8470011,
      "lng": 86.2107565,
      "open_now": true
    },
    {
      "place_id": "ChIJKyxTBTQK9jkR_aGV2xHkwZc",
      "name": "IndianOil",
      "address": "Ground Floor, Bhuiyasinan, Bara Bangurda",
      "lat": 22.8813721,
      "lng": 86.2925824,
      "open_now": true
    }
  ]
}