{
  "city": "Ranchi",
  "state": "Jharkhand",
  "count": 179,
  "center": {
    "lat": 23.3441,
    "lng": 85.3096
  },
  "pumps": [
    {
      "place_id": "ChIJj8EPveYf9TkRptgtkx3RIzA",
      "name": "HP Petrol Pump",
      "address": "CTI Colony, Sector 4, Birsa Nagar, Ranchi",
      "lat": 23.3045,
      "lng": 85.288538,
      "open_now": true
    },
    {
      "place_id": "ChIJI6DXybEf9TkR31YXy74jPXA",
      "name": "IndianOil",
      "address": "Ground Floor, Tupudana, Ranchi",
      "lat": 23.278172,
      "lng": 85.306313,
      "open_now": true
    },
    {
      "place_id": "ChIJ-RcyNAAh9TkRl_xb-kklIhc",
      "name": "Hindustan Petroleum Corporation Limited",
      "address": "Ground Floor, Karra Road, Nagri, Ranchi",
      "lat": 23.268432,
      "lng": 85.240659,
      "open_now": true
    },
    {
      "place_id": "ChIJCflHfTEg9TkRtFJIBgQQk0A",
      "name": "IndianOil",
      "address": "Ground Floor, Ranchi Ring Road, Sithiyo",
      "lat": 23.26937569999999,
      "lng": 85.25865399999999,
      "open_now": true
    },
    {
      "place_id": "ChIJbYhn3rbf9DkR18dHxqrNkUA",
      "name": "Hindustan Petroleum Corporation Limited",
      "address": "Ground Floor Semartoli, Balalong, Nagri Road, Kudlum",
      "lat": 23.3113169,
      "lng": 85.22732189999999,
      "open_now": true
    },
    {
      "place_id": "ChIJce-ybLjf9DkRd6t87MXNcC8",
      "name": "Hindustan Petroleum Corporation Limited",
      "address": "PS No 232 Nagri, Balalong, Hotwasi",
      "lat": 23.3219301,
      "lng": 85.246374,
      "open_now": true
    },
    {
      "place_id": "ChIJZa9Xytjf9DkR4Fme0MfzWIc",
      "name": "Geetam fuels",
      "address": "86CW+RG, Hotwasi",
      "lat": 23.322002,
      "lng": 85.24636199999999,
      "open_now": null
    },
    {
      "place_id": "ChIJGfCGMtof9TkRAD7rTZ659gw",
      "name": "Indian Oil",
      "address": "Indian Oil Petrol Pump, Birsa Chowk, Ranchi",
      "lat": 23.3063666,
      "lng": 85.2790808,
      "open_now": null
    },
    {
      "place_id": "ChIJgaz6KhUh9TkRJCWL7-4CUzk",
      "name": "Hindustan Petroleum Corporation Limited",
      "address": "Ground Floor, Karra",
      "lat": 23.237866,
      "lng": 85.197942,
      "open_now": true
    },
    {
      "place_id": "ChIJqXE6eAAf9TkRdg7K94rKID8",
      "name": "GAIL COCO SMART CITY CNG STATION",
      "address": "873Q+45, Ranchi",
      "lat": 23.302798,
      "lng": 85.287932,
      "open_now": null
    },
    {
      "place_id": "ChIJSdUKPiAf9TkRRR-alDXm_IY",
      "name": "Chirag Filling Station, Bharat Petrolatum",
      "address": "Satrangi, Tupudana, Ranchi",
      "lat": 23.2544236,
      "lng": 85.3002036,
      "open_now": true
    },
    {
      "place_id": "ChIJv8FBLwAf9TkRUNENBRJwooI",
      "name": "Ather charging Grid",
      "address": "7883+2VG, Tupudana Chowk Road, Pithiyatil, Ranchi",
      "lat": 23.2650699,
      "lng": 85.304701,
      "open_now": null
    },
    {
      "place_id": "ChIJY5Lcza8f9TkRxSZ8Ent_GOs",
      "name": "Hindustan Petroleum Corporation Limited",
      "address": "Ground Floor, Ancillary Chowk, Tupudana, Ranchi",
      "lat": 23.2766891,
      "lng": 85.30577389999999,
      "open_now": true
    },
    {
      "place_id": "ChIJX8Ice7oh9TkRIg1jRacVCUQ",
      "name": "IndianOil",
      "address": "Plot No 485 Khata No 3, Kansilli, Karra",
      "lat": 23.2312006,
      "lng": 85.1922058,
      "open_now": true
    },
    {
      "place_id": "ChIJaTSdTq4f9TkRTWjtKe81Ksc",
      "name": "IndianOil",
      "address": "Hatia Road, Tupudana, Ranchi",
      "lat": 23.27463900000001,
      "lng": 85.306252,
      "open_now": true
    },
    {
      "place_id": "ChIJGSMKA7Qf9TkRNr5PSq30uvs",
      "name": "Hindustan Petroleum Corporation Limited",
      "address": "Ground Floor, Ancillary Industrial Area, Pugru, Hatia, Ranchi",
      "lat": 23.28281699999999,
      "lng": 85.30845649999999,
      "open_now": true
    },
    {
      "place_id": "ChIJMw1DQQDf9DkRqOpPbWCfKDg",
      "name": "Bharat petroleum (petrol pump) 24x7 open",
      "address": "87P2+WG3, Rd, Nayasarai, Ranchi",
      "lat": 23.3370887,
      "lng": 85.2513099,
      "open_now": true
    },
    {
      "place_id": "ChIJ7fyjAJrf9DkRhLgqPbtQUOY",
      "name": "IndianOil",
      "address": "Ground Floor, Nagri",
      "lat": 23.3267592,
      "lng": 85.1953541,
      "open_now": true
    },
    {
      "place_id": "ChIJi0Gh6bjf9DkRHk3ETJtFs_s",
      "name": "Rambilash Petroleum",
      "address": "85HW+CF4, NH-23, Ranchi Gumla Road Naro, Nagri",
      "lat": 23.3268263,
      "lng": 85.19505439999999,
      "open_now": true
    },
    {
      "place_id": "ChIJ3XPIxBXf9DkRNUPo4eD1fW4",
      "name": "Reliance Petroleum",
      "address": "Plot No 55P, Khata No 117 Lalguthwa, Piska Nagri, Ratu, Tikratoli",
      "lat": 23.3383908,
      "lng": 85.211803,
      "open_now": true
    },
    {
      "place_id": "ChIJG-VlfQDf9DkR1Paijv5VNG4",
      "name": "Hindustan Petroleum Corporation Limited",
      "address": "Ground Floor Argora, near IIM, Nayasarai Road, Ranchi",
      "lat": 23.344934,
      "lng": 85.252121,
      "open_now": true
    },
    {
      "place_id": "ChIJraAvmCwc9TkRhXWEg4M5pPc",
      "name": "IndianOil",
      "address": "Ground Floor, Kochbong",
      "lat": 23.26486899999999,
      "lng": 85.3607734,
      "open_now": true
    },
    {
      "place_id": "ChIJ7wb5sy_g9DkRateoX3m8jws",
      "name": "IndianOil",
      "address": "HEC Gate, Dhurwa, Ranchi",
      "lat": 23.3223985,
      "lng": 85.3056036,
      "open_now": true
    },
    {
      "place_id": "ChIJk02EyC_g9DkRK9_IxhSLDsc",
      "name": "Nageshwar Petrol Pump - Bharat Petroleum",
      "address": "Sector 2, beside HEC gate, towards, Bypass Road, Ranchi",
      "lat": 23.3229239,
      "lng": 85.3053024,
      "open_now": true
    },
    {
      "place_id": "ChIJ-cVQfQAf9TkRJHz76GKN244",
      "name": "S.S.FUELS",
      "address": "78FG+Q4F, Tonko Road, Ranchi",
      "lat": 23.2744392,
      "lng": 85.3253083,
      "open_now": null
    },
    {
      "place_id": "ChIJvdWlFAAf9TkRMhtbW0Fmvwc",
      "name": "High P&T Station",
      "address": "78FG+2F8, Tonko Road, Hatia, Ranchi",
      "lat": 23.27253199999999,
      "lng": 85.3261938,
      "open_now": null
    },
    {
      "place_id": "ChIJ3_16HGUf9TkRIYxx14v3qA8",
      "name": "S S FUEL GARKHATANGA",
      "address": "787J+HP7, Garhkhatanga",
      "lat": 23.2641612,
      "lng": 85.33232420000002,
      "open_now": true
    },
    {
      "place_id": "ChIJh8NfYyof9TkR8GC6EzGfV-c",
      "name": "Hindustan Petroleum Corporation Limited",
      "address": "Thana No 296, Hatia, Namkum, Garhkhatanga",
      "lat": 23.264143,
      "lng": 85.3325301,
      "open_now": true
    },
    {
      "place_id": "ChIJ80ZwtSse9TkRgsfGUl9WTqg",
      "name": "Hindustan Petroleum Corporation Limited",
      "address": "Ground Floor, Solanki Kalyanpur, Hatia, Jagannathpur, Ranchi",
      "lat": 23.3088376,
      "lng": 85.3171308,
      "open_now": true
    },
    {
      "place_id": "ChIJTf_cZNfh9DkRoBiR4z0zuXQ",
      "name": "Reliance Aviation Fuelling Station",
      "address": "Birsa Munda Airport, Ranchi, Khokambatoli, Hinoo, Ranchi",
      "lat": 23.3166282,
      "lng": 85.3235064,
      "open_now": true
    },
    {
      "place_id": "ChIJxZ_ddI3h9DkRutPr8DScmyQ",
      "name": "HPCL Ranchi ASF",
      "address": "Birsa Munda Airport, Ranchi, Behind BPCL ASF, Airport Road, Ranchi",
      "lat": 23.3198297,
      "lng": 85.320031,
      "open_now": null
    },
    {
      "place_id": "ChIJ30icldPh9DkR026Wol1C_EQ",
      "name": "Bharat Petroleum Aviation Fueling Station",
      "address": "88CC+235, Khokambatoli, Hinoo, Ranchi",
      "lat": 23.3200249,
      "lng": 85.3202403,
      "open_now": null
    },
    {
      "place_id": "ChIJMZ3-vi_g9DkRj-xe-ZhP9B8",
      "name": "Jio-bp",
      "address": "NEAR CHECK POST, SECTOR 2, HEC Colony, POST, Dhurwa, Ranchi",
      "lat": 23.3224532,
      "lng": 85.30481859999999,
      "open_now": true
    },
    {
      "place_id": "ChIJWSQ9heLh9DkRhtI0eI-9OnY",
      "name": "NK ENTERPRISES",
      "address": "B -118, Sector 2, Masibari, Ranchi",
      "lat": 23.3250967,
      "lng": 85.29488409999999,
      "open_now": null
    },
    {
      "place_id": "ChIJeYmuNDjg9DkRwVutAwki8IA",
      "name": "IndianOil",
      "address": "Ground Floor, near Satellite Colony, Hec Gate 2, Balalong, Ranchi",
      "lat": 23.3331048,
      "lng": 85.30251,
      "open_now": true
    },
    {
      "place_id": "ChIJ4eiHwv_h9DkRa9YjWbKRXaM",
      "name": "Bharat Petroleum",
      "address": "88P9+69H, Doranda Bazar Road, Doranda Bazar, Resaldar Nagar, Doranda, Ranchi",
      "lat": 23.3355742,
      "lng": 85.31847049999999,
      "open_now": null
    },
    {
      "place_id": "ChIJUz1h63gd9TkR9bUhj_jNiyk",
      "name": "IndianOil",
      "address": "Ground Floor Tetri, Namkum Main Road, Bara Ghaghra, Ranchi",
      "lat": 23.266921,
      "lng": 85.384158,
      "open_now": true
    },
    {
      "place_id": "ChIJuWunlTsd9TkR6hzWgu0ccj0",
      "name": "Hindustan Petroleum Corporation Limited",
      "address": "Ground Floor, Ring Road, Namkum Bazar, Lodhma",
      "lat": 23.2874,
      "lng": 85.38332059999999,
      "open_now": true
    },
    {
      "place_id": "ChIJs3l-GQAd9TkR7cKXYEMvw_I",
      "name": "Kutiyatu",
      "address": "79QM+28F, Sahera Road, Pindarkom",
      "lat": 23.2875672,
      "lng": 85.38330979999999,
      "open_now": true
    },
    {
      "place_id": "ChIJJ2xdAy7h9DkR0n6AeFsjnU4",
      "name": "Bharat and CNG Pump",
      "address": "89J2+QCJ, Doranda Main Road, Bara Ghaghra, Ranchi",
      "lat": 23.3319584,
      "lng": 85.3510199,
      "open_now": null
    },
    {
      "place_id": "ChIJAZ31W-yb9DkRRgcrj9dC57k",
      "name": "Hindustan Petroleum - Konar Petrol Pump",
      "address": "Hazaribagh gasoline agency (HPCL petrol pump) ⛽, 33, National Highway, Masipirhi, Hazaribagh",
      "lat": 23.3440997,
      "lng": 85.309562,
      "open_now": true
    },
    {
      "place_id": "ChIJAVS1Dbrh9DkR16w0IXHSj_E",
      "name": "IndianOil",
      "address": "Ground Floor, Doranda, Ranchi",
      "lat": 23.343884,
      "lng": 85.324441,
      "open_now": true
    },
    {
      "place_id": "ChIJTw8VO4cd9TkRgZlsjlXcr-Y",
      "name": "IndianOil",
      "address": "Ground Floor Sidhraul, Namkum Main Road, Bara Ghaghra, Ranchi",
      "lat": 23.3127061,
      "lng": 85.3904149,
      "open_now": true
    },
    {
      "place_id": "ChIJWbgLu3kd9TkR1l_beaubEDw",
      "name": "GAIL CNG CGS SARWAL Filling Station",
      "address": "799X+86H, Sarwal",
      "lat": 23.26702749999999,
      "lng": 85.39840129999999,
      "open_now": null
    },
    {
      "place_id": "ChIJe4WWLzgd9TkRR4apZQxuzaU",
      "name": "Bharat Petroleum, Petrol Pump -Rajhans Filling Station",
      "address": "834010Best EV Charging facility in Ranchi JAMSH Ranchi Jharkhand IN, Rampur",
      "lat": 23.2812737,
      "lng": 85.41416520000001,
      "open_now": true
    },
    {
      "place_id": "ChIJF_xXJRgd9TkRFPCypkB2nAk",
      "name": "IndianOil",
      "address": "Ground Floor Garke, Namkum, Rampur, Bara Ghaghra, Ranchi",
      "lat": 23.279096,
      "lng": 85.4152081,
      "open_now": true
    },
    {
      "place_id": "ChIJEQXpkxcd9TkRGLwwH1lMZiw",
      "name": "Rotoplast Reliance Petrol Pump",
      "address": "Plot #235, Ranchi Tata Road, Post Rajaulatu, Garke Mohallah, Village Rampur, Ranchi",
      "lat": 23.2771102,
      "lng": 85.416433,
      "open_now": true
    },
    {
      "place_id": "ChIJN1d1f_od9TkRbCVa3hFIsRs",
      "name": "Reliance Petroleum",
      "address": "Ground Floor, Kantatoli Raja Ulatu, Nh 33, Bundu Rd, Garke, Ranchi",
      "lat": 23.3127915,
      "lng": 85.3901297,
      "open_now": true
    },
    {
      "place_id": "ChIJK8mVRYcd9TkRMWCGZRVHOyY",
      "name": "Hindustan Petroleum Corporation Limited",
      "address": "Ground Floor, NH 33, Namkum, Sidroll",
      "lat": 23.3138371,
      "lng": 85.3900723,
      "open_now": true
    },
    {
      "place_id": "ChIJVeHUK4Yd9TkRJTU-PA2SVl8",
      "name": "ROBINA FUELS",
      "address": "Ground Floor, Rajaulatu, Karkatta, Namkum, Ranchi",
      "lat": 23.310489,
      "lng": 85.408856,
      "open_now": true
    },
    {
      "place_id": "ChIJ-Rp3oqnj9DkRo360thh9gsw",
      "name": "Hindustan Petroleum Corporation Limited",
      "address": "Ground Floor, NH 33, near Sidraul, Namkum, Ranchi",
      "lat": 23.3239307,
      "lng": 85.3826857,
      "open_now": true
    },
    {
      "place_id": "ChIJ08KuGADj9DkRVRxHJR74qu8",
      "name": "Hindustan Petroleum Corporation Limited",
      "address": "Ground Floor, Sadabahar Chowk, Road, Doranda Main Road, Namkum, Ranchi",
      "lat": 23.33352199999999,
      "lng": 85.362207,
      "open_now": true
    },
    {
      "place_id": "ChIJe_CqVVHj9DkROOSBw9j44Bk",
      "name": "IndianOil",
      "address": "Ground Floor, Namkum, Jamchuan",
      "lat": 23.25336459999999,
      "lng": 85.4499541,
      "open_now": true
    },
    {
      "place_id": "ChIJ598SZ07e9DkRRP7_Ge2xs3w",
      "name": "Bharat Petroleum Petrol Pump",
      "address": "968V+38Q, Ranchi",
      "lat": 23.3652213,
      "lng": 85.2433531,
      "open_now": true
    },
    {
      "place_id": "ChIJ30_geR3e9DkRnrlUq8VE_LE",
      "name": "Bharat Petroleum",
      "address": "01, Ratu Road, Ravi Steel, Pandra, Ranchi",
      "lat": 23.3917569,
      "lng": 85.271608,
      "open_now": null
    },
    {
      "place_id": "ChIJD6rXKHXe9DkR9q5IVRtMR2A",
      "name": "IndianOil",
      "address": "Ground Floor, Bijjulia, Pandra, Ranchi",
      "lat": 23.4031103,
      "lng": 85.2509415,
      "open_now": true
    },
    {
      "place_id": "ChIJOf7Zaerg9DkRKMd_l_aEu9k",
      "name": "Hindustan Petroleum Corporation Limited",
      "address": "Ground Floor, Piska More, Hehal, Ranchi",
      "lat": 23.3818731,
      "lng": 85.29636119999999,
      "open_now": true
    },
    {
      "place_id": "ChIJ1yUvKa3h9DkRZNz5votOSUM",
      "name": "Bharat Petroleum Petrol Pump",
      "address": "88X7+RHJ, Kadru - Kumhartoli Road, Kadru, Ashok Nagar, Ranchi",
      "lat": 23.3509229,
      "lng": 85.3140719,
      "open_now": true
    },
    {
      "place_id": "ChIJfZCq1f3g9DkRszI62Jrz-WU",
      "name": "Bharat Petroleum Petrol Pump",
      "address": "9886+7GV, near Hanuman Mandir Marg, Bypass Road, Harmu, Ranchi",
      "lat": 23.3657364,
      "lng": 85.3112834,
      "open_now": true
    },
    {
      "place_id": "ChIJsQKvmGvf9DkRu8ZbmE0XWh0",
      "name": "Hindustan Petroleum Corporation Limited",
      "address": "Ground Floor, Nagri, Lalgutua, Gutuwa",
      "lat": 23.3525994,
      "lng": 85.2332849,
      "open_now": true
    },
    {
      "place_id": "ChIJl36lawff9DkROZhyXNpyegM",
      "name": "IndianOil",
      "address": "Ground Floor, NH-23, Supram, Ranchi",
      "lat": 23.3499107,
      "lng": 85.22972879999999,
      "open_now": true
    },
    {
      "place_id": "ChIJLdziGgDf9DkRlp1czG1xuU4",
      "name": "Gail CNG pump",
      "address": "86XG+2FQ, Nagri",
      "lat": 23.34757729999999,
      "lng": 85.2262389,
      "open_now": true
    },
    {
      "place_id": "ChIJBU1d7qvf9DkRq9BFZpljiVM",
      "name": "Pratima Fuels",
      "address": "Near Lalgutuwa Overbridge NH-39, Ranchi Ring Road, Gutuwa",
      "lat": 23.3578553,
      "lng": 85.23042780000002,
      "open_now": true
    },
    {
      "place_id": "ChIJI5ih5g_f9DkRrVKL0vEoOiM",
      "name": "Hindustan Petroleum Corporation Limited",
      "address": "Ground Floor, NH 23, Nagri, Saparom",
      "lat": 23.3442298,
      "lng": 85.220781,
      "open_now": true
    },
    {
      "place_id": "ChIJLUPk6Ish9TkRU4DqfOPJe8g",
      "name": "IndianOil",
      "address": "Khata No 87, Plot No 839, Ranchi Ring Road, Nagri, Balalong, Ranchi",
      "lat": 23.3622936,
      "lng": 85.2297282,
      "open_now": true
    },
    {
      "place_id": "ChIJGXUYL7vf9DkRCiJM9tnw7D4",
      "name": "IndianOil",
      "address": "Ground Floor Piskanagri, Gutwa, Nagri, Ranchi",
      "lat": 23.3626352,
      "lng": 85.229933,
      "open_now": true
    },
    {
      "place_id": "ChIJrQagBInf9DkR5UThl5DMeNY",
      "name": "Bharat Petroleum, Petrol Pump -Kanchan Fuels",
      "address": "DALADAI CHOWK, Ranchi",
      "lat": 23.36249699999999,
      "lng": 85.2292372,
      "open_now": true
    },
    {
      "place_id": "ChIJxxJuxVDf9DkRBsq5OPPSu8k",
      "name": "Atharva and Rishabh fuel fusion",
      "address": "Kathal more, road, chock, towards, Daladili",
      "lat": 23.3643513,
      "lng": 85.24664469999999,
      "open_now": false
    },
    {
      "place_id": "ChIJN82mLADf9DkRi-QGFerx5eM",
      "name": "Indian oil Aman fuel",
      "address": "87X7+585, Pundag Road, Pundag, Ranchi",
      "lat": 23.3479245,
      "lng": 85.2631337,
      "open_now": null
    },
    {
      "place_id": "ChIJWyqFEc3f9DkRxPvjh1cYxU8",
      "name": "IndianOil",
      "address": "Argora Chowk, Pundag, Ranchi",
      "lat": 23.356401,
      "lng": 85.260193,
      "open_now": true
    },
    {
      "place_id": "ChIJJcI_NjTe9DkRJ49FBjvOARc",
      "name": "Hindustan Petroleum Corporation Limited",
      "address": "Ground Floor Argora Road, Kathal More Road, Nagri, Gutuwa",
      "lat": 23.363192,
      "lng": 85.253033,
      "open_now": true
    },
    {
      "place_id": "ChIJJw0pBP3f9DkRBy7IOf9iSxM",
      "name": "IndianOil",
      "address": "Plot No 515/A/1, Khata No 1, Piska Nagri Road, Ratu, Daladili",
      "lat": 23.369352,
      "lng": 85.231479,
      "open_now": true
    },
    {
      "place_id": "ChIJcZ8BdwDf9DkRjyjibxKLYro",
      "name": "DINA PETRO VILLA , Bharat petroleum",
      "address": "87X9+7PV, Pundag Road, Pundag, Ranchi",
      "lat": 23.348172,
      "lng": 85.2691268,
      "open_now": false
    },
    {
      "place_id": "ChIJQcfEt2De9DkRvt85MFgwyFc",
      "name": "IndianOil",
      "address": "Ground Floor, Church Rd Ratu, Simaliya, Chowk, Daladili",
      "lat": 23.3829917,
      "lng": 85.2354263,
      "open_now": true
    },
    {
      "place_id": "ChIJL6XCktbh9DkRUldkIflna8U",
      "name": "Hindustan Petroleum Corporation Limited",
      "address": "Ground Floor, near ISM Chowk, Pundag Road, Argora, Ranchi",
      "lat": 23.34790599999999,
      "lng": 85.286165,
      "open_now": true
    },
    {
      "place_id": "ChIJ3ylpZK7f9DkRCq6ZoZ5JokU",
      "name": "Hindustan Petroleum Corporation Limited",
      "address": "Ground Floor, Ranchi Ring Road, Simlia",
      "lat": 23.388661,
      "lng": 85.23453099999999,
      "open_now": true
    },
    {
      "place_id": "ChIJ2SFgm5zg9DkRAUTvcbJzn7U",
      "name": "IndianOil",
      "address": "Hehal, Itki Road, Bajra",
      "lat": 23.37297599999999,
      "lng": 85.277199,
      "open_now": true
    },
    {
      "place_id": "ChIJw3X2yVnh9DkRNy53Q1ra_SE",
      "name": "Hindustan Petroleum Corporation Limited",
      "address": "Ground Floor, Pipartoli, Argora, Ranchi",
      "lat": 23.3604643,
      "lng": 85.2891574,
      "open_now": true
    },
    {
      "place_id": "ChIJ87kwNADh9DkR5vXoLPknCPM",
      "name": "A R FILLING POINT (INDIAN OIL) ⛽",
      "address": "near kankomore, 8th Lane, Argora, Ranchi",
      "lat": 23.3503767,
      "lng": 85.29535489999999,
      "open_now": null
    },
    {
      "place_id": "ChIJPexu4Dzh9DkR4ev7JE3zIvo",
      "name": "Himanshu Hiramani Fuels (BPCL Petrol pump)",
      "address": "Saint Francis School Road, ARGORA CHOWK, Harmu Housing Colony, Argora, Ranchi",
      "lat": 23.3564835,
      "lng": 85.2960659,
      "open_now": true
    },
    {
      "place_id": "ChIJ1_tg_V7g9DkRHCp4NIdVw20",
      "name": "Bharat Petroleum",
      "address": "974W+JCG, Saint Francis School Road, Harmu, Ranchi",
      "lat": 23.3565545,
      "lng": 85.2960816,
      "open_now": null
    },
    {
      "place_id": "ChIJhz1ECeHg9DkRhtDSIXtkGbU",
      "name": "IndianOil",
      "address": "C/O, Ratu Road, Ranchi",
      "lat": 23.393992,
      "lng": 85.2669696,
      "open_now": true
    },
    {
      "place_id": "ChIJxUQ2W_Df9DkRMike90ifTik",
      "name": "Amit Fuels IndianOil",
      "address": "Amit Fuels, IndianOil retail outlet, Ranchi Ring Road, Tilta",
      "lat": 23.4010177,
      "lng": 85.24299180000001,
      "open_now": true
    },
    {
      "place_id": "ChIJo3ofqlng9DkRT8R23ZAF07Y",
      "name": "Hindustan Petroleum Corporation Limited",
      "address": "Ground Floor, near Harmu Chowk, Harmu Road, Harmu, Ranchi",
      "lat": 23.3563511,
      "lng": 85.30077469999999,
      "open_now": true
    },
    {
      "place_id": "ChIJ4ZXIsdLf9DkREnGtpq7BV5M",
      "name": "Sarai Feuls",
      "address": "C63H+RJW, Hehal-Pipertoli, पिर्रा",
      "lat": 23.4046117,
      "lng": 85.2290917,
      "open_now": null
    },
    {
      "place_id": "ChIJl6sZkyrc9DkR1L65RpZ_Q6k",
      "name": "IndianOil",
      "address": "opposite All India Radio Transmis, Ground Floor Pirra, opposite All India Radio Transmis, Bijulia",
      "lat": 23.4063959,
      "lng": 85.2290352,
      "open_now": true
    },
    {
      "place_id": "ChIJ4YvAYerg9DkRPaFUUCzCetY",
      "name": "PARGAY KENDRA CSC center Ravi Steel chowkKamre",
      "address": "near Hindustan Petroleum Corporation Limited, PISKA More, near Hindustan Petroleum Corporation Limited, Ranchi",
      "lat": 23.3820623,
      "lng": 85.2956012,
      "open_now": true
    },
    {
      "place_id": "ChIJS266ySLh9DkRjMxBIg2We0U",
      "name": "Goal Bio Oil",
      "address": "House no-310, Basant vihar road no -3, Near, shajanand chowk, Harmu, Ranchi",
      "lat": 23.3568326,
      "lng": 85.3092489,
      "open_now": true
    },
    {
      "place_id": "ChIJLTqh-R_d9DkRSy6v_GHbXVo",
      "name": "Hindustan Petroleum Corporation Limited",
      "address": "NH 75, Plot No 369, Daltanganj Road, Ratu, Ranchi",
      "lat": 23.409501,
      "lng": 85.23580100000001,
      "open_now": true
    },
    {
      "place_id": "ChIJ54Zu68zh9DkRP5G4zeNB3a0",
      "name": "Afffpvt Ltd",
      "address": "Road Number 4, Anand Nagar, Ranchi",
      "lat": 23.3671321,
      "lng": 85.3088583,
      "open_now": null
    },
    {
      "place_id": "ChIJQSh61afd9DkR_d9HzPAcl3E",
      "name": "Tiwari Bechar Petrol Pump",
      "address": "Ramesh Prasad Kahar, Ratu, Ranchi",
      "lat": 23.4118714,
      "lng": 85.2304832,
      "open_now": true
    },
    {
      "place_id": "ChIJJdN4cpbY9DkRdd_t5t8-l00",
      "name": "Hindustan Petroleum Corporation Limited",
      "address": "Ground Floor, NH 23, Nagri, Ranchi",
      "lat": 23.3251962,
      "lng": 85.1671961,
      "open_now": true
    },
    {
      "place_id": "ChIJIQmLUCzc9DkRfDPgPtzWNwA",
      "name": "जयसवाल श्रृंगार स्टोर एण्ड गिफ्ट हाउस",
      "address": "India",
      "lat": 23.4132379,
      "lng": 85.2277805,
      "open_now": null
    },
    {
      "place_id": "ChIJjwoXNObg9DkRVHRjXCuCUZY",
      "name": "Ram Bilas Prasad and Sons",
      "address": "Ratu Road, Kumhartoli, Ranchi",
      "lat": 23.3801856,
      "lng": 85.3050184,
      "open_now": true
    },
    {
      "place_id": "ChIJdYpSdx3h9DkRAZnWEtk7pK4",
      "name": "IndianOil",
      "address": "Garikhana, Harmu Road, Ranchi",
      "lat": 23.3744626,
      "lng": 85.31441149999999,
      "open_now": true
    },
    {
      "place_id": "ChIJN07drhrh9DkRtBeaUwJdtsY",
      "name": "IndianOil",
      "address": "Ground Floor, Kutchery Road, Ranchi",
      "lat": 23.372442,
      "lng": 85.323441,
      "open_now": true
    },
    {
      "place_id": "ChIJlbUIcQ3h9DkRy9-K0AXuEPA",
      "name": "IndianOil",
      "address": "Ground Floor, Old, Hazaribagh Road, Ranchi",
      "lat": 23.371382,
      "lng": 85.331711,
      "open_now": true
    },
    {
      "place_id": "ChIJX3yi_3jh9DkRbvWtGv5VYx4",
      "name": "IndianOil",
      "address": "near Ymca, Chowk, Purulia Road, Kantatoli, Ranchi",
      "lat": 23.363834,
      "lng": 85.347336,
      "open_now": true
    },
    {
      "place_id": "ChIJ8TFn4nvh9DkR7gRujOTX20Q",
      "name": "Bharat Petroleum Corporation Limited",
      "address": "Nile Complex, 3rd floor, Hazaribag Road, Kantatoli, Chowk, Ranchi",
      "lat": 23.3667422,
      "lng": 85.3494549,
      "open_now": null
    },
    {
      "place_id": "ChIJywDz9n_h9DkR3WdyMP_V1_0",
      "name": "Rambhagat Hari Prasad (HP petrol pump)",
      "address": "Hanuman Mandir, Purulia Road, Samlong, Ranchi",
      "lat": 23.3614812,
      "lng": 85.35402649999999,
      "open_now": true
    },
    {
      "place_id": "ChIJvbcG_Nfj9DkRGrTYIJynYaw",
      "name": "Hindustan Petroleum Corporation Limited",
      "address": "Ground Floor, Kokar, Ranchi",
      "lat": 23.3730288,
      "lng": 85.3553639,
      "open_now": true
    },
    {
      "place_id": "ChIJZ8UGhtvj9DkR_6CEtX2pmLc",
      "name": "Bijoy Automobiles Bharat Petroleum",
      "address": "99H6+HR9, Hazaribagh Road, Kokar, Ranchi",
      "lat": 23.378915,
      "lng": 85.3621089,
      "open_now": true
    },
    {
      "place_id": "ChIJBdPTAjLh9DkRssdp4wyJ5WI",
      "name": "SANTI AUTOMOBILES",
      "address": "beside Kadru Gurudwara, Hindpiri, Ranchi",
      "lat": 23.3504021,
      "lng": 85.3213055,
      "open_now": true
    },
    {
      "place_id": "ChIJ-cu_norh9DkR2fcEczSO628",
      "name": "Bharat Petroleum, Petrol Pump -Tiwary Bechar & Co Pvt.Ltd",
      "address": "RAJENDRA CHOWK,RANCHI, Ranchi",
      "lat": 23.3457565,
      "lng": 85.326109,
      "open_now": true
    },
    {
      "place_id": "ChIJndWI1Azh9DkRkFz3ZpzilDw",
      "name": "Bharat Petroleum",
      "address": "NH-33, KOKAR, Ranchi",
      "lat": 23.3557104,
      "lng": 85.324998,
      "open_now": true
    },
    {
      "place_id": "ChIJBzkqGLjh9DkR7ZZkdMRmmLc",
      "name": "RAJESH GAS SERVICE",
      "address": "01 A, block, Ranchi",
      "lat": 23.344354,
      "lng": 85.3311851,
      "open_now": null
    },
    {
      "place_id": "ChIJm6fNsqPh9DkRCMPku7EAmDM",
      "name": "Hindustan Petroleum Corporation Limited",
      "address": "Ground Floor, Hazaribagh Road, Ranchi",
      "lat": 23.3523428,
      "lng": 85.3315155,
      "open_now": true
    },
    {
      "place_id": "ChIJCciaFzrh9DkRHbBYmjlurCs",
      "name": "Jharkhand Petrol Pump",
      "address": "983J+7G7, Paramahansa Yogananda Path, Sirom Toly, New Garden, Gosaintola, Ranchi",
      "lat": 23.3528243,
      "lng": 85.3317235,
      "open_now": null
    },
    {
      "place_id": "ChIJtR4fWp7h9DkR57rOSsY19cs",
      "name": "Hindustan Petroleum Corporation Limited",
      "address": "Ground Floor, Bahu Bazar Road, Konka, Ranchi",
      "lat": 23.3581935,
      "lng": 85.33759909999999,
      "open_now": true
    },
    {
      "place_id": "ChIJB0pwDw7h9DkRGcJD0F50WWw",
      "name": "IndianOil",
      "address": "Hazaribagh Road, Tharpakhna, Ranchi",
      "lat": 23.371553,
      "lng": 85.328721,
      "open_now": true
    },
    {
      "place_id": "ChIJCbKSSOvh9DkR0gTE-jvgwfo",
      "name": "Bharat Petroleum, Petrol Pump -Brothers Automobiles",
      "address": "Simdega - Gumla - Ranchi Road, Ranchi",
      "lat": 23.3737818,
      "lng": 85.32557919999999,
      "open_now": true
    },
    {
      "place_id": "ChIJRV3HI3bh9DkRpjdvsbeCSzU",
      "name": "HP PETROL PUMP - MAA MHADANIYA INDHAN KENDRA",
      "address": "Hpcl Petrol Pump Village: Ghagra Ghagra, TO, Lohardaga Road, Ranchi",
      "lat": 23.361337,
      "lng": 85.340974,
      "open_now": null
    },
    {
      "place_id": "ChIJgWAlB3zh9DkRRxB7pJZxR0I",
      "name": "Bharat Petroleum, Petrol Pump -Guria Fuels",
      "address": "KHADGARAH, Ranchi",
      "lat": 23.3617728,
      "lng": 85.3414371,
      "open_now": true
    },
    {
      "place_id": "ChIJk2vcS1Xh9DkR8X_Br4OedwM",
      "name": "Kabir Kumar",
      "address": "Chutia, Upper Chutia, Power House Road, Lower Chutia, Gosaintola, Ranchi",
      "lat": 23.3537056,
      "lng": 85.34605499999999,
      "open_now": null
    },
    {
      "place_id": "ChIJVzMykHXh9DkRT161CH3mZX8",
      "name": "IndianOil",
      "address": "Ground Floor, Ratu Road, Church Road, Ranchi",
      "lat": 23.3797605,
      "lng": 85.3095479,
      "open_now": true
    },
    {
      "place_id": "ChIJBRSp3Sri9DkRc6kA7rmERzM",
      "name": "IndianOil",
      "address": "Purulia Road, Dangartoli, Nayatoli, Ranchi",
      "lat": 23.3658624,
      "lng": 85.3429238,
      "open_now": true
    },
    {
      "place_id": "ChIJ47QLKqPh9DkRD-_Ddic-U_E",
      "name": "IndianOil",
      "address": "Hatma, Lalpur, Ranchi",
      "lat": 23.372123,
      "lng": 85.33827099999999,
      "open_now": true
    },
    {
      "place_id": "ChIJdYF_DHLh9DkRtvwOf_JI7P8",
      "name": "Hindustan Petroleum Corporation Limited",
      "address": "Ground Floor, Chowk, Lalpur, Ranchi",
      "lat": 23.3724701,
      "lng": 85.3382701,
      "open_now": true
    },
    {
      "place_id": "ChIJz-ENmPvh9DkRxVFrlBjJyWQ",
      "name": "Chalo Aayo fuel",
      "address": "98JH+XMM, Karamtoli Road, Karamtoli, Ranchi University, Morabadi, Ranchi",
      "lat": 23.3825152,
      "lng": 85.32908049999999,
      "open_now": null
    },
    {
      "place_id": "ChIJOZ7IP1Xh9DkRZGZlcZILQv0",
      "name": "Ranjeet Thakur",
      "address": "Lower Burdwan Compound, Lalpur, Ranchi",
      "lat": 23.3762057,
      "lng": 85.34034109999999,
      "open_now": null
    },
    {
      "place_id": "ChIJCYU7iWHh9DkRk7nrcVz2ZMc",
      "name": "Hindustan Petroleum Corporation Limited",
      "address": "Ground Floor, Lowadih, Ranchi",
      "lat": 23.3612598,
      "lng": 85.353854,
      "open_now": true
    },
    {
      "place_id": "ChIJuZsJfKHj9DkRSPc_VM2BTVI",
      "name": "Dhiren Fuel And Petroleum",
      "address": "Namkum, Ranchi",
      "lat": 23.3523183,
      "lng": 85.380771,
      "open_now": null
    },
    {
      "place_id": "ChIJsV5FzUji9DkRzGhzOPZ-drI",
      "name": "Bharat Petroleum, Petrol Pump -Samrat Auto (India)",
      "address": "NAMKOM,RANCHI,DIST RANCHI, Ranchi",
      "lat": 23.3523534,
      "lng": 85.38073349999999,
      "open_now": true
    },
    {
      "place_id": "ChIJxdatPc3j9DkRrmYq2TRq6P4",
      "name": "IndianOil",
      "address": "Indian Oil Depot, Tata Road, Namkum, Ranchi",
      "lat": 23.35025749999999,
      "lng": 85.37305500000001,
      "open_now": null
    },
    {
      "place_id": "ChIJB18jnbnj9DkRooaBeyz0WK4",
      "name": "IndianOil",
      "address": "Ground Floor Samlong, Bara Ghaghra, Namkum, Ranchi",
      "lat": 23.3540799,
      "lng": 85.3639905,
      "open_now": true
    },
    {
      "place_id": "ChIJP_Fk-jrj9DkRrNc3gVQtlx8",
      "name": "Mr RAJESH KUMAR SAW",
      "address": "Road Number 3, Ayodhyapuri, Kokar, Ranchi",
      "lat": 23.3796711,
      "lng": 85.3656977,
      "open_now": null
    },
    {
      "place_id": "ChIJM7m9UkHj9DkRZkLO-dxsXug",
      "name": "Krrishay Biofuels PVT LTD",
      "address": "near MADAN DHABA, B 3 SANJEEV VIJAYVERGIYA AWASIYA KARYALAYAKOKAR RANCHI, near MADAN DHABA, Ranchi",
      "lat": 23.3800989,
      "lng": 85.36366989999999,
      "open_now": true
    },
    {
      "place_id": "ChIJJ2SFB2Ph9DkRnexoFc3FSUo",
      "name": "भारत पेट्रोलियम",
      "address": "India",
      "lat": 23.376009,
      "lng": 85.35185899999999,
      "open_now": null
    },
    {
      "place_id": "ChIJzQv2hSHj9DkRpTepfoC5NPc",
      "name": "IndianOil",
      "address": "Ground Floor, Gari, Bariatu, Ranchi",
      "lat": 23.383481,
      "lng": 85.367836,
      "open_now": true
    },
    {
      "place_id": "ChIJ3S0WXbTh9DkR4a4_Ay0Nzrs",
      "name": "Diamond sales",
      "address": "Bazar, Kokar, Ranchi",
      "lat": 23.3760625,
      "lng": 85.3518125,
      "open_now": true
    },
    {
      "place_id": "ChIJ774oM9ni9DkRlxQQXw2Y4y0",
      "name": "Hindustan Petroleum Corporation Limited",
      "address": "Ground Floor, Mahilong, Tatisilwai",
      "lat": 23.3593454,
      "lng": 85.42211789999999,
      "open_now": true
    },
    {
      "place_id": "ChIJrdSgr5Pj9DkRdHg37-RFHwM",
      "name": "Bharat Petroleum Petrol Pump , TIWARI TRADERS",
      "address": "KHELGAON ROAD MOUJA PS SUGNUPLOT NO 169(P),KHATA NO 15, Ranchi",
      "lat": 23.38198599999999,
      "lng": 85.40088,
      "open_now": true
    },
    {
      "place_id": "ChIJwb4NHQDj9DkRBAIq8B6gbv8",
      "name": "Indian oil,इंडियन तेल",
      "address": "9CM9+2JJ, Lalganj",
      "lat": 23.3825835,
      "lng": 85.41902040000001,
      "open_now": null
    },
    {
      "place_id": "ChIJVfmXj_Dj9DkRMKk2xO1NIV4",
      "name": "Hindustan Petroleum Corporation Limited",
      "address": "Ground Floor, near Ranchi Medical College, Bargain Road, Bariatu, Ranchi",
      "lat": 23.4008635,
      "lng": 85.3661571,
      "open_now": true
    },
    {
      "place_id": "ChIJPwXFqVzh9DkRfbjb6Bngxfc",
      "name": "IndianOil",
      "address": "Ground Floor, Bariatu Road, Ranchi",
      "lat": 23.3981732,
      "lng": 85.3552627,
      "open_now": true
    },
    {
      "place_id": "ChIJCVBF14vj9DkR1dmMPUwAiFk",
      "name": "Gail CNG (petrol pump,digal fuel)",
      "address": "9CFM+5XX, Khelgaon-Tatisilwai Road, Tatisilwai",
      "lat": 23.3733391,
      "lng": 85.43491039999999,
      "open_now": true
    },
    {
      "place_id": "ChIJu25-6oPj9DkRqSyB152lFg8",
      "name": "Hindustan Petroleum Corporation Limited",
      "address": "Ground Floor, NH 33, Booty, Dumardaga",
      "lat": 23.4027672,
      "lng": 85.3923607,
      "open_now": true
    },
    {
      "place_id": "ChIJj-V9vInd9DkRAPdgDzPXx7g",
      "name": "IndianOil",
      "address": "Ground Floor Bijjulia, Bazar Tand, Ratu, Hurhuri",
      "lat": 23.4205343,
      "lng": 85.2263471,
      "open_now": true
    },
    {
      "place_id": "ChIJtVgAoSXd9DkRmvqwUzz9MIE",
      "name": "Vivaan fuel",
      "address": "C6CG+R2G, Ratu, Jhakratand",
      "lat": 23.4220637,
      "lng": 85.2250675,
      "open_now": true
    },
    {
      "place_id": "ChIJvSCeE0vd9DkRIVhZoNpjufE",
      "name": "IndianOil",
      "address": "Ground Floor, Ratu, Hurhuri",
      "lat": 23.4343061,
      "lng": 85.2180729,
      "open_now": true
    },
    {
      "place_id": "ChIJbyABGRLc9DkRnfqdjuFTVZI",
      "name": "IndianOil",
      "address": "Ground Floor NH 75, Brajpur, Bijjulia, Ratu, Ranchi",
      "lat": 23.4224075,
      "lng": 85.2008149,
      "open_now": true
    },
    {
      "place_id": "ChIJm40p_hrd9DkRHL8C_-Kl1ek",
      "name": "Hindustan Petroleum Corporation Limited",
      "address": "Thana No 72, Ratu, Malmanru",
      "lat": 23.446078,
      "lng": 85.2126039,
      "open_now": true
    },
    {
      "place_id": "ChIJJ1OepCLn9DkRjyc-aCrhXXk",
      "name": "Nagendra Fuel Centre",
      "address": "near ITBP Camp, Sukurhutoo, near ITBP Camp, Ranchi Ring Road, Kanke",
      "lat": 23.4412088,
      "lng": 85.2728515,
      "open_now": true
    },
    {
      "place_id": "ChIJDYMJ2H3n9DkR2J-lZ4kMAvc",
      "name": "dianOil",
      "address": "C7XF+5MJ, Ranchi Ring Road",
      "lat": 23.4479556,
      "lng": 85.2741288,
      "open_now": true
    },
    {
      "place_id": "ChIJexyZEvDn9DkRTjksZW7l7V4",
      "name": "IndianOil",
      "address": "Ground Floor, Kanke, Sukurhutu",
      "lat": 23.44823539999999,
      "lng": 85.2738217,
      "open_now": true
    },
    {
      "place_id": "ChIJQaW1cHDn9DkR4I0pASMaok0",
      "name": "Mansuri HP Gas Godown",
      "address": "C7VM+Q5F, HP Gas godown Mansuri, sukruhutu, Ranchi",
      "lat": 23.4444353,
      "lng": 85.2829294,
      "open_now": null
    },
    {
      "place_id": "ChIJSVM6SfLb9DkRxmmWDvjB2UE",
      "name": "IndianOil",
      "address": "Mander, Ground Floor NH 75, Belangi, Hehal",
      "lat": 23.4233353,
      "lng": 85.1812068,
      "open_now": true
    },
    {
      "place_id": "ChIJH3BRdCzn9DkRSAEOOfhI6sw",
      "name": "Bharat Petroleum Petrol Pump , CHOUDHARY FUEL STATION",
      "address": "Sukurhutu",
      "lat": 23.4454855,
      "lng": 85.2903524,
      "open_now": true
    },
    {
      "place_id": "ChIJTZzaZADn9DkRXS-Wjowt84I",
      "name": "MANSURI FUEL STATION",
      "address": "F74V+2QG, Ranchi Ring Road, Gagi",
      "lat": 23.4550562,
      "lng": 85.2944443,
      "open_now": null
    },
    {
      "place_id": "ChIJUXb4Yo7d9DkRNYegFyK4DQg",
      "name": "Hindustan Petroleum Corporation Limited",
      "address": "Ground Floor, Thakurgaon Road, Ratu, Patratoli",
      "lat": 23.4695352,
      "lng": 85.1973404,
      "open_now": true
    },
    {
      "place_id": "ChIJ5U1rEADn9DkR2_2A31jfV5g",
      "name": "Hindustan Petroleum Corporation Limited",
      "address": "Ground Floor Kanke, Ranchi Ring Road, Sukurhutu",
      "lat": 23.455498,
      "lng": 85.301003,
      "open_now": true
    },
    {
      "place_id": "ChIJb6_7UFvn9DkROpphMa6VR5I",
      "name": "IndianOil",
      "address": "C878+GFV, Patratu, behind Reliance Smart, Kanke Road, Jhirga Toli, Gandhi Nagar, Ranchi",
      "lat": 23.413991,
      "lng": 85.316453,
      "open_now": true
    },
    {
      "place_id": "ChIJ4-stBQDn9DkRj5hlt-1Zih4",
      "name": "Kanke Road",
      "address": "C8M7+HCF, Kanke Road, Shanti Nagar, Ranchi",
      "lat": 23.4339461,
      "lng": 85.3135368,
      "open_now": null
    },
    {
      "place_id": "ChIJ08fcjd3d9DkRgr7D-14LuTM",
      "name": "Hindustan Petroleum Corporation Limited",
      "address": "Ground Floor, Kokretanr",
      "lat": 23.472387,
      "lng": 85.195849,
      "open_now": true
    },
    {
      "place_id": "ChIJEbBvoNDn9DkRtrRBMFY7Znw",
      "name": "Hindustan Petroleum Corporation Limited",
      "address": "Oraon Complex, Plot No 31, Patratu Road, Chouri, Kanke",
      "lat": 23.419967,
      "lng": 85.317064,
      "open_now": true
    },
    {
      "place_id": "ChIJPXVGz_Tn9DkRd7lpndSuLCM",
      "name": "Gloria Fuel Centre HP Petrol Pump",
      "address": "Next to Oraon Complex, Jharkhand State Highway 2, Kanke Road, Jhirga Toli, Gandhi Nagar, Ranchi",
      "lat": 23.4206263,
      "lng": 85.3171583,
      "open_now": true
    },
    {
      "place_id": "ChIJ3_IIJADh9DkRMNRJI0BxtX0",
      "name": "KANKE SERVICE CENTRE",
      "address": "98R7+XHV, near Petrol Pump, Kanke Road, Jawahar Nagar, Hatma, Ranchi",
      "lat": 23.3924479,
      "lng": 85.3138877,
      "open_now": null
    },
    {
      "place_id": "ChIJX1OOfifh9DkRLQtF8CKkq4M",
      "name": "Indian Oil",
      "address": "Ground Floor, near Jawahar Nagar, Kanke Road, Ranchi",
      "lat": 23.3924451,
      "lng": 85.3138949,
      "open_now": true
    },
    {
      "place_id": "ChIJb8jUlC3h9DkROJEZI2g60AU",
      "name": "Oraon Gas Distributor",
      "address": "Gopal Complex, 3B, Court Road, Ranchi",
      "lat": 23.4035304,
      "lng": 85.33241989999999,
      "open_now": null
    },
    {
      "place_id": "ChIJAyMEI73h9DkR-mrcCFkJLOg",
      "name": "Shakambari Fuels",
      "address": "160, Jawahar Nagar, Hatma, Ranchi",
      "lat": 23.3902458,
      "lng": 85.3144021,
      "open_now": true
    },
    {
      "place_id": "ChIJX9fZYiTn9DkRP-CnjPVpyGg",
      "name": "Aashutosh fuel pump",
      "address": "Kanke Block Chowk",
      "lat": 23.4305311,
      "lng": 85.33378210000001,
      "open_now": null
    },
    {
      "place_id": "ChIJ-8B_p1Tn9DkRMPmODbT9QHg",
      "name": "Hindustan Petroleum Corporation Limited",
      "address": "Block Chowk, Ground Floor Kanke, near Kanke, Arsande",
      "lat": 23.4306078,
      "lng": 85.3337296,
      "open_now": true
    },
    {
      "place_id": "ChIJeyI-Pzrn9DkRkG-pFlFWAzg",
      "name": "Hindustan Petroleum Corporation Limited",
      "address": "Ground Floor, Boriyo Road, Chiraundi, Ranchi",
      "lat": 23.414568,
      "lng": 85.343306,
      "open_now": true
    },
    {
      "place_id": "ChIJI_NHqY3n9DkRLmQYLIgDEZQ",
      "name": "Bharat Petroleum, Petrol Pump -Manshai Fuel Station",
      "address": "DSTT, BOREYA",
      "lat": 23.4177662,
      "lng": 85.3458127,
      "open_now": true
    },
    {
      "place_id": "ChIJT8q9CgLn9DkRVKTP0u53rVc",
      "name": "IndianOil",
      "address": "Ground Floor, Kanke",
      "lat": 23.4479143,
      "lng": 85.3452124,
      "open_now": true
    },
    {
      "place_id": "ChIJQdU_7M3n9DkRuzFfbsnNrto",
      "name": "Dileep sahu petrol fuel",
      "address": "Ranchi Ring Road, Hochar",
      "lat": 23.4520815,
      "lng": 85.3510754,
      "open_now": true
    },
    {
      "place_id": "ChIJ3VbGF4Hm9DkRsuLcA9m0O-M",
      "name": "Hindustan Petroleum Corporation Limited",
      "address": "Ground Floor Ring Road, Kanke, Hussir, Hochar",
      "lat": 23.452469,
      "lng": 85.351151,
      "open_now": true
    },
    {
      "place_id": "ChIJsZB7BADl9DkRlCFvafgrdAI",
      "name": "Kumar traders",
      "address": "C9P8+8VQ, Kanke - Ormanjhi Road, Ranchi",
      "lat": 23.4358305,
      "lng": 85.3672332,
      "open_now": null
    },
    {
      "place_id": "ChIJhZL0DZvk9DkRPxrcuc8Wxb4",
      "name": "Bharat Petroleum, Petrol Pump -Auto Fuels",
      "address": "GETLATU(NH33), RANCHI,DIST, Ranchi",
      "lat": 23.4183307,
      "lng": 85.4086688,
      "open_now": true
    },
    {
      "place_id": "ChIJg84ZvsDk9DkRVRQh_c06i2E",
      "name": "IndianOil",
      "address": "Ground Floor NH 33, Mesraor, Manjhi, Buti",
      "lat": 23.4356231,
      "lng": 85.420756,
      "open_now": true
    },
    {
      "place_id": "ChIJC5bcTIXj9DkRh6iIHDp3Ee4",
      "name": "IndianOil",
      "address": "Ground Floor, Booty More Road, Neori",
      "lat": 23.4046412,
      "lng": 85.3945131,
      "open_now": true
    },
    {
      "place_id": "ChIJjb7TLcPj9DkRFxTlrNqXzrQ",
      "name": "Hindustan Petroleum Corporation Limited",
      "address": "Ground Floor, NH 33, near Booty More Road, Dumardaga",
      "lat": 23.4045021,
      "lng": 85.39479829999999,
      "open_now": true
    },
    {
      "place_id": "ChIJpS78FOzj9DkR5TBPW1dLnx4",
      "name": "Bharat Petroleum, Petrol Pump -Bhartiya Fuel Centre",
      "address": "DUMARDAGA(NH33), RANCHI, Ranchi",
      "lat": 23.4064692,
      "lng": 85.3975573,
      "open_now": true
    },
    {
      "place_id": "ChIJEeYQZwDl9DkRdKMewCd9yGY",
      "name": "Oraon Bio Fuels",
      "address": "Ranchi Ring Road, Patratu",
      "lat": 23.4453368,
      "lng": 85.3829502,
      "open_now": null
    },
    {
      "place_id": "ChIJxZF1q8Pl9DkR_85Whf99Gps",
      "name": "Hindustan Petroleum Corporation Limited",
      "address": "Ground Floor, Neori Road, Chuttu",
      "lat": 23.443524,
      "lng": 85.403399,
      "open_now": true
    },
    {
      "place_id": "ChIJKXsY_Svp9DkR9TmFEF3DcsA",
      "name": "IndianOil",
      "address": "Ground Floor Dubaliyap, Pithoria Near Chandwy Chowk, Ranchi",
      "lat": 23.466073,
      "lng": 85.3916256,
      "open_now": true
    },
    {
      "place_id": "ChIJCZMPxxX79DkRvmAuu-WdAPM",
      "name": "ST Shivam bhwan",
      "address": "Rodiya",
      "lat": 23.4290411,
      "lng": 85.4388374,
      "open_now": true
    },
    {
      "place_id": "ChIJRfUhzv3l9DkRgY0RGChAjHg",
      "name": "Hindustan Petroleum Corporation Limited",
      "address": "Ground Floor, Pithoriya Road, Chandwe Chowk, Siddi",
      "lat": 23.472253,
      "lng": 85.388902,
      "open_now": true
    },
    {
      "place_id": "ChIJH2z8_tPl9DkRHq4r-p3qOUU",
      "name": "Verma Fast Food",
      "address": "Verma Fast Food, Sihodih, Giridih",
      "lat": 23.4774558,
      "lng": 85.3964673,
      "open_now": null
    }
  ]
}