{
  "from": "Sitarganj",
  "to": "Ibrahimpatnam",
  "count": 814,
  "pumps": [
    {
      "place_id": "ChIJo9rdmNhmoDkRd9cjLLwlFSA",
      "name": "Hindustan Petroleum Corporation Limited",
      "lat": 28.913161,
      "lng": 79.694681,
      "address": "Ground Floor, NH 74, Kichha - Sitarganj Road, Gautha",
      "open_now": true
    },
    {
      "place_id": "ChIJrSOCHTJnoDkRgt1Jjsky1Dw",
      "name": "Rajkumar Saraff",
      "lat": 28.923755,
      "lng": 79.7022586,
      "address": "Kichha - Sitarganj Road, Sitarganj",
      "open_now": null
    },
    {
      "place_id": "ChIJiyMmFa5noDkRB794HeHOIfY",
      "name": "Bharat Petroleum, Petrol Pump -Sai Service Station",
      "lat": 28.9266909,
      "lng": 79.701685,
      "address": "GOTHA,KICHHA RD, SITARGANJ, UDHAM SINGH NAGAR",
      "open_now": null
    },
    {
      "place_id": "ChIJp6iGcmJnoDkR3Xh8rLjXVyc",
      "name": "Hindustan Petroleum Corporation Limited",
      "lat": 28.9286553,
      "lng": 79.7019911,
      "address": "Ground Floor, Sidcul Road, Bamanpuri, Kushmoth",
      "open_now": true
    },
    {
      "place_id": "ChIJzwInRjBnoDkRdVoxi9rKlOI",
      "name": "Hindustan Petroleum Corporation Limited",
      "lat": 28.92042099999999,
      "lng": 79.70821099999999,
      "address": "Ground Floor, Bye Pass Road, Sitarganj",
      "open_now": true
    },
    {
      "place_id": "ChIJo-_zLBFhoDkRchXAgjbmrLE",
      "name": "Bharat Petroleum, Petrol Pump -Amba Filling Station",
      "lat": 28.93208030000001,
      "lng": 79.7023147,
      "address": "SIDCUL, Sitarganj",
      "open_now": true
    },
    {
      "place_id": "ChIJHxiFWgBnoDkRwyg85ixNqJs",
      "name": "Hindustan Petroleum Corporation Limited",
      "lat": 28.924331,
      "lng": 79.711349,
      "address": "Ground Floor, SH 41, Bijti Road, Rampura, Sitarganj",
      "open_now": true
    },
    {
      "place_id": "ChIJD7t0XwBnoDkRhJEiIpKTo3s",
      "name": "Sai Service Station",
      "lat": 28.9143265,
      "lng": 79.6965757,
      "address": "WM7W+PJP, Gautha",
      "open_now": null
    },
    {
      "place_id": "ChIJfxf5KDNnoDkRYAZqk_VLST8",
      "name": "IndianOil",
      "lat": 28.929477,
      "lng": 79.70951199999999,
      "address": "Ground Floor, Tanakpur Road, Sitarganj",
      "open_now": true
    },
    {
      "place_id": "ChIJAQoXrTRnoDkRkGatuWJlDGY",
      "name": "Jio-bp",
      "lat": 28.9290452,
      "lng": 79.7113493,
      "address": "Khasra No 198/3, 199/1 & 199/2 Rampur, Khatima Bypass Road, Sitarganj",
      "open_now": true
    },
    {
      "place_id": "ChIJm3L8JE5noDkRqrMqxFqTleE",
      "name": "IndianOil",
      "lat": 28.90457810000001,
      "lng": 79.70232229999999,
      "address": "Ground Floor, Sitarganj,Baruabagh, Sitarganj",
      "open_now": true
    },
    {
      "place_id": "ChIJMe0DgIFhoDkRHwxA2czc3Ug",
      "name": "Bansal filling station",
      "lat": 28.94613919999999,
      "lng": 79.6976504,
      "address": "near krishna tiles and sanityware, Bawanpuri",
      "open_now": true
    },
    {
      "place_id": "ChIJJdp000xnoDkRoWTZkrlJgpY",
      "name": "IndianOil",
      "lat": 28.931214,
      "lng": 79.7258027,
      "address": "Ground Floor Cheekaghat, NH 125, Sitarganj",
      "open_now": true
    },
    {
      "place_id": "ChIJWzJJarBhoDkRlFd69D0DhNI",
      "name": "Hindustan Petroleum",
      "lat": 28.951963,
      "lng": 79.6964071,
      "address": "Bawanpuri",
      "open_now": null
    },
    {
      "place_id": "ChIJU2EvuCxnoDkR2AY6bsBfs1I",
      "name": "HP Petrol Pump - Shree Shyam Ratan Filling Station",
      "lat": 28.95590769999999,
      "lng": 79.69698939999999,
      "address": "Sidcul Road Village Bamanpuri, Dehradun",
      "open_now": true
    },
    {
      "place_id": "ChIJrzk9BgBhoDkR7i0QM_PZ3pU",
      "name": "Nanak Energy Point Bharat Petroleum corporation ltd.",
      "lat": 28.9597381,
      "lng": 79.7134458,
      "address": "Shukla farm, Tharu, Tisor, Tharu Tisor",
      "open_now": null
    },
    {
      "place_id": "ChIJq8F55lFhoDkRIvQkS8tYepQ",
      "name": "Dhruv Filling Station",
      "lat": 28.9626552,
      "lng": 79.69839669999999,
      "address": "Dhruv Filling Station, Sidcul Road, Bamanpuri Road, Sitarganj",
      "open_now": true
    },
    {
      "place_id": "ChIJdT3VIQBhoDkRYfGXHBpVTBE",
      "name": "MAA SHARDA SERVICE STATION",
      "lat": 28.9646795,
      "lng": 79.69701529999999,
      "address": "XM7W+WX, Sisona",
      "open_now": null
    },
    {
      "place_id": "ChIJQ2B7AVBhoDkRbs2QQFysOPk",
      "name": "Patrol pump",
      "lat": 28.964762,
      "lng": 79.6974645,
      "address": "XM7W+WX, Sisona",
      "open_now": null
    },
    {
      "place_id": "ChIJjxewR6hnoDkRkoNdIPRogTk",
      "name": "IndianOil",
      "lat": 28.8818353,
      "lng": 79.7045935,
      "address": "Malpuri, Pilibhit Road, National Highway 734, Sitarganj",
      "open_now": true
    },
    {
      "place_id": "ChIJ2S1y7kd7oDkRGYxT0IWT9zc",
      "name": "BHARAT PETROLPUMP",
      "lat": 28.89512979999999,
      "lng": 79.54737480000001,
      "address": "Kichha - Sitarganj Road, TEHSIL, Pipalia",
      "open_now": true
    },
    {
      "place_id": "ChIJ6QQVs5h7oDkRJACceXvLxnI",
      "name": "BHARAT PETROLEUM - PRAKASH PETROLEUM",
      "lat": 28.8923516,
      "lng": 79.50963569999999,
      "address": "Bareilly Road, Kichha",
      "open_now": true
    },
    {
      "place_id": "ChIJ8_5yQ4V7oDkRKXX61TpyL9I",
      "name": "IndianOil",
      "lat": 28.9037682,
      "lng": 79.5046577,
      "address": "Bareilly Road, Kichha",
      "open_now": true
    },
    {
      "place_id": "ChIJxwco-pp7oDkRB6mJGQHV7mU",
      "name": "Tarai Mandal Agency Hindustan Petroleum",
      "lat": 28.9002275,
      "lng": 79.5062375,
      "address": "Udham Singh Nagar, NH-74, Kichha",
      "open_now": true
    },
    {
      "place_id": "ChIJu9RkD4Z7oDkRL6HLYHhYxgk",
      "name": "Gurunanak Motors(Nayara Petrol Pump)",
      "lat": 28.90850919999999,
      "lng": 79.5048686,
      "address": "Khasra No. 284, 286, 287, Kichha - Sitarganj Road, NH - 74, Mangalam Vatika, Kichha",
      "open_now": true
    },
    {
      "place_id": "ChIJIwrzZBR7oDkREObC1uglbDQ",
      "name": "IndianOil",
      "lat": 28.890155,
      "lng": 79.53325000000001,
      "address": "Ground Floor, Kichha Sitarganj Road Bhanga NH 74, Bagwara",
      "open_now": true
    },
    {
      "place_id": "ChIJFYQO-KJloDkRj0qS9MD5_Ow",
      "name": "Guru Nanak Highway Fuels",
      "lat": 28.8951869,
      "lng": 79.5473663,
      "address": "NH 74 , 4KM From, To, Kichha - Sitarganj Road, Pulbhatta",
      "open_now": true
    },
    {
      "place_id": "ChIJ1TlnlC57oDkRU2cVZy12EBc",
      "name": "Hindustan Petroleum Corporation Limited",
      "lat": 28.8801534,
      "lng": 79.5193863,
      "address": "Khasra No 126, Sahiya, Kichha",
      "open_now": true
    },
    {
      "place_id": "ChIJ893kdQh7oDkRrRqCh3T3ImA",
      "name": "Hindustan Petroleum Corporation Limited",
      "lat": 28.8805601,
      "lng": 79.5171201,
      "address": "Ground Floor, Sathuia, Kichha",
      "open_now": true
    },
    {
      "place_id": "ChIJ020yG_N7oDkRM8SbajD-Se0",
      "name": "IndianOil",
      "lat": 28.8778181,
      "lng": 79.518123,
      "address": "Ground Floor Sutuiya, Kichha",
      "open_now": true
    },
    {
      "place_id": "ChIJo7mKVFl7oDkRgQ5QhiG9eSw",
      "name": "RajSheela Filling Station",
      "lat": 28.8766875,
      "lng": 79.51781249999999,
      "address": "Sutuiya",
      "open_now": null
    },
    {
      "place_id": "ChIJS3IhDaF7oDkRmlPP6a7hXl8",
      "name": "भारत पेट्रोलियम",
      "lat": 28.8881293,
      "lng": 79.5112353,
      "address": "India",
      "open_now": null
    },
    {
      "place_id": "ChIJE-wwmRR7oDkRYHE9uMbj4z8",
      "name": "BPCL COCO Petrol Pump - BP HATHMANA CNG",
      "lat": 28.8890373,
      "lng": 79.55919329999999,
      "address": "VHQ5+JM, Hathmana",
      "open_now": true
    },
    {
      "place_id": "ChIJtZP04oN7oDkRZ3vuB_hzHPE",
      "name": "HP PETROL PUMP - TARAI MODEL AGENCIES",
      "lat": 28.8917755,
      "lng": 79.5097857,
      "address": "Kichha Dist U.s.nagar, Dehradun",
      "open_now": true
    },
    {
      "place_id": "ChIJ0SWwEwB7oDkRvV8ZtT4k7p0",
      "name": "Bharat Petroleum - Yash Filling Station",
      "lat": 28.8703097,
      "lng": 79.5162328,
      "address": "SATUIA,UP BORDER, KICCHA,U, UDHAM SINGH NAGAR",
      "open_now": true
    },
    {
      "place_id": "ChIJL4vZ4n17oDkR80Ft3s-PrII",
      "name": "Hindustan Petroleum Corporation Limited",
      "lat": 28.9005281,
      "lng": 79.5061898,
      "address": "Ground Floor, Kichha",
      "open_now": true
    },
    {
      "place_id": "ChIJQciV9uF7oDkRm8YHizVH-3Q",
      "name": "Hindustan Petroleum Corporation Limited",
      "lat": 28.914242,
      "lng": 79.519165,
      "address": "Khasra No 995, Khet No 681 & 682 MIN, 13, Nanak Nagar, Bandia",
      "open_now": true
    },
    {
      "place_id": "ChIJV2ubt5p7oDkRJhCyrKgsgD8",
      "name": "Jio-bp",
      "lat": 28.9026711,
      "lng": 79.5056171,
      "address": "328 Kha Khatauni No, Khasra No 328 KA, 169 & 185, Sirauli, Kichha",
      "open_now": true
    },
    {
      "place_id": "ChIJkx21yKt7oDkRFem_AW5d5bk",
      "name": "Reliance Petroleum",
      "lat": 28.9087212,
      "lng": 79.50975489999999,
      "address": "M/S MADAAN MOTORS, NH-74, POST_OFFICE, :, VILLAGE:SIROALI KALAN, Kichha",
      "open_now": true
    },
    {
      "place_id": "ChIJSSseHKiGCjkRGTignpgEXqI",
      "name": "Puri Filling Station BPCL",
      "lat": 28.8616461,
      "lng": 79.51577429999999,
      "address": "Bareilly - Nainital Road, Bilaspur",
      "open_now": true
    },
    {
      "place_id": "ChIJdYZIBN5woDkR2NEL9TMBmDY",
      "name": "Bharat Petroleum, Petrol Pump -Baheri Service Station",
      "lat": 28.780153,
      "lng": 79.4925004,
      "address": "BAHERI,BAHERI BYPASS,BAREI",
      "open_now": true
    },
    {
      "place_id": "ChIJBdE28uNxoDkRaou12AMTZvY",
      "name": "Chandni Truck Workshop",
      "lat": 28.7917999,
      "lng": 79.5027787,
      "address": "1 By Pass Road, Nainital Road, Baheri",
      "open_now": null
    },
    {
      "place_id": "ChIJ3cCmawBxoDkRiH6IEVK01Ck",
      "name": "BHARAT PETROLEUM CORPORATION LIMITED",
      "lat": 28.8151989,
      "lng": 79.5092428,
      "address": "RG85+3MH, Bareilly - Nainital Road, Bhauna",
      "open_now": null
    },
    {
      "place_id": "ChIJV8z3COVwoDkRwicHPNRJHvY",
      "name": "IndianOil",
      "lat": 28.7851299,
      "lng": 79.5015146,
      "address": "Ground Floor, near Punjab and Sindh Bank, Nainital Road, Baheri",
      "open_now": true
    },
    {
      "place_id": "ChIJw2uqgU1xoDkRj3YrAsOwnSk",
      "name": "Hindustan Petroleum Corporation Limited",
      "lat": 28.785825,
      "lng": 79.520163,
      "address": "Ground Floor, Nadeli Road, Baheri",
      "open_now": true
    },
    {
      "place_id": "ChIJsSrZ6uNwoDkRRWH_oy1onHw",
      "name": "Hp Petrol pump Bhagwat saran Agarwal Filling station.",
      "lat": 28.780001,
      "lng": 79.49980099999999,
      "address": "Ground Floor, Nainital Road, Baheri",
      "open_now": true
    },
    {
      "place_id": "ChIJa0r1eABxoDkR7XxMer-opso",
      "name": "IndianOil",
      "lat": 28.7809104,
      "lng": 79.4957064,
      "address": "Ground Floor, Baheri",
      "open_now": true
    },
    {
      "place_id": "ChIJw-vIQgBxoDkRqXq-Nb8Lw6Q",
      "name": "J and A Energy Point",
      "lat": 28.778269,
      "lng": 79.48959970000001,
      "address": "Baheri Bypass Road, Baheri",
      "open_now": true
    },
    {
      "place_id": "ChIJBa3hdABxoDkRjbOf0CNRvio",
      "name": "Petrol pump",
      "lat": 28.7777116,
      "lng": 79.4891078,
      "address": "QFHQ+5P7, Baheri Bypass Road, Baheri",
      "open_now": null
    },
    {
      "place_id": "ChIJPSBW595woDkR_wRLwPI9p9E",
      "name": "Reliance",
      "lat": 28.7778784,
      "lng": 79.48866819999999,
      "address": "QFHQ+5F3, Baheri Bypass Road, Baheri",
      "open_now": null
    },
    {
      "place_id": "ChIJWf6hT61zoDkRQ-hpCNbwxJ4",
      "name": "Reliance Petroleum",
      "lat": 28.7720708,
      "lng": 79.4976688,
      "address": "near 47 Km Milestone, Sh 37 Bareilly, near 47 Km Milestone, Baheri Bypass Road, Shekhpur",
      "open_now": true
    },
    {
      "place_id": "ChIJ52qODsRxoDkRFHLbh-K2xB0",
      "name": "IndianOil",
      "lat": 28.773812,
      "lng": 79.48624300000002,
      "address": "Ground Floor, Mohammadpur,Baheri, Baheri",
      "open_now": true
    },
    {
      "place_id": "ChIJCRa5EXVxoDkRqzordY57F6g",
      "name": "SAJID KHAN",
      "lat": 28.7835071,
      "lng": 79.4738766,
      "address": "near Main Market, Kichha Road, Baheri",
      "open_now": null
    },
    {
      "place_id": "ChIJS3i3moJ3oDkRgOU65pCKopc",
      "name": "Bharat Filling Station",
      "lat": 28.8152752,
      "lng": 79.4699277,
      "address": "near by Harerpur Darau, Nanakpuri Tanda Road, Bareilly",
      "open_now": null
    },
    {
      "place_id": "ChIJL49TWvZxoDkRRtGEIjGfsy0",
      "name": "IndianOil",
      "lat": 28.7673233,
      "lng": 79.5119004,
      "address": "Ground Floor, Baheri",
      "open_now": true
    },
    {
      "place_id": "ChIJ5bpKCxlxoDkRVre2DUIzFQY",
      "name": "IndianOil",
      "lat": 28.7669057,
      "lng": 79.4971561,
      "address": "Ground Floor, Baheri",
      "open_now": true
    },
    {
      "place_id": "ChIJady7ZmRxoDkRMQUJ5oeVjhg",
      "name": "IndianOil",
      "lat": 28.777401,
      "lng": 79.473901,
      "address": "Ground Floor, Baheri, Narayan Nagla",
      "open_now": true
    },
    {
      "place_id": "ChIJR0SEbJtxoDkR1Ad64B_obQE",
      "name": "IndianOil",
      "lat": 28.797348,
      "lng": 79.551147,
      "address": "Ground Floor, Garibpura",
      "open_now": true
    },
    {
      "place_id": "ChIJC1LBRNRwoDkREWLNewYeG9o",
      "name": "Uddesh Kishan Sewa Kendra",
      "lat": 28.780268,
      "lng": 79.468982,
      "address": "Near mandi samiti Narayan nagla, Baheri",
      "open_now": true
    },
    {
      "place_id": "ChIJgQs4UgBxoDkR5kKcCOkgqLs",
      "name": "Hindustan Petroleum Corporation Limited",
      "lat": 28.763468,
      "lng": 79.49169499999999,
      "address": "Khasra No 252, Baheri Bypass Road, Bareilly",
      "open_now": true
    },
    {
      "place_id": "ChIJIYgGa5IJoDkRYFE2rH2QiV4",
      "name": "Reliance jio bp",
      "lat": 28.5355226,
      "lng": 79.4567052,
      "address": "Manda",
      "open_now": true
    },
    {
      "place_id": "ChIJQWAbs_0JoDkRC5wq-JkrBpA",
      "name": "Amit Auto Fuels BPCL",
      "lat": 28.5325885,
      "lng": 79.4550398,
      "address": "GFM4+22M, Dabhora Khanjanpur",
      "open_now": true
    },
    {
      "place_id": "ChIJ49nafMkLoDkRQoGTW-pv04I",
      "name": "IndianOil",
      "lat": 28.557501,
      "lng": 79.456701,
      "address": "Ground Floor, Atapatti Janubi",
      "open_now": true
    },
    {
      "place_id": "ChIJm2VBS1kLoDkRzwMS1uTh8dQ",
      "name": "IndianOil",
      "lat": 28.5615586,
      "lng": 79.4609785,
      "address": "Mohammadpur Jatan, Baheri",
      "open_now": true
    },
    {
      "place_id": "ChIJXdgfHQALoDkRZfGNRA_JwwM",
      "name": "AZAD FILLING STATION",
      "lat": 28.5617494,
      "lng": 79.4624121,
      "address": "HF66+MXQ, Mohammedpur Jatan",
      "open_now": null
    },
    {
      "place_id": "ChIJR5LIqUYJoDkRBp1hoZsPguU",
      "name": "IndianOil",
      "lat": 28.5239,
      "lng": 79.454,
      "address": "Bhojipura, State Highway 37, Bareilly - Nainital Road, Bareilly",
      "open_now": true
    },
    {
      "place_id": "ChIJ9Z37OD8JoDkRf9XI6OIoIpE",
      "name": "Hindustan Petroleum Corporation Limited",
      "lat": 28.5165601,
      "lng": 79.452591,
      "address": "Ground Floor, near Bhojipura, SH 37, Thana, Bhoji Pura",
      "open_now": true
    },
    {
      "place_id": "ChIJXW_264sLoDkRiigt3fuBLwY",
      "name": "BPCL Petrol Pump",
      "lat": 28.56452549999999,
      "lng": 79.43290209999999,
      "address": "HC7M+R56, Shahi-Atamanda road",
      "open_now": null
    },
    {
      "place_id": "ChIJxxgWgdkLoDkREYmQ9Ii4h_w",
      "name": "WASEEM PETROL STATION",
      "lat": 28.5648689,
      "lng": 79.4327818,
      "address": "SHOP NO 0786, ATAMANDA ROAD, Bareilly",
      "open_now": true
    },
    {
      "place_id": "ChIJ4-NY88cLoDkRrdGUBKYqXBE",
      "name": "IndianOil",
      "lat": 28.572601,
      "lng": 79.423901,
      "address": "Ground Floor, Dhaura Tanda",
      "open_now": true
    },
    {
      "place_id": "ChIJUaqWdzoLoDkR4OxMjJVFSJU",
      "name": "JEESHAN PETROL PUMP",
      "lat": 28.5721475,
      "lng": 79.4198153,
      "address": "SHOP NO, 111, MIYAPUR ROAD, Bareilly",
      "open_now": null
    },
    {
      "place_id": "ChIJ_8pLVVMGoDkR4D61yoUZLNw",
      "name": "AJ Sons Bharat Petroleum Corp Ltd.",
      "lat": 28.4052055,
      "lng": 79.4247378,
      "address": "92, State Highway 37, Krishna Nagar, Izatnagar, Bareilly",
      "open_now": true
    },
    {
      "place_id": "ChIJ8dVhTqsHoDkRDAUcH2b9P4E",
      "name": "IndianOil",
      "lat": 28.404791,
      "lng": 79.424538,
      "address": "Ground Floor, 25, Nainital Road, Krishna Nagar, Izatnagar, Bareilly",
      "open_now": true
    },
    {
      "place_id": "ChIJsS2az6gHoDkRgW9H907gKn0",
      "name": "Jio-bp",
      "lat": 28.451414,
      "lng": 79.4366459,
      "address": "Ground Floor, near 10 Km Milestone, Sh 37, Izzatnagar, Dohna Pitam Rai",
      "open_now": true
    },
    {
      "place_id": "ChIJ3UopaUoGoDkRZ4PSJ8Cl3J4",
      "name": "IndianOil",
      "lat": 28.4274278,
      "lng": 79.4306314,
      "address": "Ground Floor, Bareilly - Nainital Road, Bareilly",
      "open_now": true
    },
    {
      "place_id": "ChIJCVBAblIHoDkR5ZSbz10AidI",
      "name": "Pachauri Filling Station CNG PUMP",
      "lat": 28.4356505,
      "lng": 79.469217,
      "address": "Mundia Ahmed Nagar",
      "open_now": true
    },
    {
      "place_id": "ChIJZbfvywkGoDkR-2igVzY4080",
      "name": "Bharat Petroleum",
      "lat": 28.4354031,
      "lng": 79.4692835,
      "address": "India",
      "open_now": null
    },
    {
      "place_id": "ChIJpd-u9t8FoDkR0H0BzLlvf5E",
      "name": "रिजवान वैल्डिंग वर्क शॉप",
      "lat": 28.4261063,
      "lng": 79.4707075,
      "address": "India",
      "open_now": null
    },
    {
      "place_id": "ChIJD6Vu-ywJoDkRnDZ95P0dqHY",
      "name": "GANGWAR Brothers Bharat Petroleum Corp ltd",
      "lat": 28.447987,
      "lng": 79.39342189999999,
      "address": "Bareilly Bypass Road, Pardholi",
      "open_now": true
    },
    {
      "place_id": "ChIJu5fmO8wJoDkRt1Cj75s5NR8",
      "name": "IndianOil",
      "lat": 28.4858231,
      "lng": 79.4449179,
      "address": "Ground Floor, Bhoji Pura",
      "open_now": true
    },
    {
      "place_id": "ChIJR1hpwmIJoDkRgmPtmzxwebU",
      "name": "Bhojipura Service Station",
      "lat": 28.4864554,
      "lng": 79.44427979999999,
      "address": "near Ram murti medical college, SH 37, Bareilly - Nainital Road, Bhoji Pura",
      "open_now": true
    },
    {
      "place_id": "ChIJ-xyhu7EFoDkRj5im0dsu6e8",
      "name": "Bansal Sales And Service",
      "lat": 28.4289222,
      "lng": 79.4753836,
      "address": "Bansal Sales And Service, Pilibhit Road, Mundia Ahmed Nagar",
      "open_now": true
    },
    {
      "place_id": "ChIJt562CTcHoDkR2_tuQP1Prao",
      "name": "Ajeem",
      "lat": 28.4055791,
      "lng": 79.44864199999999,
      "address": "Gargaiya Road Nawabganj, Pilibhit Road, Bareilly",
      "open_now": null
    },
    {
      "place_id": "ChIJdV3bTGMGoDkRzNVTjJ6wnvU",
      "name": "IndianOil",
      "lat": 28.408001,
      "lng": 79.459099,
      "address": "Old, Pilibhit Road, Peer Bahora, Bareilly",
      "open_now": true
    },
    {
      "place_id": "ChIJtYW1E48DoDkRyPMr4jCVnm0",
      "name": "IndianOil",
      "lat": 28.352541,
      "lng": 79.502479,
      "address": "Ground Floor Balipur, Purnapur, Umedpur Bhuta",
      "open_now": true
    },
    {
      "place_id": "ChIJx31uKwcEoDkR1-GLVtdOQg4",
      "name": "Nayara Petrol Pump",
      "lat": 28.3607543,
      "lng": 79.4763315,
      "address": "9F6G+8G4, Major District Road 149W, Green Park Colony, Kanthri",
      "open_now": true
    },
    {
      "place_id": "ChIJhfj2EwAEoDkRfwBI90eU0vU",
      "name": "IndianOil",
      "lat": 28.359281,
      "lng": 79.47138199999999,
      "address": "Bisalpur Road, Kanthri",
      "open_now": true
    },
    {
      "place_id": "ChIJIQqeTGYBoDkR1U5tfCbm7RM",
      "name": "IndianOil",
      "lat": 28.3309851,
      "lng": 79.4609948,
      "address": "Ground Floor B Site, B Class Canopy, near Police Chowki, Nakatia Bridge, Bareilly",
      "open_now": true
    },
    {
      "place_id": "ChIJv1qQDAADoDkR5MHsIJ-uYxc",
      "name": "Fuel STATION",
      "lat": 28.3275344,
      "lng": 79.4883038,
      "address": "8FHQ+57, Urla Jagir",
      "open_now": null
    },
    {
      "place_id": "ChIJt2ZaimwFoDkR57UYWdvVMPA",
      "name": "Hindustan Petroleum Corporation Limited",
      "lat": 28.375397,
      "lng": 79.49726299999999,
      "address": "near Bareilly Bypass Road, Ground Floor Itawa Beni Ram, near Bareilly Bypass Road, Mohanpur Urf Ram Nager",
      "open_now": true
    },
    {
      "place_id": "ChIJvwL0nbEDoDkRnJ4wNI_KEso",
      "name": "Girdhari Lal KSK Filling Station",
      "lat": 28.3237871,
      "lng": 79.4839174,
      "address": "Bithri Chainpur, Road, Nariyawal",
      "open_now": null
    },
    {
      "place_id": "ChIJr5WrdAADoDkRaIrpERa73qg",
      "name": "Khandelwal Fuel Station",
      "lat": 28.3211513,
      "lng": 79.4683792,
      "address": "8FC9+F96, Nariyawal",
      "open_now": null
    },
    {
      "place_id": "ChIJ6WiRjYEFoDkRC5ScF4llbc4",
      "name": "IndianOil",
      "lat": 28.382534,
      "lng": 79.478051,
      "address": "Chandpur Bichpuri, Bareilly",
      "open_now": true
    },
    {
      "place_id": "ChIJXzwYVO0BoDkRHXCTkOrikFY",
      "name": "Hindustan Petroleum Corporation Limited",
      "lat": 28.320892,
      "lng": 79.46728499999999,
      "address": "Ground Floor, NH 24, Mohanpur, Bareilly",
      "open_now": true
    },
    {
      "place_id": "ChIJ5e7TkDEFoDkRcVtMcaF1kWU",
      "name": "Dohra CNG Pump",
      "lat": 28.3825897,
      "lng": 79.47590850000002,
      "address": "9FMG+29M, Chandpur Bichpuri, Bareilly",
      "open_now": true
    },
    {
      "place_id": "ChIJAdEkdQYDoDkRG-8uojCW-Qw",
      "name": "IndianOil",
      "lat": 28.313129,
      "lng": 79.475197,
      "address": "NH 24, Nariyawal",
      "open_now": true
    },
    {
      "place_id": "ChIJQXjAxrAGoDkRLTmeAbRQzc0",
      "name": "MAHESH HP",
      "lat": 28.3664,
      "lng": 79.45439999999999,
      "address": "PLOT NO.158/19&158/19A, Pashupati Vihar Colony, PILIBHIT BYPASS, Bareilly",
      "open_now": true
    },
    {
      "place_id": "ChIJiVimebEHoDkR_ZbGWN1s27U",
      "name": "Hindustan Petroleum Corporation Limited",
      "lat": 28.36642699999999,
      "lng": 79.454405,
      "address": "Lala Begum, opposite University Gate, PN 158/19 & 158/19A, Pilibhit Bypass Road, Jagatpur, Pashupati Vihar, Bareilly",
      "open_now": true
    },
    {
      "place_id": "ChIJv5DYVob4nzkRHOvuH5ZHtHE",
      "name": "Indian Oil",
      "lat": 28.2628971,
      "lng": 79.51051389999999,
      "address": "7G76+562, Karanpur Jerh",
      "open_now": null
    },
    {
      "place_id": "ChIJ1X7vk174nzkRwEyU_IR6uUE",
      "name": "Chandra Sales Bharat Petroleum and CNG",
      "lat": 28.2422,
      "lng": 79.51989999999999,
      "address": "Jerh, Bareilly, NH-24, Bareilly Shahjahanpur Road, Bareilly, Bareilly",
      "open_now": true
    },
    {
      "place_id": "ChIJbT-XoV74nzkRSKnux8qJsAM",
      "name": "Indian Oil",
      "lat": 28.2417151,
      "lng": 79.5207185,
      "address": "6GRC+M7P, Jerh",
      "open_now": null
    },
    {
      "place_id": "ChIJ9-QCRIH4nzkRn6oPL7TB6GA",
      "name": "Shaheed Balwant Filling Station",
      "lat": 28.2640565,
      "lng": 79.51084860000002,
      "address": "National Highway 24, Kesharpur",
      "open_now": true
    },
    {
      "place_id": "ChIJ05Rwyon4nzkRqfSf7R2v2Cc",
      "name": "Highway Fuels CNG PUMP IOCL",
      "lat": 28.25409999999999,
      "lng": 79.514,
      "address": "Karanpur Jerh, Bareilly, NH-24, Bareilly Shahjahanpur Road, Bareilly, Bareilly",
      "open_now": true
    },
    {
      "place_id": "ChIJh7qv2asDoDkR61S5ebW8KRg",
      "name": "Oil Pump",
      "lat": 28.28206190000001,
      "lng": 79.4975166,
      "address": "Bareilly Uttar Pradesh Fareedpur, Bareilly",
      "open_now": null
    },
    {
      "place_id": "ChIJS-TDNCYDoDkRH7DVThFeJMc",
      "name": "Bareily cng pump",
      "lat": 28.2850717,
      "lng": 79.4970439,
      "address": "National Highway 30, Rajau Paraspur",
      "open_now": null
    },
    {
      "place_id": "ChIJ64r6txMDoDkROV1vA6aQ0Cg",
      "name": "Hindustan Petroleum Corporation Limited",
      "lat": 28.285131,
      "lng": 79.49699799999999,
      "address": "Ground Floor, near Transport Nagar, NH 24, Shahjahanpur Road, Rajau Paraspur",
      "open_now": true
    },
    {
      "place_id": "ChIJZRgdaUACoDkRvOmN14CnKCw",
      "name": "Fuel Station",
      "lat": 28.2923315,
      "lng": 79.49406619999999,
      "address": "7FRV+WJP, Invertis University, Rajau Paraspur",
      "open_now": null
    },
    {
      "place_id": "ChIJOWlNASb4nzkRxJROcv5ZAgs",
      "name": "IndianOil",
      "lat": 28.2376143,
      "lng": 79.555028,
      "address": "India",
      "open_now": null
    },
    {
      "place_id": "ChIJP7081x35nzkREfAGx6mJVos",
      "name": "Shri Ns Filling Station",
      "lat": 28.23887389999999,
      "lng": 79.556159,
      "address": "5, Shiv Mandir Bhuta Road, Faridpur",
      "open_now": null
    },
    {
      "place_id": "ChIJjUax_iYDoDkRJkW8W8t9VeI",
      "name": "IndianOil",
      "lat": 28.297511,
      "lng": 79.48610099999999,
      "address": "Ground Floor, Transport Nagar, Bareilly",
      "open_now": true
    },
    {
      "place_id": "ChIJsYca2PDwnzkRtanW7S8-kyE",
      "name": "IndianOil",
      "lat": 28.1424983,
      "lng": 79.5913052,
      "address": "Ground Floor, Narsua, Baheri, Baheri",
      "open_now": true
    },
    {
      "place_id": "ChIJA6K9hFLwnzkRlrdc59AEmls",
      "name": "IndianOil",
      "lat": 28.1256057,
      "lng": 79.6033017,
      "address": "Ground Floor, Angadpur Khamaria, Tisua",
      "open_now": true
    },
    {
      "place_id": "ChIJx71rZQDxnzkRntYfeDzJOgo",
      "name": "Royal Filling Station",
      "lat": 28.1183513,
      "lng": 79.6092587,
      "address": "4J95+8PR, Harali Alipur",
      "open_now": true
    },
    {
      "place_id": "ChIJGVvhJgDxnzkRflx1pJ2bGNA",
      "name": "Hindustan Petroleum Corporation Limited",
      "lat": 28.107308,
      "lng": 79.61585099999999,
      "address": "Ground Floor, Shahjanpur Road, NH 24, Pashchimi, Fatehganj Purvi",
      "open_now": true
    },
    {
      "place_id": "ChIJhYBbaPrxnzkRr3O627az9Kg",
      "name": "EV/CNG Pankaj Filling Station",
      "lat": 28.1693245,
      "lng": 79.5693115,
      "address": "National Highway 730C, Pachauni",
      "open_now": true
    },
    {
      "place_id": "ChIJLxLpfyjxnzkRdrms_fpU0vI",
      "name": "Hindustan Petroleum Corporation Limited",
      "lat": 28.16953599999999,
      "lng": 79.56952199999999,
      "address": "Ground Floor, NH 24, Faridpur, Pachauni",
      "open_now": true
    },
    {
      "place_id": "ChIJLV3AZ5HtnzkRyf8mKvcC8RY",
      "name": "Hindustan Petroleum Corporation Limited",
      "lat": 28.036792,
      "lng": 79.659667,
      "address": "Ground Floor, Katra",
      "open_now": true
    },
    {
      "place_id": "ChIJhb4RuznsnzkR7ibwnvDKFNk",
      "name": "Shan Filling Station",
      "lat": 28.0356322,
      "lng": 79.66876169999999,
      "address": "Katra-Khudaganj Road, Katra",
      "open_now": true
    },
    {
      "place_id": "ChIJPxVVZ87tnzkRUw37OOWke9g",
      "name": "Fuel",
      "lat": 28.026357,
      "lng": 79.66639579999999,
      "address": "Mhoula Bagshan, Katra",
      "open_now": null
    },
    {
      "place_id": "ChIJizfa2hXsnzkRSQk6nWusjLM",
      "name": "IndianOil",
      "lat": 28.0239908,
      "lng": 79.6677898,
      "address": "Ground Floor, Baribara, iranpur Katra, Katra",
      "open_now": true
    },
    {
      "place_id": "ChIJleA2W6HtnzkRurGHY6d98zs",
      "name": "Shantanu Highway Filling Point",
      "lat": 28.0501382,
      "lng": 79.6522324,
      "address": "Nh30 Saalpur Navadiya Bareilly, Road, Shahjahanpur",
      "open_now": true
    },
    {
      "place_id": "ChIJQyCIdNbtnzkR-MgsUOC2wZc",
      "name": "IndianOil",
      "lat": 28.0542792,
      "lng": 79.6518253,
      "address": "Ground Floor, Shalpur Navdia, Miranpur, Katra",
      "open_now": true
    },
    {
      "place_id": "ChIJdSGMnwXtnzkRfu0ksj8-CU8",
      "name": "Bharat petroleum Zishan Highway Point",
      "lat": 28.0143928,
      "lng": 79.6761866,
      "address": "National Highway 30, Feel Nagar",
      "open_now": true
    },
    {
      "place_id": "ChIJRfj6ohrtnzkRE2V9OEjw-EQ",
      "name": "Bharat Petroleum, Petrol Pump -Kissan Petroleum",
      "lat": 28.0066116,
      "lng": 79.66735779999999,
      "address": "KATRA ON KATRA MADNAPUR RO, SHAHJAHANPUR",
      "open_now": true
    },
    {
      "place_id": "ChIJkbqIrkbtnzkR_6pYGaLWAzU",
      "name": "IndianOil",
      "lat": 28.0071889,
      "lng": 79.6843597,
      "address": "Ground Floor, Feel Nagar",
      "open_now": true
    },
    {
      "place_id": "ChIJQ7APPXrvnzkR26xBng8OXUY",
      "name": "Rajan Fuel",
      "lat": 28.0320085,
      "lng": 79.6107293,
      "address": "near Nadaiya, Gokulpur Nauadia",
      "open_now": null
    },
    {
      "place_id": "ChIJGU1Bl6vBnzkRGEzsjuSlIcY",
      "name": "IndianOil",
      "lat": 27.858238,
      "lng": 79.67706799999999,
      "address": "Ground Floor, Akbaria, Madnapur",
      "open_now": true
    },
    {
      "place_id": "ChIJuafMbQzBnzkRBy1vE7BMIjc",
      "name": "Hindustan Petroleum Corporation Limited",
      "lat": 27.8578215,
      "lng": 79.6765875,
      "address": "Ground Floor, Sadar, Meeragpur",
      "open_now": true
    },
    {
      "place_id": "ChIJia2aNADBnzkR2-TDoYpST0E",
      "name": "Aazam",
      "lat": 27.8913515,
      "lng": 79.6866933,
      "address": "VMRP+GMW, Pooranpur",
      "open_now": null
    },
    {
      "place_id": "ChIJ9297os7BnzkRi8WXtqrte4M",
      "name": "Bharat Petroleum Petrol Pump , J.D.SINGH FUELS",
      "lat": 27.84316,
      "lng": 79.674302,
      "address": "BARUA PATTI SANAYAKKATRA-JALALABAD ROAD",
      "open_now": true
    },
    {
      "place_id": "ChIJH8SWlAu8nzkR9FRK5mB8UCo",
      "name": "IndianOil",
      "lat": 27.70811509999999,
      "lng": 79.651099,
      "address": "Ground Floor Jamaur, SH 29, Basulia",
      "open_now": true
    },
    {
      "place_id": "ChIJS-7DrgnPnzkR4-zEsmD6zUs",
      "name": "Hindustan Petroleum Corporation Limited",
      "lat": 27.689156,
      "lng": 79.636361,
      "address": "Plot No 107/2, Kola Road, Parashurampuri",
      "open_now": true
    },
    {
      "place_id": "ChIJHbWUMOS4nzkRgCCzeKI_hc8",
      "name": "Siyaram Filling Station",
      "lat": 27.7042599,
      "lng": 79.6528108,
      "address": "State Highway 29, Vikrampur",
      "open_now": true
    },
    {
      "place_id": "ChIJPwJdPQDJnzkR68dl6O7ourQ",
      "name": "Kargil shahid Ramesh Chandra filing stetion",
      "lat": 27.7091326,
      "lng": 79.6530174,
      "address": "PM53+M62, Rauli Bouri",
      "open_now": null
    },
    {
      "place_id": "ChIJp0542cbJnzkRBynb-xkCoWs",
      "name": "IndianOil",
      "lat": 27.7089855,
      "lng": 79.65109939999999,
      "address": "Village gora, Shahjahanpur SH-29, Kant Road, Shahjahanpur",
      "open_now": true
    },
    {
      "place_id": "ChIJewYf0LLInzkR5Db1ZaCU4Yo",
      "name": "Reliance Petrol Pump",
      "lat": 27.7096806,
      "lng": 79.6508333,
      "address": "PM52+V8G, Rauli Bouri, road, katra, Parashurampuri",
      "open_now": true
    },
    {
      "place_id": "ChIJl5cBnazJnzkR9F7muIJ8jXw",
      "name": "Ganga chikitsalay Yakub Pur chauraha Parashurampuri",
      "lat": 27.7117702,
      "lng": 79.6523954,
      "address": "PM62+PX2, Rauli Bouri",
      "open_now": null
    },
    {
      "place_id": "ChIJc2GsEADJnzkR6FPz-iwHZd4",
      "name": "जलालाबाद",
      "lat": 27.7180417,
      "lng": 79.6558242,
      "address": "PM94+688, Parashurampuri",
      "open_now": null
    },
    {
      "place_id": "ChIJ8x_OYqvInzkRH1d6xU8K9Uc",
      "name": "IndianOil",
      "lat": 27.7179116,
      "lng": 79.6522884,
      "address": "near Gunara, Road, Gunara",
      "open_now": true
    },
    {
      "place_id": "ChIJBU2ZyrDJnzkRayHuCZ23YZk",
      "name": "Reliance Petroleum",
      "lat": 27.7208191,
      "lng": 79.6572275,
      "address": "GOPALJI FILLING STATION, M/S, PARGANA, TEHSIL, VILLAGE YAKUBPUR",
      "open_now": null
    },
    {
      "place_id": "ChIJgVQPjxfJnzkR3Zx97yMv2RQ",
      "name": "IndianOil",
      "lat": 27.7199676,
      "lng": 79.6659909,
      "address": "Ground Floor, Near Barapathar Chauraha, Jalalabad, Alhadadpur Baihari",
      "open_now": true
    },
    {
      "place_id": "ChIJjb2Y9DnLnzkR5xDr8kAeqNE",
      "name": "Lakshmi Trailers",
      "lat": 27.5464797,
      "lng": 79.6914279,
      "address": "Gas Ke Pacue, Anankpur, Nare Allganj, Bhgiya",
      "open_now": null
    },
    {
      "place_id": "ChIJF-9IIPk1njkRG75gGjwzKck",
      "name": "KUSHWAHA BANKING POINT",
      "lat": 27.5172023,
      "lng": 79.7030683,
      "address": "Main Chuaraha, Hullapur",
      "open_now": true
    },
    {
      "place_id": "ChIJr4vamRs1njkR6901l5g2RJk",
      "name": "IndianOil",
      "lat": 27.510331,
      "lng": 79.701807,
      "address": "Ground Floor Hullapur, Crossing, Allaganj",
      "open_now": true
    },
    {
      "place_id": "ChIJk6mbXgA1njkRgcKAtBX1Kvc",
      "name": "हुल्लापर चौराहा",
      "lat": 27.5094125,
      "lng": 79.6979157,
      "address": "GM5X+Q57, near petrol pump, Hullapur",
      "open_now": null
    },
    {
      "place_id": "ChIJv5ljTADLnzkRXNmqEjN50FM",
      "name": "Jai shri ram filling station bajeer pur tatiyari allahganj shahajahanpur",
      "lat": 27.5771017,
      "lng": 79.683919,
      "address": "HMGM+RHV, Bajeerpur, Tatiyari",
      "open_now": true
    },
    {
      "place_id": "ChIJ6VAVEpc1njkRaI_nXEsGJ7M",
      "name": "Viraj filling station",
      "lat": 27.5142622,
      "lng": 79.6656473,
      "address": "GM78+P72, MUBARIKPUR kalan, Naugawan",
      "open_now": true
    },
    {
      "place_id": "ChIJ9VVjyE8wnjkRU4FuEQgnP50",
      "name": "IndianOil",
      "lat": 27.384749,
      "lng": 79.59282100000001,
      "address": "Barhpur, Awajpur, 00, Farrukhabad",
      "open_now": true
    },
    {
      "place_id": "ChIJrXGdRUgwnjkR3br4vO7pC2o",
      "name": "IndianOil",
      "lat": 27.383914,
      "lng": 79.58499119999999,
      "address": "Ground Floor, opposite Laxmi Cold Storage, Thandi Sadak, Farrukhabad",
      "open_now": true
    },
    {
      "place_id": "ChIJD_lkkuEwnjkR7B7m49MG9Vw",
      "name": "IndianOil",
      "lat": 27.39460099999999,
      "lng": 79.6229985,
      "address": "Ground Floor, Ghatiaghat, Awajpur, Farrukhabad",
      "open_now": true
    },
    {
      "place_id": "ChIJt9NAEDQxnjkR8xEbxgJP0j0",
      "name": "Ganga Filling Station",
      "lat": 27.39476539999999,
      "lng": 79.6227569,
      "address": "NH730C, Panchal Ghat Road, Farrukhabad",
      "open_now": true
    },
    {
      "place_id": "ChIJbzMrLv0wnjkRZehMUCPjpWg",
      "name": "Hindustan Petroleum Corporation Limited",
      "lat": 27.3936368,
      "lng": 79.6162627,
      "address": "Ground Floor, Ghatiyaghat Road, Farrukhabad",
      "open_now": true
    },
    {
      "place_id": "ChIJTdCGJYIxnjkRzrqNa5gx2O4",
      "name": "Hindustan Petroleum Corporation Limited",
      "lat": 27.38690940000001,
      "lng": 79.6024322,
      "address": "Ground Floor, Lakula Road, Farrukhabad",
      "open_now": true
    },
    {
      "place_id": "ChIJiYBmbfMwnjkRBSx2-H01QfQ",
      "name": "IndianOil",
      "lat": 27.374598,
      "lng": 79.6122512,
      "address": "Ground Floor, Nekpur Kalan, Awajpur, Farrukhabad",
      "open_now": true
    },
    {
      "place_id": "ChIJeazjBjUxnjkRsOz7XzVxppo",
      "name": "Bharat Petroleum, Petrol Pump -Coomar Service Station",
      "lat": 27.3709652,
      "lng": 79.62178229999999,
      "address": "FATEHGARH, Farrukhabad",
      "open_now": null
    },
    {
      "place_id": "ChIJ7SZvzr0wnjkR04lX_LKInRs",
      "name": "Coomar service Station(petrol pump)",
      "lat": 27.3671189,
      "lng": 79.63016499999999,
      "address": "PWD Colony, Fatehgarh",
      "open_now": true
    },
    {
      "place_id": "ChIJd4ECZV8xnjkRcyaqvJsyI4k",
      "name": "IndianOil",
      "lat": 27.36667109999999,
      "lng": 79.6321253,
      "address": "Ground Floor, Fatehgarh",
      "open_now": true
    },
    {
      "place_id": "ChIJaSJzgHUxnjkRAunG4KMEahU",
      "name": "AMAN HP GAS SERVICE",
      "lat": 27.3813797,
      "lng": 79.5960717,
      "address": "Barhpur Mandir, Farrukhabad Road, Awas Vikas Colony, Farrukhabad",
      "open_now": null
    },
    {
      "place_id": "ChIJJU1zrE8wnjkRFPOtaEgF4Hk",
      "name": "Hindustan Petroleum Corporation Limited",
      "lat": 27.384983,
      "lng": 79.591623,
      "address": "Laal Gate, Ground Floor Fatehgarh Road, Road, Farrukhabad",
      "open_now": true
    },
    {
      "place_id": "ChIJH70rYzoxnjkRp6cksFIHsnQ",
      "name": "Bharat Petroleum, Petrol Pump -Om Sai Filling Station",
      "lat": 27.386546,
      "lng": 79.59000379999999,
      "address": "FARRUKHABAD CITY, Farrukhabad",
      "open_now": null
    },
    {
      "place_id": "ChIJ0Z6KDZ8xnjkRrGG8nh-O4n0",
      "name": "Rohit Joshi",
      "lat": 27.3872034,
      "lng": 79.588655,
      "address": "Lal Darwaja Road, Farrukhabad",
      "open_now": null
    },
    {
      "place_id": "ChIJIyt9H2IwnjkR1EY9VEfmQRM",
      "name": "Reliance Petrol Pump",
      "lat": 27.3655834,
      "lng": 79.6039721,
      "address": "State Highway 29, Farrukhabad",
      "open_now": true
    },
    {
      "place_id": "ChIJlcUtYwAxnjkRBiqJxwL3Vc8",
      "name": "Maa Ganga Filling Station",
      "lat": 27.4337482,
      "lng": 79.64453309999999,
      "address": "CJMV+FRV, Gautiya",
      "open_now": true
    },
    {
      "place_id": "ChIJfYys-UIwnjkRuIGdOAJutGo",
      "name": "Bharat Petroleum",
      "lat": 27.37313159999999,
      "lng": 79.5914306,
      "address": "9HFR+7H3, Mandi Road, Shyam Nagar, Farrukhabad",
      "open_now": null
    },
    {
      "place_id": "ChIJmZFnFPYxnjkR7vao0ttGZQM",
      "name": "Om Sai Filling Station Satanpur Mandi Road Near Hanuman Mandir Farrukhabad",
      "lat": 27.3729704,
      "lng": 79.591112,
      "address": "9HFR+5CQ, Satanpur Mandi Road, near Hanuman Mandir",
      "open_now": null
    },
    {
      "place_id": "ChIJNW5fiUIwnjkRTPh8K0El-Wc",
      "name": "Hindustan Petroleum Corporation Limited",
      "lat": 27.3718923,
      "lng": 79.59152300000001,
      "address": "Ground Floor Navin, Mandi Road, Satanpur, Farrukhabad",
      "open_now": true
    },
    {
      "place_id": "ChIJHVSomEwxnjkRajNGMpwSZD4",
      "name": "Shri Radha Krishna Filling Station",
      "lat": 27.3662395,
      "lng": 79.5955592,
      "address": "Near, Satanpur Mandi, Narayanpur, Farrukhabad",
      "open_now": true
    },
    {
      "place_id": "ChIJNZDI6-AlnjkR8Fq1jjp-mPo",
      "name": "Hindustan Petroleum Corporation Limited",
      "lat": 27.274547,
      "lng": 79.558471,
      "address": "Ground Floor, Farrukhabad Chhibramau Road, Rathaura Muhiuddinpur",
      "open_now": true
    },
    {
      "place_id": "ChIJmweYOIYYnjkRC73cQLpXnr0",
      "name": "IndianOil",
      "lat": 27.1454059,
      "lng": 79.5116046,
      "address": "Gata No 412, hhibramau Saurikh Road, Khojipur, Bahbalpur",
      "open_now": true
    },
    {
      "place_id": "ChIJwcMShHUinjkRZoomp0FGB9k",
      "name": "Hindustan Petroleum Corporation Limited",
      "lat": 27.155001,
      "lng": 79.498901,
      "address": "Ground Floor, KM Stone 301, GT Road, Chhibramau",
      "open_now": true
    },
    {
      "place_id": "ChIJH2EfioQjnjkR-cRxorWJg2Y",
      "name": "Diesel Pump",
      "lat": 27.1863293,
      "lng": 79.5387046,
      "address": "5GPQ+GFP, Bahorik Pur",
      "open_now": true
    },
    {
      "place_id": "ChIJg_ZlhraFnTkRRlzdKueE_64",
      "name": "IndianOil",
      "lat": 27.1633162,
      "lng": 79.5131191,
      "address": "Ground Floor Farrukabad Road, Chibramau,Kannuaj, near Near Subhash Academy",
      "open_now": true
    },
    {
      "place_id": "ChIJp5zVHAAjnjkRHZqaiCrBmbM",
      "name": "petrol",
      "lat": 27.1630325,
      "lng": 79.5132454,
      "address": "5G77+76, Dayamganj Sa",
      "open_now": null
    },
    {
      "place_id": "ChIJZ8bB8HEinjkRoarISVFA4k8",
      "name": "Bharat Petroleum",
      "lat": 27.1654584,
      "lng": 79.498944,
      "address": "India",
      "open_now": null
    },
    {
      "place_id": "ChIJORZGZwAZnjkRe7zW7n1yMxE",
      "name": "Indian oil Petrol",
      "lat": 27.1406671,
      "lng": 79.5345585,
      "address": "102, Sarai Sunder",
      "open_now": null
    },
    {
      "place_id": "ChIJTXWRQAAZnjkRDLkFRxKHLNw",
      "name": "Shri Ram Filling Station",
      "lat": 27.1401647,
      "lng": 79.5344832,
      "address": "Nh 91, new nh 34, From, Aligarh",
      "open_now": null
    },
    {
      "place_id": "ChIJs1pEsXkZnjkRIVxVg_RkTV0",
      "name": "Bharat Petroleum, Petrol Pump -Chakor Filling Station",
      "lat": 27.1543914,
      "lng": 79.5025053,
      "address": "PARGANA:TALGRAM, THSIL:, KANNUJ",
      "open_now": null
    },
    {
      "place_id": "ChIJG83gXwAjnjkRztFqOIrX6aA",
      "name": "Ramveer Singh Rajput Filling Station Admapur",
      "lat": 27.215171,
      "lng": 79.5481652,
      "address": "Farrukhabad Chhibramau Road, Bahorik Pur",
      "open_now": true
    },
    {
      "place_id": "ChIJnxaChHUinjkRjCdGNvnmQ_E",
      "name": "Reliance",
      "lat": 27.1550189,
      "lng": 79.4960534,
      "address": "India",
      "open_now": null
    },
    {
      "place_id": "ChIJLeydhHUinjkRqRAiJsiFcBo",
      "name": "Jio-bp",
      "lat": 27.155116,
      "lng": 79.495781,
      "address": "Ground Floor, Mile Stone 300, Opposite Lata Cold Storage, Nh 91, Chhibramau",
      "open_now": true
    },
    {
      "place_id": "ChIJA7NkVgAZnjkRy6Yq5giY7XM",
      "name": "Jio petrol pump",
      "lat": 27.1499944,
      "lng": 79.4998985,
      "address": "Chhibramau",
      "open_now": null
    },
    {
      "place_id": "ChIJiQ5XyNEZnjkRoFK8EHTjfnc",
      "name": "Shri Khatu Shyam Filling Station",
      "lat": 27.1530584,
      "lng": 79.4967185,
      "address": "Tajpur Road, सराय दयामगंज, Chhibramau",
      "open_now": null
    },
    {
      "place_id": "ChIJn95fUpoYnjkRSNy2N3LMJ_E",
      "name": "Hindustan Petroleum Corporation Limited",
      "lat": 27.145801,
      "lng": 79.500901,
      "address": "Ground Floor, GT Road, Chhibramau",
      "open_now": true
    },
    {
      "place_id": "ChIJhSRoWOcbnjkRSJwnRwwfKhE",
      "name": "Hindustan Petroleum Corporation Limited",
      "lat": 27.054501,
      "lng": 79.492801,
      "address": "Ground Floor, Chibramau Rd, Saurikh",
      "open_now": true
    },
    {
      "place_id": "ChIJvedK9cwbnjkRiQCiBtnCHU0",
      "name": "Bharat Petroleum, Petrol Pump -Kewal Ram & Sons",
      "lat": 27.0333556,
      "lng": 79.49029399999999,
      "address": "CHHIBRAMAU-KEWALRAM, KANNUJ",
      "open_now": true
    },
    {
      "place_id": "ChIJtYWCsLsbnjkROhsRE-JEVUY",
      "name": "Hindustan Petroleum Corporation Limited",
      "lat": 27.030931,
      "lng": 79.50070099999999,
      "address": "Ground Floor, Tirwa Road, Chhibramau, Alipur",
      "open_now": true
    },
    {
      "place_id": "ChIJtUBt2eAbnjkR11KKyLqbMI4",
      "name": "Arvind Misthan",
      "lat": 27.02929169999999,
      "lng": 79.48781,
      "address": "Sakrawa Roud, Saurikh",
      "open_now": null
    },
    {
      "place_id": "ChIJ3xRvkJcbnjkRCnPqptbtWVc",
      "name": "IndianOil",
      "lat": 27.0269849,
      "lng": 79.4908365,
      "address": "2FGR+J6F, CSB Road, Kannauj, Saurikh",
      "open_now": true
    },
    {
      "place_id": "ChIJ1beGLO4bnjkROo9hVtOeyz4",
      "name": "S S K K Energy Station",
      "lat": 27.0221503,
      "lng": 79.4875247,
      "address": "Shop No 02, Arwa Rod, Kannauj",
      "open_now": null
    },
    {
      "place_id": "ChIJG2QgQlQbnjkRhLXghZRXM68",
      "name": "Bharat Petroleum Petrol Pump , RAW BALVEER SINGH RANVEER SINGH",
      "lat": 27.022455,
      "lng": 79.475376,
      "address": "AUSER ROAD, Saurikh",
      "open_now": true
    },
    {
      "place_id": "ChIJWewkQAAZnjkRV7XQJgPpp7k",
      "name": "Mayank kirna eshtor",
      "lat": 27.1022492,
      "lng": 79.50352509999999,
      "address": "4G23+VCR, Khojipur, Pranpur Paly",
      "open_now": null
    },
    {
      "place_id": "ChIJ7xMTAZ0bnjkROapk4v6FA1Y",
      "name": "Kanhaiya Lal cng Filling Station",
      "lat": 27.0149155,
      "lng": 79.4887808,
      "address": "Bidhuna Road, Saurikh",
      "open_now": true
    },
    {
      "place_id": "ChIJxZwvx0T3dTkR5nK9bX98uuk",
      "name": "Vinod Kumar Filling Station Bharat petroleum company",
      "lat": 26.9763766,
      "lng": 79.3689217,
      "address": "Shop No 25, near Bharat Patrol Pump, Road, Nagla Madari, Saurikh",
      "open_now": true
    },
    {
      "place_id": "ChIJCWwntSAdnjkRO7bVfa_Ahzk",
      "name": "IndianOil",
      "lat": 26.9879669,
      "lng": 79.42124749999999,
      "address": "Ground Floor Sakraba, Chibramau, Birpur",
      "open_now": true
    },
    {
      "place_id": "ChIJ6djuh3kdnjkRgzSJTbPEM3s",
      "name": "Bharat Petroleum",
      "lat": 26.9995662,
      "lng": 79.41075049999999,
      "address": "XCX6+R8, Ghuspura",
      "open_now": null
    },
    {
      "place_id": "ChIJg7H0iMMdnjkRouya5MTlXJk",
      "name": "Hindustan Petroleum Corporation Limited",
      "lat": 27.002231,
      "lng": 79.413071,
      "address": "Khata No 154, Khasra No 351, Palahar",
      "open_now": true
    },
    {
      "place_id": "ChIJL55BGQL_dTkRXLHE1yAE5AQ",
      "name": "SHREE KRISHNA FILLING CENTER",
      "lat": 26.7874684,
      "lng": 79.31471499999999,
      "address": "pakka talk, Baripura",
      "open_now": true
    },
    {
      "place_id": "ChIJMzC6ebv_dTkRHeda_akGrPA",
      "name": "IndianOil",
      "lat": 26.80364179999999,
      "lng": 79.3516704,
      "address": "Ground Floor, Chaupula Road, Baibaha",
      "open_now": true
    },
    {
      "place_id": "ChIJFQSH_U_5dTkR8pE7kwF6k1g",
      "name": "M.R Filling Station",
      "lat": 26.8665004,
      "lng": 79.32782259999999,
      "address": "V88H+J44, Maderiya basti",
      "open_now": null
    },
    {
      "place_id": "ChIJ6RSKMzH_nTkR2C7jdzCbqv0",
      "name": "BPCL Maya Filling Station",
      "lat": 26.6900175,
      "lng": 79.40873979999999,
      "address": "Nagaria",
      "open_now": null
    },
    {
      "place_id": "ChIJr8zG2zX_nTkRWw8yb0wgszc",
      "name": "Bharat Petroleum, Petrol Pump -Maya Filling Station",
      "lat": 26.7067403,
      "lng": 79.407037,
      "address": "Achhalda - Bidhuna Road, Bidhuna",
      "open_now": true
    },
    {
      "place_id": "ChIJ8V6HzWH_nTkRhN0DjbrC63s",
      "name": "IndianOil",
      "lat": 26.6967652,
      "lng": 79.39191269999999,
      "address": "Ground Floor, Road, Baisoli, Achalda",
      "open_now": true
    },
    {
      "place_id": "ChIJ7zZhLwT_nTkRUp38RixEd3A",
      "name": "Hindustan Petroleum Corporation Limited",
      "lat": 26.7233321,
      "lng": 79.41761919999999,
      "address": "Ground Floor, Bidhuna, Achalda",
      "open_now": true
    },
    {
      "place_id": "ChIJgTrNLpnfdTkResEz-OrLzEM",
      "name": "IndianOil",
      "lat": 26.6942895,
      "lng": 79.406416,
      "address": "Ground Floor, Bidhuna, Nagaria",
      "open_now": true
    },
    {
      "place_id": "ChIJyzXxZXf_nTkR9dMsf3R72wM",
      "name": "Indian Oil",
      "lat": 26.7345457,
      "lng": 79.42829859999999,
      "address": "PCMH+R87, Guwari",
      "open_now": true
    },
    {
      "place_id": "ChIJYzDWVR8BdjkRqFBr7ny2UU4",
      "name": "Hindustan Petroleum Corporation Limited",
      "lat": 26.693656,
      "lng": 79.35307499999999,
      "address": "Gata No 40, Bidhuna, Lidhaura",
      "open_now": true
    },
    {
      "place_id": "ChIJuYwS3lj3nTkRg0TrMpLG8J0",
      "name": "बीपी फीलिंग स्टोर",
      "lat": 26.5400065,
      "lng": 79.3976106,
      "address": "G9RX+225, Auraiya",
      "open_now": null
    },
    {
      "place_id": "ChIJXRkxPIf3nTkR8hL41sTYIXA",
      "name": "Krishna fuels BPCL 24x7",
      "lat": 26.5127337,
      "lng": 79.39679490000002,
      "address": "NH19, Hasuliya, Ajitmal",
      "open_now": true
    },
    {
      "place_id": "ChIJzVWuGZ73nTkRJB-9Kolqmko",
      "name": "Bharat Petroleum, Petrol Pump -Bhatia Enterprises (Adhoc)",
      "lat": 26.5032072,
      "lng": 79.41072679999999,
      "address": "FATEHPUR KARAM, NH-2, Auraiya",
      "open_now": true
    },
    {
      "place_id": "ChIJ_RpX28OLnTkRxVsRRxbwMTU",
      "name": "JAI MAA FILLING STATION CNG",
      "lat": 26.3830552,
      "lng": 79.4390538,
      "address": "9CMQ+6JF, Gursahaiganj - Jalaun Road, Durha Kalpi",
      "open_now": true
    },
    {
      "place_id": "ChIJg7LMJ9WLnTkR7ASDTOQlbGI",
      "name": "Hindustan Petroleum Corporation Limited",
      "lat": 26.387531,
      "lng": 79.445229,
      "address": "Khasra No 288K, Bhadekh",
      "open_now": true
    },
    {
      "place_id": "ChIJldVTxn2LnTkRDJWESiFSe7U",
      "name": "BHAGAT RAGHUNANDAN BHATIYA FILLING KUTHOND",
      "lat": 26.3736271,
      "lng": 79.4270298,
      "address": "SH-21, Auraiya Road, Kuthond",
      "open_now": true
    },
    {
      "place_id": "ChIJH9L7qSWLnTkRLGfhPhMLnCM",
      "name": "Petrol pump",
      "lat": 26.37289849999999,
      "lng": 79.428502,
      "address": "Kuthond",
      "open_now": null
    },
    {
      "place_id": "ChIJk7Gh3IAmdjkRQTubmelxE3Y",
      "name": "IndianOil",
      "lat": 26.2565736,
      "lng": 79.2945862,
      "address": "Madhogarh, Rajpura,Akorhi Dubey, Plot No 188/2, Rajpura",
      "open_now": true
    },
    {
      "place_id": "ChIJqWD7maQhdjkRqaSL93E7UCw",
      "name": "Shree Ganesh fueling station",
      "lat": 26.30887,
      "lng": 79.337776,
      "address": "885Q+G4R, Enton - Ajitapur Road, Ajitapur",
      "open_now": true
    },
    {
      "place_id": "ChIJvYKvIp4ndjkR7dBh4wJ30Is",
      "name": "IndianOil",
      "lat": 26.2575446,
      "lng": 79.3628906,
      "address": "No 511 Mi, Hadrauk, Hadrukh Naintha Oil Plant, Road, Madora",
      "open_now": true
    },
    {
      "place_id": "ChIJk1AJSCQhdjkRsX_DBedgSjc",
      "name": "K G N Bio Fuel",
      "lat": 26.31858099999999,
      "lng": 79.328184,
      "address": "889H+C7M, Enton",
      "open_now": null
    },
    {
      "place_id": "ChIJS2U5rLYndjkRkjpKkREHhN4",
      "name": "Hindustan Petroleum Corporation Limited",
      "lat": 26.252927,
      "lng": 79.370511,
      "address": "Ground Floor, Gursahaiganj - Jalaun Road, Hadrukh",
      "open_now": true
    },
    {
      "place_id": "ChIJdWXOCvIpdjkRUtFjNVpriSc",
      "name": "IndianOil",
      "lat": 26.115795,
      "lng": 79.2973085,
      "address": "Ground Floor Konch, Udhotpura, Sami",
      "open_now": true
    },
    {
      "place_id": "ChIJ827XTQAvdjkRYoFr0pH-w9M",
      "name": "Indian oil patrol pump",
      "lat": 26.15963610000001,
      "lng": 79.2846343,
      "address": "575M+VV2, Salabad",
      "open_now": null
    },
    {
      "place_id": "ChIJ1amFVADVdzkR72OdfhSEXfY",
      "name": "Hightech energy fuel station ⛽",
      "lat": 25.943815,
      "lng": 79.37254399999999,
      "address": "W9VF+G2, Naktela",
      "open_now": null
    },
    {
      "place_id": "ChIJh7jMRRZ-nTkR4DxHYY-Zg2U",
      "name": "Hindustan Petroleum Corporation Limited",
      "lat": 25.945361,
      "lng": 79.377251,
      "address": "Ground Floor NH 25, Orai Jhansi Rd, Badagaon, Shahpura",
      "open_now": true
    },
    {
      "place_id": "ChIJh5D4vgZlnTkRqpPuIHSerGg",
      "name": "Hindustan Petroleum Corporation Limited",
      "lat": 25.7984896,
      "lng": 79.4771768,
      "address": "Ground Floor, SH 21, Rath - Orai Road, Sarila, Chikasi",
      "open_now": true
    },
    {
      "place_id": "ChIJA75_Rz5jnTkRG3jUtOEh87s",
      "name": "pratap diesel pump",
      "lat": 25.8228565,
      "lng": 79.4441879,
      "address": "RCFV+4MW, Mohana",
      "open_now": true
    },
    {
      "place_id": "ChIJ--mJI0RpnTkRtA9yvh-wGQ0",
      "name": "IndianOil",
      "lat": 25.6798853,
      "lng": 79.63108179999999,
      "address": "Ground Floor, Umariya",
      "open_now": true
    },
    {
      "place_id": "ChIJJ2txsYNdnTkRvnR0XgHQ-PU",
      "name": "KALPANA BHARAT GAS UMARIYA",
      "lat": 25.6926037,
      "lng": 79.6432933,
      "address": "MJVV+28V, Umariya",
      "open_now": null
    },
    {
      "place_id": "ChIJ96NMKAJDnTkRLpZydUYDG_U",
      "name": "Hindustan Petroleum Corporation Limited",
      "lat": 25.6444202,
      "lng": 79.6043188,
      "address": "Ghata No 829, Jalalpur Road, Rath",
      "open_now": true
    },
    {
      "place_id": "ChIJBSVorGnVBDkRfsucHE9s-_s",
      "name": "IndianOil",
      "lat": 25.72213319999999,
      "lng": 79.5924046,
      "address": "Gata No 940, Beera",
      "open_now": true
    },
    {
      "place_id": "ChIJ3aUhluRpnTkRWEmBx_fRFrI",
      "name": "Jai maa vindhyavasini ksk",
      "lat": 25.7222017,
      "lng": 79.59195500000001,
      "address": "PHCR+VQ, Beera",
      "open_now": true
    },
    {
      "place_id": "ChIJZQAJdwBDnTkRGZvYLTURaYo",
      "name": "Ojas filling station",
      "lat": 25.6433807,
      "lng": 79.6039255,
      "address": "MDR, 41B, Sarsai",
      "open_now": true
    },
    {
      "place_id": "ChIJ18P-igIlnTkRV_YxuDUgbuo",
      "name": "IndianOil",
      "lat": 25.597437,
      "lng": 79.97502899999999,
      "address": "Gata No 1786, Artara, Gyondi",
      "open_now": true
    },
    {
      "place_id": "ChIJFfnMhLPbnDkRrasPiibFwlE",
      "name": "Hindustan Petroleum Corporation Limited",
      "lat": 25.574496,
      "lng": 80.21613839999999,
      "address": "Ground Floor, Road, Maudaha",
      "open_now": true
    },
    {
      "place_id": "ChIJvaFqisfRnDkR_qQEooKcB28",
      "name": "Hindustan Petroleum Corporation Limited",
      "lat": 25.496669,
      "lng": 80.23734499999999,
      "address": "Gata No 1509, KHA Kapsa, Banda Mahoba Road, Mohan Purwa",
      "open_now": true
    },
    {
      "place_id": "ChIJeXcc-Y2znDkRwVGhVcfR93Q",
      "name": "S.k.Tyagi filling station",
      "lat": 25.4154934,
      "lng": 80.5683949,
      "address": "Pawai, Bisanda",
      "open_now": true
    },
    {
      "place_id": "ChIJCTN89iuznDkR8LpXcW_SyLA",
      "name": "Bharat petroleum filling station",
      "lat": 25.4151875,
      "lng": 80.5691875,
      "address": "CH89+3M Pawai, Banda - Oran Road, Bisanda",
      "open_now": null
    },
    {
      "place_id": "ChIJSVZsqX21nDkRkeCztQW9j_Y",
      "name": "IndianOil",
      "lat": 25.4322471,
      "lng": 80.5078453,
      "address": "Ground Floor Bilgaon, Bisanda, Achharaund, Atarra",
      "open_now": true
    },
    {
      "place_id": "ChIJxRR8JECznDkRK4m88ljYtdk",
      "name": "Hindustan Petroleum Corporation Limited",
      "lat": 25.410917,
      "lng": 80.581667,
      "address": "Gata No, 31 & 32, Atarra, Ghoori",
      "open_now": true
    },
    {
      "place_id": "ChIJ0ewY3yhXgzkR8ziO2LKAdLA",
      "name": "Bharat Petroleum Universal Filling Station",
      "lat": 25.212256,
      "lng": 80.8097196,
      "address": "6R65+WV5, National Highway 35, Banda",
      "open_now": true
    },
    {
      "place_id": "ChIJvV-neFyphDkRc61Jxh3-aTI",
      "name": "Hindustan Petroleum Corporation Limited",
      "lat": 25.1992971,
      "lng": 80.8351028,
      "address": "Gata No 675/1, Ranipur Khaki",
      "open_now": true
    },
    {
      "place_id": "ChIJAZV_3UCphDkRFk9ER6GrQmU",
      "name": "Shri Ram Janki Filling Station CNG EV-Charging Petrol and Diesel",
      "lat": 25.216978,
      "lng": 80.8441907,
      "address": "NH35",
      "open_now": true
    },
    {
      "place_id": "ChIJg6hAgUlXgzkRvH8Q7BbsGcg",
      "name": "IndianOil",
      "lat": 25.1992972,
      "lng": 80.80304079999999,
      "address": "Ground Floor Bhartaul, Karvi, Shivrampur",
      "open_now": true
    },
    {
      "place_id": "ChIJaZuOpSRXgzkRMgJA9-m3IO8",
      "name": "J.P. Filling Station 'Bharat Petroleum'",
      "lat": 25.19951009999999,
      "lng": 80.7794127,
      "address": "Bharatkoop Mandir",
      "open_now": true
    },
    {
      "place_id": "ChIJBVfbKABXgzkR1DboMGpdbAI",
      "name": "Bharat Petroleum Corporation Ltd",
      "lat": 25.19941799999999,
      "lng": 80.779393,
      "address": "5QXH+QQ, Rampur Mafi",
      "open_now": true
    },
    {
      "place_id": "ChIJlX4ZZqanhDkR_OP3NUhQDc8",
      "name": "Bharat petroleum petrol pump",
      "lat": 25.1868726,
      "lng": 80.8605639,
      "address": "PILI KOTHI, Road, Chitara Gokulpur",
      "open_now": true
    },
    {
      "place_id": "ChIJcXj_5-inhDkRJs21nk6s7kA",
      "name": "Hindustan Petroleum Corporation Limited",
      "lat": 25.1050468,
      "lng": 80.8365008,
      "address": "Gata No 248, Chakala Chak Mongar",
      "open_now": true
    },
    {
      "place_id": "ChIJOdqEhzBggzkRpsSsKz3_Wgg",
      "name": "Hindustan Petroleum",
      "lat": 24.962369,
      "lng": 80.7962091,
      "address": "Itwa Tudaila",
      "open_now": true
    },
    {
      "place_id": "ChIJ1Uj9bzpggzkRSBYMEIwgNtg",
      "name": "IndianOil",
      "lat": 24.963571,
      "lng": 80.79567700000001,
      "address": "Itewa, Chitrakoot Satna Road, Durela, Ramakhurd, Karwi",
      "open_now": true
    },
    {
      "place_id": "ChIJTz1ChzBggzkRHB82nQQP8tk",
      "name": "Bharat Petroleum",
      "lat": 24.9624981,
      "lng": 80.7961871,
      "address": "India",
      "open_now": null
    },
    {
      "place_id": "ChIJd_Kjy1xhgzkRMh3cy9IROyM",
      "name": "Maa Santoshi fuel Services",
      "lat": 24.9571093,
      "lng": 80.79993739999999,
      "address": "gata no-382",
      "open_now": true
    },
    {
      "place_id": "ChIJmx5jbA1_hDkRpbEfktR45L8",
      "name": "GOPINATH LALBIHARI PETROL PUMP",
      "lat": 24.5665811,
      "lng": 80.8340228,
      "address": "Ganpat Marg, Nazirabad, Satna",
      "open_now": null
    },
    {
      "place_id": "ChIJgyBk7gh_hDkRanseEeb9InY",
      "name": "United Service Station Petrol pump",
      "lat": 24.5736617,
      "lng": 80.84142349999999,
      "address": "hotel rewa, united service station Rewa road, near park, hotel road, Satna",
      "open_now": true
    },
    {
      "place_id": "ChIJ0wFA3wV_hDkRlyXICA5BBTQ",
      "name": "Hindustan Petroleum Corporation Limited",
      "lat": 24.5715601,
      "lng": 80.8450701,
      "address": "Ground Floor, Semariya Chowk, Satna",
      "open_now": true
    },
    {
      "place_id": "ChIJp_rEJQ5_hDkRjrHMLWKC2Vk",
      "name": "IndianOil",
      "lat": 24.5791914,
      "lng": 80.8226002,
      "address": "Ground Floor, near Superindendent Of Police, Satna",
      "open_now": true
    },
    {
      "place_id": "ChIJtb1oNCp_hDkRYEO5ViKF0uQ",
      "name": "Bharat Petroleum,CNG & Petrol Pump -Kalyan Service Station",
      "lat": 24.5760338,
      "lng": 80.81843789999999,
      "address": "Panna Naka, Umri, Satna",
      "open_now": true
    },
    {
      "place_id": "ChIJG6mzhQJ_hDkRswxBnKyppd0",
      "name": "Gurunanak Fuels",
      "lat": 24.5755803,
      "lng": 80.82541049999999,
      "address": "Civil Lines, Satna",
      "open_now": null
    },
    {
      "place_id": "ChIJ7cMtcHd_hDkRWso09Cxr3DI",
      "name": "IndianOil",
      "lat": 24.5743984,
      "lng": 80.8229054,
      "address": "Ground Floor, Collectorate Road, Satna",
      "open_now": true
    },
    {
      "place_id": "ChIJl1rJnXh_hDkR8fZlJtFTtcc",
      "name": "IndianOil",
      "lat": 24.575938,
      "lng": 80.81741199999999,
      "address": "Ground Floor Panna Naka, NH 75, Panna Khajuraho Road, Badkhar, Satna",
      "open_now": true
    },
    {
      "place_id": "ChIJwYnhIJh_hDkRuPUZ9cveA84",
      "name": "Hindustan Petroleum Corporation Limited",
      "lat": 24.578705,
      "lng": 80.830353,
      "address": "Ground Floor, Station Road, Mukhtiyarganj, Satna",
      "open_now": true
    },
    {
      "place_id": "ChIJg2EDWnd_hDkRJA_3av_91IU",
      "name": "HP Biodiesel",
      "lat": 24.5712035,
      "lng": 80.8215366,
      "address": "HRCC+FJM, Rajendra Nagar Gali Number 10, Rajendra Nagar, Satna",
      "open_now": false
    },
    {
      "place_id": "ChIJvReGboB_hDkR3gF4hp1HeLM",
      "name": "IndianOil",
      "lat": 24.5760512,
      "lng": 80.8126315,
      "address": "Khasra No 622/2/1, Dhankher Kalan Raghurajnagar, Itama Nadi Teer",
      "open_now": true
    },
    {
      "place_id": "ChIJxxD3zjh_hDkRztkH0eUStJ0",
      "name": "IndianOil",
      "lat": 24.572484,
      "lng": 80.83022299999999,
      "address": "Khasra No 138, 6/1, Raghuraj Nagar, Nadi Teer, Itma",
      "open_now": true
    },
    {
      "place_id": "ChIJjQziXuR_hDkRHVTpsRiiaM0",
      "name": "Ashish kushwaha",
      "lat": 24.5894501,
      "lng": 80.8332516,
      "address": "Sharda Colony, Maruti Nagar, Satna",
      "open_now": null
    },
    {
      "place_id": "ChIJtbn90Wx_hDkRii4ePm-9z00",
      "name": "आर.डी. प्लास्टिक",
      "lat": 24.5615046,
      "lng": 80.83186909999999,
      "address": "India",
      "open_now": null
    },
    {
      "place_id": "ChIJdQBi9GKAgzkRV-ru8PsmCXg",
      "name": "Hindustan Petroleum Corporation Limited",
      "lat": 24.5765501,
      "lng": 80.7973901,
      "address": "Ground Floor, Panna Khajuraho Road, Amaudha Kalan, Satna",
      "open_now": true
    },
    {
      "place_id": "ChIJs1NVcIh_hDkRyjeTOF23UIM",
      "name": "Bharat PetroleumCNG & Petrol Pump , MARUTI FUELS",
      "lat": 24.556491,
      "lng": 80.8145821,
      "address": "M.P, Dhawari, Satna",
      "open_now": true
    },
    {
      "place_id": "ChIJ8-FOOgB_hDkRZjcaj-GcGK4",
      "name": "Nazeerabad petrol pump",
      "lat": 24.6005075,
      "lng": 80.8322428,
      "address": "JR2J+6V5, Satna",
      "open_now": null
    },
    {
      "place_id": "ChIJA-oAfAB_hDkRIEY2hrumIMw",
      "name": "Satna MP india",
      "lat": 24.6005075,
      "lng": 80.8322428,
      "address": "JR2J+6V5, Satna",
      "open_now": null
    },
    {
      "place_id": "ChIJq6qqqup_hDkRpJPc7gKqLdE",
      "name": "Kalyan CNG & Petrol Pump, Panna Road,Satna",
      "lat": 24.6005075,
      "lng": 80.8322428,
      "address": "in front of Abi Bakery Shop, Near Kalyan Petrol Pump Umri, in front of Abi Bakery Shop, Gali Number 2, Satna",
      "open_now": true
    },
    {
      "place_id": "ChIJ7_SbhLl4hDkRk5oMI0xh77U",
      "name": "MANGAL FUELS CNGPUMP PETROL AND DIESEL PUMP",
      "lat": 24.5553304,
      "lng": 80.8207351,
      "address": "4, Dhawari Gali Number 4, Dhawari, Satna",
      "open_now": null
    },
    {
      "place_id": "ChIJ-cBCok15hDkRNyr0n6nOHGU",
      "name": "SUJAL RETAIL SERVICE",
      "lat": 24.5038805,
      "lng": 80.824561,
      "address": "BUS STAND, Satna",
      "open_now": true
    },
    {
      "place_id": "ChIJfTJycgB5hDkRozjzBPjKElo",
      "name": "Bharat Petroleum BPCL",
      "lat": 24.515365,
      "lng": 80.82735679999999,
      "address": "GR8G+4WX, Bandhi Mohar",
      "open_now": null
    },
    {
      "place_id": "ChIJwybKK8KJgzkRVIRkB6R3q3s",
      "name": "IndianOil",
      "lat": 24.3834899,
      "lng": 80.7937146,
      "address": "Khasra No 162, 2/1 & 162/2/2, Unchehara",
      "open_now": true
    },
    {
      "place_id": "ChIJq356Nu-JgzkRxpBd0jA8RE0",
      "name": "Bharat Petroleum Petrol Pump , PARASMANIYA FILLING STATION",
      "lat": 24.3827265,
      "lng": 80.78589579999999,
      "address": "PARASMANIYASATNA SATNA, M.P",
      "open_now": true
    },
    {
      "place_id": "ChIJ0RFsR4GJgzkRTgrrb8VfXIk",
      "name": "IndianOil",
      "lat": 24.3829041,
      "lng": 80.7840703,
      "address": "Khasra No, 168/1/Ka/1/Ka/1, Unchahara, Bihata",
      "open_now": true
    },
    {
      "place_id": "ChIJufka4GWJgzkRpPVAKXaX4uk",
      "name": "IndianOil",
      "lat": 24.397296,
      "lng": 80.78010599999999,
      "address": "No 50, Palanpur, Bihata",
      "open_now": true
    },
    {
      "place_id": "ChIJwQW6MZaJgzkRRWQHSD2Lq0A",
      "name": "IndianOil",
      "lat": 24.3606952,
      "lng": 80.7802255,
      "address": "near RHS, Ground Floor SH 11, Unchehara, Badkhar, near RHS, Maihar Road, Satna",
      "open_now": true
    },
    {
      "place_id": "ChIJ_aCeOwCJgzkR1tqdykk47Ik",
      "name": "Tamrakar filling station Naugawa",
      "lat": 24.4137307,
      "lng": 80.8034627,
      "address": "CR73+F9W, Palhanpur",
      "open_now": true
    },
    {
      "place_id": "ChIJE82-6KKKgzkRB6lqmCzaAKs",
      "name": "Indian Oil",
      "lat": 24.2655716,
      "lng": 80.79996240000001,
      "address": "Indian Oil, near Tamas River, Lakhanpur",
      "open_now": true
    },
    {
      "place_id": "ChIJqdMS7byKgzkRx8b8G66nmxE",
      "name": "Reliance Petroleum",
      "lat": 24.2643945,
      "lng": 80.79710399999999,
      "address": "Ground Floor, Nh 7, Maihar - Rewa Road, Maihar",
      "open_now": true
    },
    {
      "place_id": "ChIJH5MMIhGLgzkRKUV3lTrWmOA",
      "name": "Bharat Petroleum, Petrol Pump -R.M.Excavation",
      "lat": 24.266332,
      "lng": 80.800905,
      "address": "RO NEAR KJS,MAIHAR, SATNA, SATNA",
      "open_now": true
    },
    {
      "place_id": "ChIJr3BEr5iLgzkRJ9OuQw-7sYo",
      "name": "Hindustan Petroleum Corporation Limited",
      "lat": 24.26031099999999,
      "lng": 80.784775,
      "address": "Ground Floor, Maihar, Tighra Kalan",
      "open_now": true
    },
    {
      "place_id": "ChIJ2Ug4U8SKgzkRINUnYqg_SUo",
      "name": "IndianOil",
      "lat": 24.2590836,
      "lng": 80.7802121,
      "address": "Khasra No 62, 3/1, Maihar, Katiya Kalan",
      "open_now": true
    },
    {
      "place_id": "ChIJLTBl8tOLgzkRP6f_1V38Qs0",
      "name": "Zamindar Filling Station",
      "lat": 24.26958219999999,
      "lng": 80.8085371,
      "address": "Rewa Road Village Lakhan Pur, Maihar - Rewa Road, Maihar",
      "open_now": null
    },
    {
      "place_id": "ChIJLddpYsv0gzkRRNkMnbps6Xc",
      "name": "IndianOil",
      "lat": 24.2461453,
      "lng": 80.7799982,
      "address": "Ground Floor, Harnampur - Maihar Road, Ichaul",
      "open_now": true
    },
    {
      "place_id": "ChIJl_KsWXyLgzkRmw4-NFH6CoE",
      "name": "Bharat Petroleum, Petrol Pump -United Trading Co.",
      "lat": 24.2600814,
      "lng": 80.7598355,
      "address": "Vijayraghavgarh - Maihar - Satna Road, Satna",
      "open_now": true
    },
    {
      "place_id": "ChIJVR9K2HOLgzkRnlGx6Y8ipNY",
      "name": "IndianOil",
      "lat": 24.259947,
      "lng": 80.75703399999999,
      "address": "Ground Floor, NH 7, Maihar Katni Road, Maihar",
      "open_now": true
    },
    {
      "place_id": "ChIJb6_HFeiLgzkRby_hmVeWD04",
      "name": "BPCL Fuel station",
      "lat": 24.296923,
      "lng": 80.76959529999999,
      "address": "7QW9+QR9, Vijayraghavgarh - Maihar - Satna Road, Bela Nadipur",
      "open_now": null
    },
    {
      "place_id": "ChIJKwby04fzgzkRsl9A4gLneMM",
      "name": "Bharat petroleum & cng",
      "lat": 24.1967451,
      "lng": 80.7162567,
      "address": "5PW8+MGR, Itama",
      "open_now": true
    },
    {
      "place_id": "ChIJXYM3NDLzgzkR5JkjDoJpQPE",
      "name": "IndianOil",
      "lat": 24.192832,
      "lng": 80.7116355,
      "address": "Gram post-itma, Itama",
      "open_now": true
    },
    {
      "place_id": "ChIJqyhnQ0TzgzkRKI3G-XJ43gA",
      "name": "Hindustan Petroleum Corporation Limited",
      "lat": 24.18635099999999,
      "lng": 80.701425,
      "address": "Kh No 880, Kanhwara",
      "open_now": true
    },
    {
      "place_id": "ChIJ_UvmL9mLgzkRhz6rCXQWHfc",
      "name": "Shree Gurukripa Filling Station",
      "lat": 24.1859858,
      "lng": 80.70130999999999,
      "address": "near Rccpl Plant, Maihar",
      "open_now": true
    },
    {
      "place_id": "ChIJrTpABU71gzkRTlCfnA-tzdE",
      "name": "Shardey Maa filling station BPCL PETROL PUMP",
      "lat": 24.2345559,
      "lng": 80.74567820000001,
      "address": "6PMW+R7F, Podi",
      "open_now": null
    },
    {
      "place_id": "ChIJhwrbs_jtgzkRouShDmDjEtg",
      "name": "IndianOil",
      "lat": 24.146992,
      "lng": 80.631802,
      "address": "Ground Floor Ghunwara Katni, NH 7, Rd, Badkhar Nagar, Ghunwara",
      "open_now": true
    },
    {
      "place_id": "ChIJi4a6xbPvgzkRKXmi7fK7O4A",
      "name": "Priya Filling Station (Essar Oil Petrolpump)",
      "lat": 24.129029,
      "lng": 80.60753419999999,
      "address": "4JH5+J27, Village – Raigawan, Taluka –Maihar, State",
      "open_now": true
    },
    {
      "place_id": "ChIJV4PXUnLugzkRCIIc5gZ_f6M",
      "name": "IndianOil",
      "lat": 24.130333,
      "lng": 80.6071201,
      "address": "Khasra No 487, 1/2 494/1/2, Ichaul, Maihar",
      "open_now": true
    },
    {
      "place_id": "ChIJ7yYLyqtZgTkRNpRg-wji-wc",
      "name": "IndianOil",
      "lat": 23.9764145,
      "lng": 80.4120685,
      "address": "Ground Floor, Pathra",
      "open_now": true
    },
    {
      "place_id": "ChIJSfs8s6vdgzkRXykRUqTBOpc",
      "name": "Jio Bp",
      "lat": 23.9829415,
      "lng": 80.41409929999999,
      "address": "India",
      "open_now": null
    },
    {
      "place_id": "ChIJf5MP-eTdgzkRv7EhxMkjbFk",
      "name": "Agrawal Fuels ( Nayara Energy Ltd. Petrol Pump)",
      "lat": 23.9480171,
      "lng": 80.4010469,
      "address": "Survey no 274/1 & 274/2 Before Jaiswal Dhaba (Badera mod )Bada kailwara, Bamanmar",
      "open_now": true
    },
    {
      "place_id": "ChIJ2fK0PY_dgzkRdsS-LFdwtH8",
      "name": "Nayara Energy Petrol Pump - Shri Marutinandan Filling Centre",
      "lat": 23.974368,
      "lng": 80.448115,
      "address": "XCFX+P6X, Punchhi",
      "open_now": true
    },
    {
      "place_id": "ChIJu72mIQDdgzkRnLnWhPqM-ZE",
      "name": "DEF FILLING CENTRE",
      "lat": 23.9393461,
      "lng": 80.40026399999999,
      "address": "WCQ2+P4J, Kailwara Kalan",
      "open_now": null
    },
    {
      "place_id": "ChIJgcxXKz_fgzkRA_rpzA8A7jk",
      "name": "Hindustan Petroleum Corporation Limited",
      "lat": 23.8686833,
      "lng": 80.3825833,
      "address": "Ground Floor, Infront of, Police Station, Mirzapur Road, Kuthla, Katni",
      "open_now": true
    },
    {
      "place_id": "ChIJwSPvvkTfgzkRzcAnzNEzSrI",
      "name": "Bharat Petroleum Pump",
      "lat": 23.8559087,
      "lng": 80.3812599,
      "address": "Tilriya, Katni",
      "open_now": true
    },
    {
      "place_id": "ChIJT-DiJl_fgzkRa51KaDpMPaQ",
      "name": "Hindustan Petroleum Corporation Limited",
      "lat": 23.8454689,
      "lng": 80.3834868,
      "address": "Ground Floor, Mirzapur Road, Nadipar, Katni",
      "open_now": true
    },
    {
      "place_id": "ChIJtz3dkVffgzkREKWOzrVqOm0",
      "name": "Hindustan Petroleum Corporation Limited",
      "lat": 23.88253779999999,
      "lng": 80.38827830000001,
      "address": "Ground Floor, Katni Nagar, Chaka, Katni",
      "open_now": true
    },
    {
      "place_id": "ChIJlYjqZDzfgzkRVCHd8sCGrIU",
      "name": "Gopal Filling Centre ESSAR",
      "lat": 23.8746293,
      "lng": 80.3833526,
      "address": "V9FM+V85, Kuthla, Katni",
      "open_now": true
    },
    {
      "place_id": "ChIJAetXzePegzkRU4WpmWzZ3is",
      "name": "IndianOil",
      "lat": 23.8934957,
      "lng": 80.3943626,
      "address": "Ground Floor, NH 7, Chaka, Badera",
      "open_now": true
    },
    {
      "place_id": "ChIJNQ2e_MnfgzkRO2nC96ES8HA",
      "name": "IndianOil",
      "lat": 23.86556,
      "lng": 80.382491,
      "address": "Khasra No 126/6, Pureni, Badera",
      "open_now": true
    },
    {
      "place_id": "ChIJbXYuoB7fgzkRFGU2kLOpaB8",
      "name": "Bharat Petroleum Petrol Pump , SHANKAR FUELS",
      "lat": 23.8678553,
      "lng": 80.3701641,
      "address": "VILLAGE-PAHARUAB.G.TILAK WARD KATNI, M.P",
      "open_now": true
    },
    {
      "place_id": "ChIJi-LZVqffgzkRmudkDWqJVs8",
      "name": "IndianOil",
      "lat": 23.8603823,
      "lng": 80.3815118,
      "address": "Ground Floor, Maihar Road Kuthla, Tilak Ward, Balgangadhar",
      "open_now": true
    },
    {
      "place_id": "ChIJO5E-E2HfgzkRHgJVF4dIinM",
      "name": "Hindustan Petroleum Corporation Limited",
      "lat": 23.880122,
      "lng": 80.41529100000001,
      "address": "Ground Floor, Ghatkhirwa",
      "open_now": true
    },
    {
      "place_id": "ChIJ1YfoGADfgzkR2h05MK24liM",
      "name": "PUC CENTRE",
      "lat": 23.8552483,
      "lng": 80.38185829999999,
      "address": "Indian Oil Petrol Pump, Pologround Industrial Estate, Malti Vanaspati, Indore",
      "open_now": null
    },
    {
      "place_id": "ChIJxcJNr0TfgzkRWRg06jD3J2A",
      "name": "IndianOil",
      "lat": 23.855115,
      "lng": 80.3819784,
      "address": "Ground Floor Ward No 2, Birsa Munda, near Panna Tiraha, Kuthla, Katni",
      "open_now": true
    },
    {
      "place_id": "ChIJOwBZJtXfgzkR4Djrh9nnXdY",
      "name": "Shubh Online",
      "lat": 23.85791459999999,
      "lng": 80.3998459,
      "address": "Mohan Talkies Road, beside Happy Home, Talkies Road, Katni",
      "open_now": null
    },
    {
      "place_id": "ChIJxxL-aujZgzkR3H556vdvFNg",
      "name": "SHUBH BIO FUELS",
      "lat": 23.8783356,
      "lng": 80.3451067,
      "address": "V8HW+82Q, Madhya Pradesh State Highway 14, Majhgawan",
      "open_now": true
    },
    {
      "place_id": "ChIJiSUX4DDZgzkR_u-aI6v2MIM",
      "name": "Hindustan Petroleum Corporation Limited",
      "lat": 23.90691210000001,
      "lng": 80.3491669,
      "address": "No 240, 2 Ghangaria, Chanehati",
      "open_now": true
    },
    {
      "place_id": "ChIJgzPTwTnZgzkRAZlVdvT78J0",
      "name": "Paras filling station",
      "lat": 23.90691210000001,
      "lng": 80.3491669,
      "address": "W84X+QM, Khadaula",
      "open_now": true
    },
    {
      "place_id": "ChIJs_GQLpDegzkRfNPOBRkCSpo",
      "name": "IndianOil",
      "lat": 23.9234677,
      "lng": 80.3985718,
      "address": "near Ksk, Ground Floor Maihar Road, near Ksk, Bypass, Chaka, Badera",
      "open_now": true
    },
    {
      "place_id": "ChIJ_d9wLpDegzkRC2QEu3e1MEc",
      "name": "Willian Oil",
      "lat": 23.9238779,
      "lng": 80.39866459999999,
      "address": "India",
      "open_now": null
    },
    {
      "place_id": "ChIJ-5bhjBvfgzkR8acfY9ZcuQ4",
      "name": "IndianOil - SWAGAT",
      "lat": 23.9251,
      "lng": 80.398,
      "address": "Nh 30/358/100, Rhs, Madanpur",
      "open_now": true
    },
    {
      "place_id": "ChIJTRrRpIXfgzkRS7OfvAj-CPc",
      "name": "Wayside Restaurant Katni",
      "lat": 23.9251875,
      "lng": 80.3980625,
      "address": "NH 30 ( Old NH 7, Maihar Road, Katni",
      "open_now": true
    },
    {
      "place_id": "ChIJOSTCF8NlgTkRWxvZfSR1Yu4",
      "name": "KC Sales And Services JIO BP PETROL PUMP",
      "lat": 23.71994429999999,
      "lng": 80.3253385,
      "address": "NH-30, Pipraundh",
      "open_now": true
    },
    {
      "place_id": "ChIJn-GUE5hlgTkR5OKVMqt4lhY",
      "name": "Bharat Petroleum, Sagodi",
      "lat": 23.7038519,
      "lng": 80.3119123,
      "address": "P836+5V9, Sagodi",
      "open_now": null
    },
    {
      "place_id": "ChIJlcWtdftkgTkRrXDg3SxPsXc",
      "name": "GATTANI FILLING CENTRE BHARAT PETROLEUM LAKHAPATERI",
      "lat": 23.7037221,
      "lng": 80.3117323,
      "address": "Lakhapateri National Highway 07 Jabalpur Road, Katni",
      "open_now": true
    },
    {
      "place_id": "ChIJ0TuRHOplgTkRbwByay-MYdo",
      "name": "IndianOil",
      "lat": 23.7267898,
      "lng": 80.32450150000001,
      "address": "National Highway 30, Piprod",
      "open_now": true
    },
    {
      "place_id": "ChIJDSYprXlkgTkRs-9O_3QLOfY",
      "name": "Krishna Motors ESSAR",
      "lat": 23.7421674,
      "lng": 80.3302073,
      "address": "National Highway 7, Matwari",
      "open_now": true
    },
    {
      "place_id": "ChIJXxl8heVlgTkRZFyMCCg80OM",
      "name": "Hindustan Petroleum Corporation Limited",
      "lat": 23.6875869,
      "lng": 80.2980232,
      "address": "Ground Floor, Bahoriband, Naigawan",
      "open_now": true
    },
    {
      "place_id": "ChIJi9J-cTxlgTkRRFoqCabVxZ8",
      "name": "BPCL SR Tulsiram Teori Old Petrol Pump",
      "lat": 23.6799426,
      "lng": 80.2939613,
      "address": "M7HV+XHG, National Highway 7, Teori",
      "open_now": null
    },
    {
      "place_id": "ChIJZwgd1jtlgTkRQarszggIu7U",
      "name": "Hindustan Petroleum Corporation Limited",
      "lat": 23.6778525,
      "lng": 80.29120739999999,
      "address": "Ground Floor, Katni Road, Jabalpur",
      "open_now": true
    },
    {
      "place_id": "ChIJFUMbTwBxgTkRcGc3kL6J5Uk",
      "name": "Hindustan Petroleum Corporation Limited",
      "lat": 23.637168,
      "lng": 80.24265199999999,
      "address": "Khasra No 334/1 Katni, Sleemanabad",
      "open_now": true
    },
    {
      "place_id": "ChIJwwilCgBxgTkR9K2ilsFcr44",
      "name": "M/S Sanskar Fuels - Hindustan Petroleums",
      "lat": 23.6357117,
      "lng": 80.2421937,
      "address": "J6PR+7VP, Sleemanabad Road, Sleemanabad",
      "open_now": true
    },
    {
      "place_id": "ChIJ6WC2om5wgTkRB_9zvUdFcD0",
      "name": "IndianOil",
      "lat": 23.6296783,
      "lng": 80.2482021,
      "address": "Ground Floor, NH 7, Katni Jabalpur Road, Sleemanabad",
      "open_now": true
    },
    {
      "place_id": "ChIJs1Dfap9xgTkR82TyMFne4RI",
      "name": "Reliance Petroleum",
      "lat": 23.6220698,
      "lng": 80.2419875,
      "address": "OPP. BAHUBALI MARBLES,KHASRA NO. 47/P & 48/P TEHSIL BAHORIBAND & SAKEEMNABAD Saleemnabaad",
      "open_now": true
    },
    {
      "place_id": "ChIJ02HUdV1wgTkRgu9Yy9alCtE",
      "name": "Bharat Petroleum",
      "lat": 23.6205894,
      "lng": 80.2406591,
      "address": "India",
      "open_now": null
    },
    {
      "place_id": "ChIJDcW97dxxgTkRpgsmTXd0ET0",
      "name": "Shree Hanuman Petroleum",
      "lat": 23.6205241,
      "lng": 80.2408001,
      "address": "On NH7 (New NH 30) sleemanabad road Sleemanabad. Jabalpur se 70 kms door katni rewa road me katni se 25 km pehle, Sleemanabad",
      "open_now": true
    },
    {
      "place_id": "ChIJtZQGerp2gTkRmF_CPD06Rpk",
      "name": "Dhangawan Petrol Pump",
      "lat": 23.5623841,
      "lng": 80.1759696,
      "address": "H56G+X95, National Highway 44, Amoch",
      "open_now": null
    },
    {
      "place_id": "ChIJOy-PCPyfgTkRasAn4TNeATY",
      "name": "Bharat petroleum- CNG B.P. Sihora",
      "lat": 23.454163,
      "lng": 80.09311,
      "address": "F33V+M69, Road, Jabalpur",
      "open_now": true
    },
    {
      "place_id": "ChIJM5kwzmmggTkR1vw8n6u3Bjc",
      "name": "IndianOil",
      "lat": 23.4147649,
      "lng": 80.076309,
      "address": "Ground Floor Jbl Sihora Road, Gosalpur, NH 7, Khinni",
      "open_now": true
    },
    {
      "place_id": "ChIJcU8I09qhgTkR0NCCFQx-VWQ",
      "name": "Tirupati Filling Station",
      "lat": 23.3979323,
      "lng": 80.0658337,
      "address": "NH-30, Bypass Road, Jabalpur",
      "open_now": true
    },
    {
      "place_id": "ChIJlfwYMzihgTkRP8IczUDAec4",
      "name": "Bharat Petroleum, Petrol Pump -Roomi Filling Station",
      "lat": 23.3969018,
      "lng": 80.0601143,
      "address": "Gosalpur",
      "open_now": true
    },
    {
      "place_id": "ChIJGwv8MQChgTkRS_PDp47Ihx4",
      "name": "Udbhav Filling station",
      "lat": 23.401708,
      "lng": 80.047545,
      "address": "C22W+MVH, Richhi Khurd",
      "open_now": null
    },
    {
      "place_id": "ChIJX6U7YamhgTkRq6Z-4lp1klU",
      "name": "IndianOil",
      "lat": 23.4015899,
      "lng": 80.047612,
      "address": "India",
      "open_now": null
    },
    {
      "place_id": "ChIJ7TzZSUingTkRoAragv3FC3I",
      "name": "Hindustan Petroleum Corporation Limited",
      "lat": 23.3278732,
      "lng": 80.0147528,
      "address": "Ground Floor, Kushner, Panagar",
      "open_now": true
    },
    {
      "place_id": "ChIJue71-HGlgTkRUmXxYcGJjK0",
      "name": "Yunish Petrol Pump",
      "lat": 23.3478146,
      "lng": 80.0087738,
      "address": "Gandhigram",
      "open_now": null
    },
    {
      "place_id": "ChIJFTaG3c6hgTkROZQwUdviT9Q",
      "name": "SHREE SHUBH FUEL STATION",
      "lat": 23.3533284,
      "lng": 80.02649819999999,
      "address": "NH-30, Tehsil, Gandhigram",
      "open_now": true
    },
    {
      "place_id": "ChIJER9REBulgTkRFnSyLixvjjg",
      "name": "Hindustan Petroleum Corporation Limited",
      "lat": 23.3010679,
      "lng": 79.98867899999999,
      "address": "Khasra No 61, NH 30, Jabalpur Nagpur Highway, Barjhai, Jabalpur",
      "open_now": true
    },
    {
      "place_id": "ChIJV4gmOROlgTkRekUd_mqijH0",
      "name": "Petrol Pump",
      "lat": 23.2917881,
      "lng": 79.99589879999999,
      "address": "7XRW+P96, Panagar",
      "open_now": null
    },
    {
      "place_id": "ChIJtURRLAClgTkRmalGb7SkV70",
      "name": "Ssd petroleum",
      "lat": 23.2910303,
      "lng": 79.996282,
      "address": "7XRW+CG7, Panagar",
      "open_now": null
    },
    {
      "place_id": "ChIJ0S0dW8WlgTkROPGrPyVUSmI",
      "name": "H. S. VYAS PETROLEUM",
      "lat": 23.296624,
      "lng": 79.9833149,
      "address": "7XWM+J8W, Panagar",
      "open_now": true
    },
    {
      "place_id": "ChIJ47at5M6lgTkRX7FCYjexW3M",
      "name": "Hindustan Petroleum Corporation Limited",
      "lat": 23.2959199,
      "lng": 79.98102670000002,
      "address": "Ground Floor, NH 30, Deorikalan, Panagar",
      "open_now": true
    },
    {
      "place_id": "ChIJ8yUquT6hgTkRKxttJ9v7tJc",
      "name": "Nayara Energy Petrol Pump - Indus Petroleum",
      "lat": 23.3682787,
      "lng": 80.0355113,
      "address": "Gosalpur",
      "open_now": true
    },
    {
      "place_id": "ChIJeRy_l8-vgTkRvYeAef_fqjM",
      "name": "IndianOil",
      "lat": 23.21201899999999,
      "lng": 79.93249449999999,
      "address": "Ground Floor, Amkhera Road, Adhartal, Jabalpur",
      "open_now": true
    },
    {
      "place_id": "ChIJK-aED6GvgTkRLyk3mGYsUdo",
      "name": "IndianOil",
      "lat": 23.2086719,
      "lng": 79.95340929999999,
      "address": "near Agriculture College Road, Suhagi",
      "open_now": true
    },
    {
      "place_id": "ChIJ3YjBbs05DjkRwK9oRbLsuqU",
      "name": "IndianOil",
      "lat": 23.2404302,
      "lng": 79.9549826,
      "address": "Ground Floor, NH 7, Jbl Katni Bypass, Adhartal, Hathna",
      "open_now": true
    },
    {
      "place_id": "ChIJGTudFjCvgTkRJSKaEhfq6rI",
      "name": "Indu Petroleum",
      "lat": 23.2363978,
      "lng": 79.95955719999999,
      "address": "Housing Board Housing Board, Jabalpur",
      "open_now": null
    },
    {
      "place_id": "ChIJ72_DCNevgTkRyxK_l4oD2fU",
      "name": "Muthye Petroleum",
      "lat": 23.2364573,
      "lng": 79.9627672,
      "address": "Housing Board, Maharajpur, Jabalpur",
      "open_now": null
    },
    {
      "place_id": "ChIJY2GhknevgTkRw5_8hn-dB8g",
      "name": "IndianOil",
      "lat": 23.238171,
      "lng": 79.96527999999999,
      "address": "Ground Floor, Transport Nagar, Adhartal, Maharajpur, Jabalpur",
      "open_now": true
    },
    {
      "place_id": "ChIJIfT_4HmvgTkRyEMQr8cKstc",
      "name": "Bharat Petrolium Petrol Pump CNG Pump",
      "lat": 23.239378,
      "lng": 79.9687127,
      "address": "Jabalpur, NH-7, Kanti Road, Jabalpur, Jabalpur",
      "open_now": true
    },
    {
      "place_id": "ChIJewLG9ayvgTkRxNOX9NG2d3w",
      "name": "Hindustan Petroleum Corporation Limited",
      "lat": 23.2423253,
      "lng": 79.97110359999999,
      "address": "Khasra No 56, Katni Road, Karonda Nala, Pipariya",
      "open_now": true
    },
    {
      "place_id": "ChIJ6zPqRD2vgTkRRIHtTTHgAXg",
      "name": "Bharat Petroleum, Petrol Pump -Sunderdas Gianchand",
      "lat": 23.2322488,
      "lng": 79.9651657,
      "address": "MAHARAJPUR,JABALPUR, Jabalpur",
      "open_now": true
    },
    {
      "place_id": "ChIJ3-eDX3yvgTkRSyery8i62sg",
      "name": "IndianOil",
      "lat": 23.2470796,
      "lng": 79.9722024,
      "address": "Ground Floor, NH 7, Jbl Sihora Road, Adhartal, Imaliya",
      "open_now": true
    },
    {
      "place_id": "ChIJY5cMEWqvgTkRJmyVr4ubNSY",
      "name": "Hindustan Petroleum Corporation Limited",
      "lat": 23.2445009,
      "lng": 79.92611649999999,
      "address": "Ground Floor, Panagar, Khajri",
      "open_now": true
    },
    {
      "place_id": "ChIJMXsUHiuvgTkRuWmWtHx-7x0",
      "name": "Bharat Petroleum, Petrol Pump -Balaji Highway Fuels",
      "lat": 23.2247378,
      "lng": 79.9607893,
      "address": "SIMARIA,JABALPUR, Jabalpur",
      "open_now": true
    },
    {
      "place_id": "ChIJJ4GukMDXeDkR3CBhxShH9c8",
      "name": "IndianOil",
      "lat": 23.2571615,
      "lng": 79.97431610000001,
      "address": "NH 7, Katni Road, Pariyat, Jabalpur",
      "open_now": true
    },
    {
      "place_id": "ChIJP3ikkuSvgTkR-O8P0xDSuVY",
      "name": "SAIF FUEL",
      "lat": 23.2343263,
      "lng": 79.92620079999999,
      "address": "India",
      "open_now": null
    },
    {
      "place_id": "ChIJjSTk7dSlgTkRRZyjS2ah85U",
      "name": "Rajendra Singh Petroleum Bharat Petroleum",
      "lat": 23.2692919,
      "lng": 79.9632407,
      "address": "7X97+P79, Unnamed Road",
      "open_now": true
    },
    {
      "place_id": "ChIJH-rR9JGlgTkReBjp9w96Lck",
      "name": "IndianOil",
      "lat": 23.264998,
      "lng": 79.98065799999999,
      "address": "Ground Floor Jabalpur Sihora Road, Near Panagar, NH 7, Agasod",
      "open_now": true
    },
    {
      "place_id": "ChIJoYVLEYmvgTkRU5l0Mph7Fx0",
      "name": "Hindustan Petroleum Corporation Limited",
      "lat": 23.2059749,
      "lng": 79.95244029999999,
      "address": "PH No 01, KH No 156/5/1, 156/3KHA, 156/3/GA, Adhartal, Jabalpur",
      "open_now": true
    },
    {
      "place_id": "ChIJD8HbfbKvgTkRImanvDcrEMk",
      "name": "Om Petroleum",
      "lat": 23.2058857,
      "lng": 79.9525357,
      "address": "Adhartal, Jabalpur",
      "open_now": true
    },
    {
      "place_id": "ChIJ4SISmnmlgTkRiMIsdnAyM-w",
      "name": "IndianOil",
      "lat": 23.282815,
      "lng": 79.92045829999999,
      "address": "Ground Floor, Chauraha, Baroda",
      "open_now": true
    },
    {
      "place_id": "ChIJ9aetoQKygTkRA3TAISbHOAc",
      "name": "Anil Transport Company",
      "lat": 23.155177,
      "lng": 79.847076,
      "address": "National Highway 12, Jabalpur",
      "open_now": true
    },
    {
      "place_id": "ChIJ0c5fU1mxgTkRMBGvw28Sz94",
      "name": "Anil Motorsolution Pvt Ltd, Ashok Leyland",
      "lat": 23.1545933,
      "lng": 79.8464846,
      "address": "Bhedaghat, Tewar",
      "open_now": true
    },
    {
      "place_id": "ChIJf5U7CkCxgTkRHRIaMl8rOJU",
      "name": "Bharat Petroleum, Petrol Pump -Tiwari Petroleum",
      "lat": 23.190399,
      "lng": 79.86985430000001,
      "address": "SIHODA, JABALPUR, Jabalpur",
      "open_now": true
    },
    {
      "place_id": "ChIJN6zaunrPgzkRh6QeE-LS-1I",
      "name": "IndianOil",
      "lat": 23.1960764,
      "lng": 79.8737958,
      "address": "Ground Floor Raigwan, Panagar",
      "open_now": true
    },
    {
      "place_id": "ChIJ4azVa3CxgTkR9QNSMHQUPAo",
      "name": "Hindustan Petroleum Corporation Limited",
      "lat": 23.16315580000001,
      "lng": 79.8650256,
      "address": "Ground Floor, NH 7, Bypass Road, Kugawan",
      "open_now": true
    },
    {
      "place_id": "ChIJn8Ad7N2xgTkRFklO8mdMq8w",
      "name": "Hindustan Petroleum Corporation Limited",
      "lat": 23.2018189,
      "lng": 79.8858297,
      "address": "Ground Floor Raigwan, near Patan Bypass, Jabalpur",
      "open_now": true
    },
    {
      "place_id": "ChIJ5dr6GISxgTkRQ3n1Wgl4ixM",
      "name": "K.G.N.welding Wark",
      "lat": 23.2103514,
      "lng": 79.8651083,
      "address": "Sukha",
      "open_now": null
    },
    {
      "place_id": "ChIJdePF33mxgTkRggabFx1XNzU",
      "name": "Bharat Petroleum, Petrol Pump -Bhanu Petroleum Company",
      "lat": 23.2001087,
      "lng": 79.8907126,
      "address": "PATAN ROAD, KARMETA,JABALP, Karmeta, Jabalpur",
      "open_now": true
    },
    {
      "place_id": "ChIJRTshymCxgTkRWx0nJTtwI5A",
      "name": "Reliance - Jio BP Petrol pump",
      "lat": 23.1545221,
      "lng": 79.8536257,
      "address": "India",
      "open_now": true
    },
    {
      "place_id": "ChIJOdXVEwCxgTkRU6w7uRBLWmU",
      "name": "Puc Fastag available",
      "lat": 23.1654602,
      "lng": 79.89595469999999,
      "address": "5V8W+59P, Janki Nagar, Jabalpur",
      "open_now": null
    },
    {
      "place_id": "ChIJP-ifOwCxgTkR8OLmURmH4Bo",
      "name": "Anil Transport Co - Petrol/DieselCNG Pump",
      "lat": 23.15490299999999,
      "lng": 79.84695099999999,
      "address": "5R4W+3JP, Tewar",
      "open_now": true
    },
    {
      "place_id": "ChIJFU_myIGxgTkRiyf2Vufribs",
      "name": "Bharat Petroleum, Petrol Pump -Anil Transport Company",
      "lat": 23.155913,
      "lng": 79.8434054,
      "address": "Tripursundari, Tirpur Sundri Temple Road, Jabalpur",
      "open_now": true
    },
    {
      "place_id": "ChIJhWap9OqzgTkRT8eqveDI6E4",
      "name": "Reliance Petroleum",
      "lat": 23.151122,
      "lng": 79.884181,
      "address": "Ground Floor, Narsinghpur",
      "open_now": true
    },
    {
      "place_id": "ChIJhcpweySxgTkRLUEtyNfPaxw",
      "name": "Hindustan Petroleum Corporation Limited",
      "lat": 23.1824934,
      "lng": 79.9048801,
      "address": "Ground Floor, Vijay Nagar, Jabalpur",
      "open_now": true
    },
    {
      "place_id": "ChIJK_cfD8WxgTkRR2n48hu_5Bw",
      "name": "Sanskardhaani gas agency",
      "lat": 23.1892369,
      "lng": 79.9068065,
      "address": "5WQ4+MPV, Vijay Nagar Road, Kanchan Vihar, Vijay Nagar, Jabalpur",
      "open_now": null
    },
    {
      "place_id": "ChIJRRD7-9yxgTkRQOs-enSh10A",
      "name": "Hindustan Petroleum Corporation Limited",
      "lat": 23.180592,
      "lng": 79.91038499999999,
      "address": "154/64, KH No 154/63, MR-4 Road, Rameshwaram, Laxmipur, Jabalpur",
      "open_now": true
    },
    {
      "place_id": "ChIJa1XuOACxgTkRuL3StajIla4",
      "name": "PUC Fastag available",
      "lat": 23.180528,
      "lng": 79.910415,
      "address": "489, MR-4 Rd, Ahinsa Chowk, Vijay Nagar, Jabalpur",
      "open_now": null
    },
    {
      "place_id": "ChIJLf7EEP-xgTkRKGKFRbs8ISI",
      "name": "IndianOil",
      "lat": 23.1796193,
      "lng": 79.91064820000001,
      "address": "Ground Floor, MR-4 Road, Vijay Nagar, Agasod",
      "open_now": true
    },
    {
      "place_id": "ChIJ0wCKRACxgTkRHOBmmTDRZEQ",
      "name": "Plot",
      "lat": 23.2009224,
      "lng": 79.90628339999999,
      "address": "6W24+9G7, Shri Ram College Road, Dixit Colony, Rajeev Gandhi Nagar, Karmeta, Jabalpur",
      "open_now": null
    },
    {
      "place_id": "ChIJjZLqyiuxgTkRJ8-3ed8--SU",
      "name": "Bharat Petroleum, Petrol Pump -Agrawal Bandhu Petroleum",
      "lat": 23.2061191,
      "lng": 79.9036699,
      "address": "KARMETA ,KATANGI ROAD, JAB, Jabalpur",
      "open_now": true
    },
    {
      "place_id": "ChIJW-0EYo6ygTkRIIDvTxFF6tE",
      "name": "Reliance Petroleum",
      "lat": 23.0966279,
      "lng": 79.9034585,
      "address": "Ground Floor, Nh 7, Jabalpur - Nagpur Road, Tilwara",
      "open_now": true
    },
    {
      "place_id": "ChIJKz78llWygTkRqMEPkGJbAN4",
      "name": "Hindustan Petroleum Corporation Limited",
      "lat": 23.1051112,
      "lng": 79.8781549,
      "address": "Ground Floor, NH 7, Seoni Road, Jabalpur",
      "open_now": true
    },
    {
      "place_id": "ChIJORYHRkazgTkRFifpv5lhQEk",
      "name": "Bharat Petroleum, Petrol Pump -G.P Petroleum",
      "lat": 23.0735892,
      "lng": 79.9138889,
      "address": "NH-7 JABALPUR, MANEGAON, J, Jabalpur",
      "open_now": true
    },
    {
      "place_id": "ChIJH6WZ36WygTkRFh6N4UFAo54",
      "name": "IndianOil",
      "lat": 23.0723867,
      "lng": 79.91344,
      "address": "Ground Floor Manegaon, NH 7, Bargi",
      "open_now": true
    },
    {
      "place_id": "ChIJURwwio6ygTkRzPUiDXH6quo",
      "name": "Jio Bp",
      "lat": 23.0967839,
      "lng": 79.90357209999999,
      "address": "India",
      "open_now": null
    },
    {
      "place_id": "ChIJkx5PevSygTkRDkbH66XZEQg",
      "name": "Hindustan Petroleum Corporation Limited",
      "lat": 23.099431,
      "lng": 79.8935223,
      "address": "Ground Floor, NH 7, Ghana",
      "open_now": true
    },
    {
      "place_id": "ChIJ9TOJkPmzgTkR7BJA__ZlmZo",
      "name": "Proposed Reliance Petroleum (Sheghal)",
      "lat": 23.0588138,
      "lng": 79.9099766,
      "address": "3W55+GXH, National Highway 34, Khursi",
      "open_now": null
    },
    {
      "place_id": "ChIJgR1iWL6tgTkRTUAmZFlaIyo",
      "name": "Medical",
      "lat": 23.0990341,
      "lng": 79.9407476,
      "address": "245, Unao Road, Datia",
      "open_now": null
    },
    {
      "place_id": "ChIJY3q29NVOgDkRJCB04wfVmkA",
      "name": "IndianOil",
      "lat": 22.912817,
      "lng": 79.834068,
      "address": "Ground Floor, Sukri, NH 7, Ganjipura, Jabalpur",
      "open_now": true
    },
    {
      "place_id": "ChIJ2bmBZohHgDkRBA3hVT2GYeM",
      "name": "IndianOil",
      "lat": 22.8160705,
      "lng": 79.7545181,
      "address": "near Harbal gardan, Khasra No 60/4/2 Banjari, NH 24, near Harbal gardan, Lakhnadone, Seoni",
      "open_now": true
    },
    {
      "place_id": "ChIJkUhkTHpHgDkRrvOeui1KtLI",
      "name": "Bharat Petroleum",
      "lat": 22.8049836,
      "lng": 79.74860509999999,
      "address": "India",
      "open_now": null
    },
    {
      "place_id": "ChIJR-EGS0k-gDkRbCGyEygFXuQ",
      "name": "IndianOil",
      "lat": 22.6968001,
      "lng": 79.68780009999999,
      "address": "Ground Floor, Makarjhir, Lakhnadon,Baigapiparia, Makarjhir",
      "open_now": true
    },
    {
      "place_id": "ChIJ_dtFMBI_gDkRlep7EhggJOk",
      "name": "Sai Petroleum",
      "lat": 22.7302545,
      "lng": 79.71273579999999,
      "address": "National Highway 44, Mohgaon",
      "open_now": true
    },
    {
      "place_id": "ChIJVQyWmnE_gDkRrgoAed7cx8o",
      "name": "Hindustan Petroleum Corporation Limited",
      "lat": 22.730236,
      "lng": 79.71301009999999,
      "address": "Ground Floor, near Sai Industry, NH 7, Main Road, Lakhnadon, Mohgaon",
      "open_now": true
    },
    {
      "place_id": "ChIJvzpZK2cXgDkR17AQ75YcEcE",
      "name": "IndianOil",
      "lat": 22.62706,
      "lng": 79.64005,
      "address": "Ground Floor, Sajpani Lakhnadon, Seoni, Jabalpur - Nagpur Road, Bamhanwada",
      "open_now": true
    },
    {
      "place_id": "ChIJ1aq_s-wWgDkRNEwWDDGxF8U",
      "name": "IndianOil",
      "lat": 22.5998001,
      "lng": 79.6273001,
      "address": "Ground Floor Khursipar, Bamhanwada",
      "open_now": true
    },
    {
      "place_id": "ChIJv80MfeQWgDkRCmCCG6Q3p7c",
      "name": "Sohaney Brothers Petrol Pump, lakhnadon",
      "lat": 22.60060769999999,
      "lng": 79.6114612,
      "address": "JJ26+78J, National Highway 7, Lakhnadon",
      "open_now": true
    },
    {
      "place_id": "ChIJ4bdmMYgXgDkRdFUpr6pYjFo",
      "name": "Hindustan Petroleum Corporation Limited",
      "lat": 22.60478269999999,
      "lng": 79.6069244,
      "address": "Ground Floor, Lakhnadon",
      "open_now": true
    },
    {
      "place_id": "ChIJVaKWO44VgDkR7w29d_jaMD8",
      "name": "Hindustan Petroleum Corporation Limited",
      "lat": 22.599721,
      "lng": 79.653095,
      "address": "Khasra No 197/3, Mandla, Lakhnadon, Sarasdol",
      "open_now": true
    },
    {
      "place_id": "ChIJ_ZrnXtEXgDkRdi4-opT5tU8",
      "name": "Jai Jinendra City Fuels LIMITED",
      "lat": 22.5997326,
      "lng": 79.60593949999999,
      "address": "JJ24+9VC, Lakhnadon",
      "open_now": true
    },
    {
      "place_id": "ChIJ0f3gF3gXgDkRyLf0HIBW8YY",
      "name": "IndianOil",
      "lat": 22.60297500000001,
      "lng": 79.596122,
      "address": "Seoni, Kh No 442 Lakhanadone,Bamhanwada",
      "open_now": true
    },
    {
      "place_id": "ChIJJWH2ZgAVgDkRFs6rwl7diPM",
      "name": "Hindustan Petroleum Corporation Limited",
      "lat": 22.653312,
      "lng": 79.664237,
      "address": "Seoni, Ground Floor, Jabalpur lakhnadon Highway Lakhnadon, Pondi Raiyat",
      "open_now": true
    },
    {
      "place_id": "ChIJa70EfpIRgDkR255zcVgHfho",
      "name": "Hindustan Petroleum Corporation Limited",
      "lat": 22.501897,
      "lng": 79.5793679,
      "address": "Ground Floor, Lakhnadon, Ganeshganj",
      "open_now": true
    },
    {
      "place_id": "ChIJhdWzR8wHgDkRI10DoeHec-g",
      "name": "Hindustan Petroleum Corporation Limited",
      "lat": 22.3240834,
      "lng": 79.5455514,
      "address": "Ground Floor, Randhir Nagar, Suwakheda, Chhapara, Sadak Seoni",
      "open_now": true
    },
    {
      "place_id": "ChIJ9VkiHlYFgDkRbqm8EkINXcw",
      "name": "R D FUEL STATION",
      "lat": 22.3628061,
      "lng": 79.53861309999999,
      "address": "NH 44, Chhapara",
      "open_now": true
    },
    {
      "place_id": "ChIJj5iefwAHgDkR88jkntqG99E",
      "name": "Haryana rajasthan mewat khusbo dhaba",
      "lat": 22.3015843,
      "lng": 79.54679010000001,
      "address": "8G2W+JPW, Gorakhpurkalan",
      "open_now": null
    },
    {
      "place_id": "ChIJD0ZwIgoIgDkRRDVCZNVLFbY",
      "name": "HP Petrol Pump Paras Petroleum",
      "lat": 22.2996632,
      "lng": 79.5478767,
      "address": "Sua Kheda, Tehsil Chhapara Dist Shivni Randheer Nagar",
      "open_now": true
    },
    {
      "place_id": "ChIJAzOve_AHgDkRFbTcm55meA0",
      "name": "IndianOil",
      "lat": 22.2907115,
      "lng": 79.54801599999999,
      "address": "Ground Floor, Laknadon Seoni Road NH 7, Bandol, Gorakhpur",
      "open_now": true
    },
    {
      "place_id": "ChIJzXFqNm2vKjoRHqNWakgdN9g",
      "name": "Bharat Petroleum",
      "lat": 22.1529,
      "lng": 79.53829999999999,
      "address": "5G3Q+587, Nagjhan, National Highway 44, Seoni",
      "open_now": true
    },
    {
      "place_id": "ChIJqVOZ4T6vKjoRBvmAqB2MBDw",
      "name": "BPCL-Rajesh pal singh-CNG/Petrol/Diesel",
      "lat": 22.1669472,
      "lng": 79.5352016,
      "address": "Sonadongri, National Highway 44, Seoni",
      "open_now": true
    },
    {
      "place_id": "ChIJe75SATOvKjoRvWwGkf4yIM4",
      "name": "Reliance Jio BP Petrol Pump Maloo Petroleum",
      "lat": 22.1514375,
      "lng": 79.5359375,
      "address": "44, National Highway, Nagjhar",
      "open_now": true
    },
    {
      "place_id": "ChIJEU4wToyvKjoRWwrpJ22cS48",
      "name": "IndianOil",
      "lat": 22.1745118,
      "lng": 79.5345421,
      "address": "Ground Floor, Seoni Nagpur, New Bypass, Nagjhar",
      "open_now": true
    },
    {
      "place_id": "ChIJXTL4rhmvKjoRgpIhMK9Wvyw",
      "name": "Hindustan Petroleum Corporation Limited",
      "lat": 22.1233934,
      "lng": 79.54207629999999,
      "address": "Ground Floor, near Maa Durga Dharam Kanta, Jabalpur Road, Seoni",
      "open_now": true
    },
    {
      "place_id": "ChIJ6Z_8hnOvKjoRhqC-lM9t7yg",
      "name": "MAHAVEER PETROLEUM IOCL",
      "lat": 22.1859309,
      "lng": 79.5346661,
      "address": "In front of JCB Showroom jabalpur road, near sonadongri, NH 44, old nh-7, Seoni",
      "open_now": true
    },
    {
      "place_id": "ChIJwT-vK8OvKjoR5Oh2ywi7Wdw",
      "name": "L.N.DIESELS Petrol Pump",
      "lat": 22.1140634,
      "lng": 79.54278149999999,
      "address": "Lugharwara",
      "open_now": true
    },
    {
      "place_id": "ChIJ8SeOfeuvKjoRPP6z-2vx6_Y",
      "name": "Lugharwara Petrol Pump",
      "lat": 22.111864,
      "lng": 79.5446286,
      "address": "4G6W+94H, National Highway 44, Lugharwara",
      "open_now": true
    },
    {
      "place_id": "ChIJ-Rc5-zuwKjoRaHWZIcpZkSY",
      "name": "Bharat Petroleum",
      "lat": 22.0745897,
      "lng": 79.5314589,
      "address": "NH-7, Chhindwara Seoni Road, Seoni",
      "open_now": true
    },
    {
      "place_id": "ChIJkVswI2GxKjoRUUdtDYng5fs",
      "name": "Hindustan Petroleum Corporation Limited",
      "lat": 22.0641701,
      "lng": 79.5584401,
      "address": "Ground Floor, Katangi Road, Seoni",
      "open_now": true
    },
    {
      "place_id": "ChIJOeytZhCxKjoRK8Ip9O5anqQ",
      "name": "Bharat Petroleum, Petrol Pump -Shree Fuels",
      "lat": 22.071999,
      "lng": 79.5428529,
      "address": "MANGLIPETH, SEONI, Palari, Seoni",
      "open_now": true
    },
    {
      "place_id": "ChIJu8c2XzmwKjoRliHlVbcJsKo",
      "name": "shree fuels",
      "lat": 22.0741855,
      "lng": 79.5311605,
      "address": "3GFJ+MFF, Chhindwara - Seoni Road, Ganj Area, Seoni",
      "open_now": true
    },
    {
      "place_id": "ChIJTUeleQCxKjoRIzS7KclgQ6Y",
      "name": "Ex Army Petroleum",
      "lat": 22.07468979999999,
      "lng": 79.5187519,
      "address": "3GF9+WF, Fareda",
      "open_now": null
    },
    {
      "place_id": "ChIJJzezNNC3KjoRuZXWA368oEk",
      "name": "Umashankar petrolum Bharat petrolpump",
      "lat": 21.9136404,
      "lng": 79.5238124,
      "address": "WG7F+CGP, Mohgaon",
      "open_now": true
    },
    {
      "place_id": "ChIJh51iQgC3KjoR3uNIDiT3nSM",
      "name": "Golden garage RK tyre workshop",
      "lat": 21.9140088,
      "lng": 79.5246035,
      "address": "WG7F+JR5, Jabalpur - Nagpur Road, Mohgaon",
      "open_now": true
    },
    {
      "place_id": "ChIJW1HzHQC3KjoRKEtKZFEQwm4",
      "name": "Hindustan Petroleum Corporation Limited",
      "lat": 21.9315176,
      "lng": 79.5227371,
      "address": "Ground Floor, Mohgaon, Suktara",
      "open_now": true
    },
    {
      "place_id": "ChIJKdEciuzNKjoR1GYcaoHZse8",
      "name": "IndianOil",
      "lat": 21.7264025,
      "lng": 79.4506967,
      "address": "Ground Floor, NH 7, Jabalpur - Nagpur Road, Pachdhar",
      "open_now": true
    },
    {
      "place_id": "ChIJjzvRaInNKjoR9tg0a11Jycg",
      "name": "IndianOil",
      "lat": 21.7134827,
      "lng": 79.44158589999999,
      "address": "near LHS On, Ground Floor NH 7, near LHS On, Jabalpur - Nagpur Road, Barapatthar, Khawasa",
      "open_now": true
    },
    {
      "place_id": "ChIJOdJkYQDNKjoRhI0Tyh6fi7E",
      "name": "HP petrol puml",
      "lat": 21.713759,
      "lng": 79.4407902,
      "address": "PC7R+G83, Khawasa",
      "open_now": null
    },
    {
      "place_id": "ChIJpa0OQInNKjoRVAjh9arAbhk",
      "name": "Hindustan Petroleum Corporation Limited",
      "lat": 21.7135214,
      "lng": 79.4408488,
      "address": "Ground Floor, Khawasa",
      "open_now": true
    },
    {
      "place_id": "ChIJG7WzXwDTKjoRqo-ve9hcjuA",
      "name": "Main brother fules Khawasa",
      "lat": 21.7034654,
      "lng": 79.4422593,
      "address": "PC3R+9WJ, Khawasa",
      "open_now": true
    },
    {
      "place_id": "ChIJ7-B2zbor1TsRTSm4jH7vg4c",
      "name": "Bharat Petroleum, Petrol Pump -Deolapar Filling Station",
      "lat": 21.566612,
      "lng": 79.3604154,
      "address": "KATTA NH 7, NAGPUR, NAGPUR",
      "open_now": true
    },
    {
      "place_id": "ChIJcyjlp2vT1DsRJcb-D5T5IXU",
      "name": "IndianOil",
      "lat": 21.5356087,
      "lng": 79.3436625,
      "address": "Ground Floor, Ramtek",
      "open_now": true
    },
    {
      "place_id": "ChIJDXUvwLcr1TsRaEAsubXtBeI",
      "name": "Hindustan Petroleum Corporation Limited",
      "lat": 21.5297711,
      "lng": 79.34155299999999,
      "address": "near Bank of India, Ground Floor NH 44, Sitapur, near Bank of India, Pauni",
      "open_now": true
    },
    {
      "place_id": "ChIJ2WlOozzQ1DsR9Zr9V4nZYP0",
      "name": "Hindustan Petroleum Corporation Limited",
      "lat": 21.331732,
      "lng": 79.227871,
      "address": "Ground Floor, NH 44, Dumari Kala",
      "open_now": true
    },
    {
      "place_id": "ChIJI9wx1YHQ1DsR1ohCd7RT6Sg",
      "name": "Petrol Pump",
      "lat": 21.3670783,
      "lng": 79.20012559999999,
      "address": "9682+R3J, Nagpur",
      "open_now": null
    },
    {
      "place_id": "ChIJTXPcowPR1DsR2DsmA0t7IhI",
      "name": "Bharat Petroleum, Petrol Pump -BP Amdi",
      "lat": 21.3755855,
      "lng": 79.24904509999999,
      "address": "AMDI, NH-7, NAGPUR, NAGPUR",
      "open_now": true
    },
    {
      "place_id": "ChIJz-fpUtfR1DsRtwFxdPdb4cU",
      "name": "IndianOil",
      "lat": 21.3298992,
      "lng": 79.2254067,
      "address": "Ground Floor Dumari, Parseon, Dahegaon ( joshi )",
      "open_now": true
    },
    {
      "place_id": "ChIJnTVyNADR1DsRdTQbNbe7ueE",
      "name": "Reliance JIOBP",
      "lat": 21.3461408,
      "lng": 79.2352294,
      "address": "Dumari Kala",
      "open_now": true
    },
    {
      "place_id": "ChIJM61KTQDP1DsRhvmPrTqRVSA",
      "name": "Nayara S K Petroleum",
      "lat": 21.3135833,
      "lng": 79.2277222,
      "address": "867H+C8X, Kerdi",
      "open_now": true
    },
    {
      "place_id": "ChIJwQrlSf7P1DsRy2YH4XfUG3s",
      "name": "Bharat Petroleum Petrol Pump , SHRI BALAJI FILLING STATION",
      "lat": 21.312185,
      "lng": 79.22892499999999,
      "address": "SURVEY 224 NO19, AT MOUZA, NANADGAONTAL, PARSEONI",
      "open_now": true
    },
    {
      "place_id": "ChIJs0cuRXTR1DsRz2ZhJq2OnA8",
      "name": "IndianOil",
      "lat": 21.3594301,
      "lng": 79.2419201,
      "address": "Ground Floor, Amadi",
      "open_now": true
    },
    {
      "place_id": "ChIJA_DRkVnR1DsRhNYHmxoSAP4",
      "name": "IndianOil",
      "lat": 21.3669165,
      "lng": 79.2012388,
      "address": "Ph No 21, Survey No 579/2 Nayakund, Parseoni, Dahegaon ( joshi )",
      "open_now": true
    },
    {
      "place_id": "ChIJfQ7ZQSHP1DsRypSy-oIhnGU",
      "name": "Bharat Petroleum Petrol Pump",
      "lat": 21.2445899,
      "lng": 79.2406525,
      "address": "National Highway 44, Ward No 2, Kandri",
      "open_now": true
    },
    {
      "place_id": "ChIJfZCA3b3P1DsRDj1PjNV-Pzs",
      "name": "Maha E Seva Kendra",
      "lat": 21.229727,
      "lng": 79.2380664,
      "address": "66HQ+V6W, Kanhan",
      "open_now": null
    },
    {
      "place_id": "ChIJr7nJvmrP1DsRl9g6tb8wBAs",
      "name": "IndianOil",
      "lat": 21.2334936,
      "lng": 79.2394237,
      "address": "Ph No 15, Survey No 202/2B Kanhan, Parshivni",
      "open_now": true
    },
    {
      "place_id": "ChIJmbroRv3L1DsRemsmi0LzI78",
      "name": "HP PETROL PUMP - DHANRAJ AUTO FILLING STATION",
      "lat": 21.217946,
      "lng": 79.291399,
      "address": "HP Petrol Pump Khasra NO 123 & 124, PH NO 50 Neelaj, Taluka Parseoni, Nagpur",
      "open_now": null
    },
    {
      "place_id": "ChIJFzIkU5XP1DsRElUZ8iUUUqk",
      "name": "Rudra Transport",
      "lat": 21.2525856,
      "lng": 79.24416819999999,
      "address": "Kadari, Road, Nagardhan",
      "open_now": null
    },
    {
      "place_id": "ChIJ3xMGEqLJ1DsRm05U7wrZrXc",
      "name": "Hindustan Petroleum Corporation Limited",
      "lat": 21.186148,
      "lng": 79.265717,
      "address": "Ground Floor, NH 7, Outer Ring Road, Neri",
      "open_now": true
    },
    {
      "place_id": "ChIJ80zjpnfL1DsRZHHxGSH295Q",
      "name": "Hindustan Petroleum Corporation Limited",
      "lat": 21.2184058,
      "lng": 79.29887120000001,
      "address": "Ph No 50, Nilakanta, Parseoni, Khasra No, 123 & 124, Nilaj",
      "open_now": true
    },
    {
      "place_id": "ChIJOx80J7TJ1DsR0GTNLyjzANQ",
      "name": "Bharat Petroleum Petrol Pump , TAJ PETROLEUM",
      "lat": 21.203319,
      "lng": 79.218721,
      "address": "AJANI - GUMTHALA ROADKH NO. 166, Nagpur",
      "open_now": true
    },
    {
      "place_id": "ChIJC-nvKuXH1DsRqy258EturrE",
      "name": "Highway Auto Services HPCL Petrol Pump",
      "lat": 21.1398868,
      "lng": 79.1914011,
      "address": "45QR+XH2, Bhandara Road, Kapsi bk",
      "open_now": true
    },
    {
      "place_id": "ChIJazGqXQjI1DsR_xqEArt0Tfg",
      "name": "Hindustan Petroleum Corporation Limited",
      "lat": 21.1420696,
      "lng": 79.2022204,
      "address": "Ground Floor, NH 6, Bhandara Road, Nagpur",
      "open_now": true
    },
    {
      "place_id": "ChIJT9cS5STI1DsRZj7cfPXNUnA",
      "name": "IndianOil",
      "lat": 21.1403219,
      "lng": 79.2304037,
      "address": "Ground Floor, Bhandara Road, Mahalgaon",
      "open_now": true
    },
    {
      "place_id": "ChIJDbo9rP_G1DsRq36QMiZ9Qs0",
      "name": "IndianOil",
      "lat": 21.1592999,
      "lng": 79.1447481,
      "address": "Survey No 770, 74 Hissa No 87/1, Kalamna Market Road, Nagpur",
      "open_now": true
    },
    {
      "place_id": "ChIJsTtE_xLH1DsRIuiyH0CPyvo",
      "name": "IndianOil",
      "lat": 21.15127799999999,
      "lng": 79.141075,
      "address": "Ground Floor, Kadbi Chowk, East Wardhaman Nagar, Nagpur",
      "open_now": true
    },
    {
      "place_id": "ChIJ8x3Rl9XH1DsRT11Hm3DvXQA",
      "name": "Hindustan Petroleum Corporation Limited",
      "lat": 21.1397032,
      "lng": 79.1914223,
      "address": "Ground Floor, Bhandara Road, Kapsi, Nagpur",
      "open_now": true
    },
    {
      "place_id": "ChIJM0IFW-PH1DsRTfTwWdwnMt8",
      "name": "BPCL Mehta petrol Pump",
      "lat": 21.1411221,
      "lng": 79.19492149999999,
      "address": "Nagpur",
      "open_now": true
    },
    {
      "place_id": "ChIJr0bLXfTH1DsRRIVADXz4rso",
      "name": "IndianOil",
      "lat": 21.1405714,
      "lng": 79.1961276,
      "address": "Ground Floor, Kamptee - Kapsi Road, G T C, Kamptee",
      "open_now": true
    },
    {
      "place_id": "ChIJm0e3Oy7H1DsRUp8sOnwQprQ",
      "name": "DIVINE FUELS",
      "lat": 21.1403013,
      "lng": 79.1959597,
      "address": "Bhandara Road, Kapsi, BU, Nagpur",
      "open_now": true
    },
    {
      "place_id": "ChIJ28H65OrH1DsR4K3Mila4j4Q",
      "name": "Mahalaxmi Auto Services BPCL Pump",
      "lat": 21.1361782,
      "lng": 79.18625,
      "address": "Kh 54/1, Maa Umiya Transport City, Along Hyd Jabalpur Highway Kapsi BUJURg",
      "open_now": true
    },
    {
      "place_id": "ChIJ6QGljNjH1DsRJd1wIihRknw",
      "name": "SHIV SHAKTI PETROLEUM (BPCL)",
      "lat": 21.1597725,
      "lng": 79.1984197,
      "address": "AT POST DHARGAON, TAL, NH-44, Outer Ring Road, KAMPTEE",
      "open_now": true
    },
    {
      "place_id": "ChIJK_xp69jH1DsR3uwK_8X1Hyw",
      "name": "Bharat Petroleum",
      "lat": 21.1598142,
      "lng": 79.1984957,
      "address": "India",
      "open_now": null
    },
    {
      "place_id": "ChIJOSTjHZTH1DsRVe0jddF0iqM",
      "name": "Bombay Automobiles",
      "lat": 21.1454905,
      "lng": 79.1717377,
      "address": "MAHALGAON, Kamptee - Kapsi Road, Nagpur",
      "open_now": true
    },
    {
      "place_id": "ChIJk47cDJLH1DsReXiozyo38r0",
      "name": "IndianOil",
      "lat": 21.1445498,
      "lng": 79.17201299999999,
      "address": "Ground Floor, near Pardi Naka, Bhandara Road, Kapsi kh",
      "open_now": true
    },
    {
      "place_id": "ChIJJZOdnL3H1DsRuu42fSPkEHQ",
      "name": "Petrol Pump Sushil Sharma",
      "lat": 21.1457104,
      "lng": 79.1711751,
      "address": "Steel And Cooperative Society, 46, Midc, Umiya, Nagpur",
      "open_now": null
    },
    {
      "place_id": "ChIJ-VM3wSTH1DsRBJ2onkDo_yI",
      "name": "APANA FUEL",
      "lat": 21.1488096,
      "lng": 79.1657984,
      "address": "Bus Stand, near Hanuman Mandir, Road, Pardi, Nagpur",
      "open_now": null
    },
    {
      "place_id": "ChIJpTOYYQvH1DsR_7cGcL6Sq0o",
      "name": "Hindustan Petroleum Corporation Limited",
      "lat": 21.1491538,
      "lng": 79.16311309999999,
      "address": "Ground Floor, NH 53, Bhandara Road, Pardi, Kapsi kh",
      "open_now": true
    },
    {
      "place_id": "ChIJhT_2EQDH1DsRV1lme-qfbiw",
      "name": "Hindustan Petroleum Corporation Limited",
      "lat": 21.15181879999999,
      "lng": 79.1629969,
      "address": "Ground Floor, near Rohit Anaz Bhandar, Punapur Road, Pardi, Nagpur",
      "open_now": true
    },
    {
      "place_id": "ChIJByoqUgDH1DsR1Wy-kKPwVlY",
      "name": "Pal automobiles",
      "lat": 21.1446424,
      "lng": 79.16030049999999,
      "address": "45V6+V43, Pardi, Nagpur",
      "open_now": null
    },
    {
      "place_id": "ChIJF0ixLgC51DsRP4ZMxg-F-Ns",
      "name": "Hindustan Petroleum Corporation Limited",
      "lat": 21.1249397,
      "lng": 79.16438529999999,
      "address": "Ground Floor, near Symbiosis, Shivasankar Road, Nagpur",
      "open_now": true
    },
    {
      "place_id": "ChIJx-NkWCO_1DsR0p-HgFbLe2E",
      "name": "IndianOil",
      "lat": 21.0859145,
      "lng": 79.09300929999999,
      "address": "B Plot No, Survey No 66/A/1 & 66, 219 & 222, Besa - Manish Nagar Road, Nagpur",
      "open_now": true
    },
    {
      "place_id": "ChIJPWsk0Fy-1DsRwG2Z5qDjPt0",
      "name": "Bharat petroleum Amin Khapri",
      "lat": 21.0523421,
      "lng": 79.0537974,
      "address": "Chandrapur - Nagpur Road, Nagpur",
      "open_now": true
    },
    {
      "place_id": "ChIJv_0lRW--1DsR0iI23GB8UtM",
      "name": "IndianOil",
      "lat": 21.041848,
      "lng": 79.0518101,
      "address": "No 119, Central Avenue, Amravati Road, Nagpur",
      "open_now": true
    },
    {
      "place_id": "ChIJV-w3CMm51DsRa8vFI1-aylo",
      "name": "Bharat petroleum cng station",
      "lat": 21.0577529,
      "lng": 79.1126917,
      "address": "3456+7J2, Kolkata - Mumbai Highway, Matkazari",
      "open_now": null
    },
    {
      "place_id": "ChIJh7wGdwC51DsRe-V-TfwXcFo",
      "name": "Shruti and sakore petroleum",
      "lat": 21.0587476,
      "lng": 79.1126819,
      "address": "3457+F3V, Nagpur",
      "open_now": true
    },
    {
      "place_id": "ChIJCygySPnpwjsRCbTmzTk2R_8",
      "name": "IndianOil",
      "lat": 21.0679388,
      "lng": 79.0965574,
      "address": "Ground Floor, Loni Kalbhor, NH 9, Solapur Road, Pune",
      "open_now": true
    },
    {
      "place_id": "ChIJz2saGQC_1DsRVnVzwRtmiN0",
      "name": "Barapatre’s Indian Oil petrol pump",
      "lat": 21.0719166,
      "lng": 79.09502959999999,
      "address": "33CW+P26, Manewada Besa Ghogli Road, Saubhagya Nagar, Nagpur",
      "open_now": null
    },
    {
      "place_id": "ChIJZYfw6Jy_1DsR0S3-qSaVkEk",
      "name": "NINAVE CL1",
      "lat": 21.0342108,
      "lng": 79.0769078,
      "address": "Outer Ring Road, Nagpur",
      "open_now": null
    },
    {
      "place_id": "ChIJN_mZdgC_1DsRwB4m-_Tb0ZU",
      "name": "Refilling station of clean hydrogen",
      "lat": 21.049651,
      "lng": 79.069372,
      "address": "332C+64X, Nagpur",
      "open_now": null
    },
    {
      "place_id": "ChIJJ1a7OgC_1DsRxSdTX2744yw",
      "name": "Bharat petrol pump, Asian petroleum",
      "lat": 21.0732297,
      "lng": 79.0680181,
      "address": "33F9+76R, Chatrapati Shivaji Maharaj Road, Somalwada, Nagpur",
      "open_now": true
    },
    {
      "place_id": "ChIJpSQIJT2_1DsR-7w5y_inFJ8",
      "name": "Hindustan Petroleum Corporation Limited",
      "lat": 21.0900461,
      "lng": 79.09637529999999,
      "address": "Ground Floor, Manewada - Besa Road, Besa, Nagpur",
      "open_now": true
    },
    {
      "place_id": "ChIJtxSlBgC_1DsRrJD3XBw72Wg",
      "name": "Cztel office",
      "lat": 21.0871203,
      "lng": 79.0808599,
      "address": "Raghav Apartment, Beltarodi Road, Harihar Nagar, Besa, Nagpur",
      "open_now": null
    },
    {
      "place_id": "ChIJOzprbrS_1DsRe7a24RDUc_0",
      "name": "Hindustan Petroleum Corporation Limited",
      "lat": 21.0631567,
      "lng": 79.05759239999999,
      "address": "Khasra No 157/2, Chinchbhavan, near Narayana School, Chandrapur - Nagpur Road, Khapri",
      "open_now": true
    },
    {
      "place_id": "ChIJr8LrmFq_1DsR0k_mDvrhsCk",
      "name": "IndianOil",
      "lat": 21.08072019999999,
      "lng": 79.0696699,
      "address": "Ground Floor, Somalwada, Nagpur",
      "open_now": true
    },
    {
      "place_id": "ChIJq8lfW1-51DsRvJ5ubPnqTvo",
      "name": "Bharat Petroleum, Petrol Pump -Om Satyam Petroleum",
      "lat": 21.0850054,
      "lng": 79.12501069999999,
      "address": "Hudkeshwar Road, Hudkeshwar",
      "open_now": true
    },
    {
      "place_id": "ChIJEdxgwha_1DsRRqg6UYh9dUU",
      "name": "MODERN FUEL LINKS",
      "lat": 21.04846749999999,
      "lng": 79.0525613,
      "address": "23X3+92M, National Highway 44, nipor",
      "open_now": null
    },
    {
      "place_id": "ChIJtWiDzri_1DsRuw3ktubLSqs",
      "name": "Petrol Pump",
      "lat": 21.042637,
      "lng": 79.05176159999999,
      "address": "tuli petrol pump, Khapri",
      "open_now": null
    },
    {
      "place_id": "ChIJg1A-h_WX1DsRXzG4X2U7H9Q",
      "name": "Hindustan Petroleum Corporation Limited",
      "lat": 20.927601,
      "lng": 78.99998099999999,
      "address": "Ground Floor, opposite Rachana Hospital, Butibori",
      "open_now": true
    },
    {
      "place_id": "ChIJA4zIJh-Y1DsRwxPl3rz368U",
      "name": "IndianOil",
      "lat": 20.92260199999999,
      "lng": 78.999811,
      "address": "Ground Floor, Dudhala, opposite Bus Stand, Nagpur",
      "open_now": true
    },
    {
      "place_id": "ChIJqcRMpci91DsRot6-13ELzZ4",
      "name": "Bharat Petroleum, Petrol Pump -Anmol Transport",
      "lat": 20.9719585,
      "lng": 79.02311569999999,
      "address": "7, Mumbai - Nagpur Highway, Ram Nagar, Nagpur",
      "open_now": true
    },
    {
      "place_id": "ChIJj6xV1faX1DsRYPun6k620uc",
      "name": "IndianOil",
      "lat": 20.93376259999999,
      "lng": 79.0053629,
      "address": "No 56/B, Tapovan Complex Wardha Road, Khamla, Somalwada, Nagpur",
      "open_now": true
    },
    {
      "place_id": "ChIJ6fJPCXq91DsR-zf31bg2xeU",
      "name": "Bharat Petroleum, Petrol Pump -Industrial Explosives Pvt. Ltd.",
      "lat": 20.9908465,
      "lng": 79.0316067,
      "address": "DONGARGAON, Wardha Road, NAGP",
      "open_now": true
    },
    {
      "place_id": "ChIJcQdhRQCX1DsRWRXxZL35mts",
      "name": "Nayara Energy Retail Outlet",
      "lat": 20.9285107,
      "lng": 79.00068189999999,
      "address": "P-23, Satgaon, Bori",
      "open_now": null
    },
    {
      "place_id": "ChIJM4b5Sq6X1DsRMwKZ5yOYvpI",
      "name": "AUK Hotels Pvt ltd",
      "lat": 20.9284148,
      "lng": 79.0005215,
      "address": "Plot no p23, MIDC, Butibori",
      "open_now": null
    },
    {
      "place_id": "ChIJxaCJHYqX1DsRiSrUgnIkVI4",
      "name": "IndianOil",
      "lat": 20.927977,
      "lng": 78.9909776,
      "address": "Plot No 72 MIDC, Narendra Nagar, Butibori",
      "open_now": true
    },
    {
      "place_id": "ChIJEZwUosOe1DsRmS9fp-LmsEc",
      "name": "Hindustan Petroleum Corporation Limited",
      "lat": 20.8118629,
      "lng": 78.9593675,
      "address": "Ground Floor, Nagpur Hyderabad Road, NH 7, Chandrapur - Nagpur Road, Sonegaon",
      "open_now": true
    },
    {
      "place_id": "ChIJt5pUdlOf1DsR1FKWafh2HWo",
      "name": "Borkhedi Fuels",
      "lat": 20.8283366,
      "lng": 78.9597963,
      "address": "National Highway 44, Nagpur",
      "open_now": true
    },
    {
      "place_id": "ChIJze8NW36Z1DsRR4lLXGAC_7U",
      "name": "BCIC BPCL Petrol Pump",
      "lat": 20.8721353,
      "lng": 78.9310813,
      "address": "Aurangabad - Nagpur Road, Dhawalpeth",
      "open_now": true
    },
    {
      "place_id": "ChIJ66IwyWyb1DsRt8b06jIT10o",
      "name": "Suraj Petroleum",
      "lat": 20.8658146,
      "lng": 78.9190107,
      "address": "VW89+8JC, National Highway 361",
      "open_now": true
    },
    {
      "place_id": "ChIJAUwKt3Kf1DsR1Ucm1pWpEMo",
      "name": "VIVANN PETROLEUM- BPCL PUMP",
      "lat": 20.7543878,
      "lng": 78.9407043,
      "address": "QW3R+Q7, Barbadi",
      "open_now": true
    },
    {
      "place_id": "ChIJVanPDRKe1DsR3GamMkAE75M",
      "name": "Bharat Petroleum",
      "lat": 20.7543898,
      "lng": 78.9407031,
      "address": "India",
      "open_now": null
    },
    {
      "place_id": "ChIJdyNN73if1DsRq9ff-Cjb22w",
      "name": "Hindustan Petroleum Corporation Limited",
      "lat": 20.744678,
      "lng": 78.935609,
      "address": "near Kondhali Nagpur Chandrapur Highway, Gat No 223, A/PA, NH 44 Kandhali, near Kondhali Nagpur Chandrapur Highway, Hydrabad Hwy, Samudrapur",
      "open_now": true
    },
    {
      "place_id": "ChIJq2ySSgCf1DsRwZiAp9U8vnU",
      "name": "Jio BP Petrol Pump",
      "lat": 20.7648419,
      "lng": 78.9454398,
      "address": "QW7W+W5, Barbadi",
      "open_now": null
    },
    {
      "place_id": "ChIJeVw0OACf1DsRonIY54jVKos",
      "name": "Jio BP",
      "lat": 20.7648419,
      "lng": 78.9454978,
      "address": "QW7W+W5, Barbadi",
      "open_now": null
    },
    {
      "place_id": "ChIJFZnPUPGe1DsRCpU5olIhrHg",
      "name": "IndianOil",
      "lat": 20.7901065,
      "lng": 78.9575715,
      "address": "Ground Floor, NH 7, Sonegaon, Dudhala",
      "open_now": true
    },
    {
      "place_id": "ChIJBVnSrBtj0zsRjrM1jdoZAas",
      "name": "BP RAMPUR, Bharat Petroleum GHAR (COCO) Retail Outlet",
      "lat": 20.7109929,
      "lng": 78.9263024,
      "address": "NH44, Srinagar - Kanyakumari Highway, Rampur",
      "open_now": true
    },
    {
      "place_id": "ChIJOwP-IwJk0zsRq6BZIpg_Hnw",
      "name": "Bharat Petroleum",
      "lat": 20.6344153,
      "lng": 78.9270758,
      "address": "India",
      "open_now": null
    },
    {
      "place_id": "ChIJUQy5RgBl0zsRsGNeAAnLVoU",
      "name": "DNR FUEL POINT BPCL",
      "lat": 20.6342872,
      "lng": 78.9272806,
      "address": "JWMG+PW6, Dahegaon",
      "open_now": true
    },
    {
      "place_id": "ChIJYcVyswNk0zsR9U8_xrjjA20",
      "name": "Hindustan Petroleum Corporation Limited",
      "lat": 20.632446,
      "lng": 78.9259837,
      "address": "Ground Floor, near Jambu Square, NH 7, Nagpur Hyderabad Road, Jamb",
      "open_now": true
    },
    {
      "place_id": "ChIJ9TvoActj0zsR_SuiNClgSMg",
      "name": "IndianOil",
      "lat": 20.6616085,
      "lng": 78.924752,
      "address": "Ground Floor Ajada, Samudrapur",
      "open_now": true
    },
    {
      "place_id": "ChIJ-VIfhZ9m0zsRYQEd5SQ5L1U",
      "name": "Hindustan Petroleum Corporation Limited",
      "lat": 20.6271621,
      "lng": 78.9262931,
      "address": "Survey No 352, Plot No 01, Samudrapur",
      "open_now": true
    },
    {
      "place_id": "ChIJ8xjWB7hm0zsR4xPv_g34raw",
      "name": "Essar Petrol Pump",
      "lat": 20.6313588,
      "lng": 78.953346,
      "address": "JXJ3+G8X",
      "open_now": true
    },
    {
      "place_id": "ChIJ89s7qaJn0zsRh3ST2A9oUpU",
      "name": "Bharat Petroleum, Petrol Pump -S R Automobiles",
      "lat": 20.616323,
      "lng": 78.9316992,
      "address": "NH 7 JAMB,WARDHA, WARDHA",
      "open_now": true
    },
    {
      "place_id": "ChIJI446WkVl0zsRfdSmwDS-gG0",
      "name": "Petrol Pump",
      "lat": 20.55414,
      "lng": 78.8500423,
      "address": "HV32+M23, Sindhi Colony, Hinganghat",
      "open_now": null
    },
    {
      "place_id": "ChIJQzCcmghw0zsRigApCV6mU04",
      "name": "Bharat Petroleum Petrol Pump",
      "lat": 20.5363649,
      "lng": 78.8263862,
      "address": "SH-243, Pandharkawda Road, Jawade, Hinganghat",
      "open_now": true
    },
    {
      "place_id": "ChIJdanB0BJl0zsR_EM78GppD1g",
      "name": "Jio-bp",
      "lat": 20.5669404,
      "lng": 78.8701751,
      "address": "Survey No 27, NH 7, Hyderabad Rd, Hinganghat",
      "open_now": true
    },
    {
      "place_id": "ChIJA8Ln_Kll0zsRLgtlBrhYX6I",
      "name": "IndianOil",
      "lat": 20.550785,
      "lng": 78.848342,
      "address": "Santlock No 11005 Nandori Chowk, Hinganghat, Wela",
      "open_now": true
    },
    {
      "place_id": "ChIJVTEZJCll0zsRTSTa-keZ7UA",
      "name": "Hindustan Petroleum Corporation Limited",
      "lat": 20.5522105,
      "lng": 78.8571968,
      "address": "Ground Floor, Nandori Road, Hinganghat",
      "open_now": true
    },
    {
      "place_id": "ChIJLb0MN_xv0zsRI3h2Lhs023c",
      "name": "Hindustan Petroleum Corporation Limited",
      "lat": 20.5339721,
      "lng": 78.8417101,
      "address": "near KVR, Ground Floor Satephal, Satefal, near KVR, Nagri Road, Hinganghat",
      "open_now": true
    },
    {
      "place_id": "ChIJM8kTGgBl0zsRidNMNi8Hhk4",
      "name": "K. B. Board mill colony",
      "lat": 20.5653574,
      "lng": 78.8731063,
      "address": "HV8F+76J, Rimdoh",
      "open_now": null
    },
    {
      "place_id": "ChIJn9BZhWtl0zsRw1nOX0F8GMg",
      "name": "M/s. Jai Bhole Petroleum",
      "lat": 20.5729198,
      "lng": 78.8819335,
      "address": "in front of vittal kamat, mauja, Ajanti",
      "open_now": true
    },
    {
      "place_id": "ChIJW52bJ9Jl0zsR4ibU3h7G5lo",
      "name": "IndianOil",
      "lat": 20.5742305,
      "lng": 78.88269079999999,
      "address": "Gut No 232/1B Ajanti, Hinganghat",
      "open_now": true
    },
    {
      "place_id": "ChIJ5--Vyl1x0zsRqS8OSgT9zrw",
      "name": "Essar Petrol Pump,M/s Maa Durga Petroleum",
      "lat": 20.4816206,
      "lng": 78.777464,
      "address": "FQJG+JXW, Daroda, Hinganghat",
      "open_now": null
    },
    {
      "place_id": "ChIJj4vgD2lx0zsR-vfDQBb34hg",
      "name": "Nayara Petrol Pump - Maa Durga Petroleum",
      "lat": 20.4809483,
      "lng": 78.7773069,
      "address": "NH-07, At post, tah, Daroda",
      "open_now": true
    },
    {
      "place_id": "ChIJb-a2f6Fx0zsRFCTSt7bxHoQ",
      "name": "Kanishk petrol Pump, (BPCL)",
      "lat": 20.4886863,
      "lng": 78.7812415,
      "address": "On NH 44, Ghatsavli",
      "open_now": null
    },
    {
      "place_id": "ChIJp-ZDs8Bx0zsRhJF7TDkEaL8",
      "name": "Hindustan Petroleum Corporation Limited",
      "lat": 20.497885,
      "lng": 78.7856992,
      "address": "Survey No 288/1, NH 44, Nagpur Hyderabad Road, Hinganghat, Ghatsavli",
      "open_now": true
    },
    {
      "place_id": "ChIJRXt2N_xx0zsRhYY4VWxRT80",
      "name": "Hindustan Petroleum Corporation Limited",
      "lat": 20.46634509999999,
      "lng": 78.76763319999999,
      "address": "Gat No 45/2/1, NH 44, Nagpur Hyderabad Hwy, Daroda",
      "open_now": true
    },
    {
      "place_id": "ChIJZfAmdABx0zsREtUcXfHLVXQ",
      "name": "ARs Energy Retails HPCL Petrol Pump",
      "lat": 20.4595085,
      "lng": 78.7639107,
      "address": "Hinganghat",
      "open_now": true
    },
    {
      "place_id": "ChIJzX5ZuQ510zsRcvcPudRUVYg",
      "name": "IndianOil",
      "lat": 20.4094626,
      "lng": 78.7414246,
      "address": "Survey No 89, Bothuda, Gangapur",
      "open_now": true
    },
    {
      "place_id": "ChIJSzfL_L6u0zsRsF4TJLkrc4w",
      "name": "BPCL DJ & Sons Petrol Pump",
      "lat": 20.4311161,
      "lng": 78.7444684,
      "address": "National Highway 44, Srinagar - Kanyakumari Highway, Konghara",
      "open_now": null
    },
    {
      "place_id": "ChIJ68e7Prd10zsRQIGtBsYlZ2w",
      "name": "IndianOil",
      "lat": 20.4345201,
      "lng": 78.74480659999999,
      "address": "No 153, Ajansara",
      "open_now": true
    },
    {
      "place_id": "ChIJ35Av6QcM0zsRRhU2aRoKBnQ",
      "name": "Atram Automobile Petrol Station",
      "lat": 20.2968156,
      "lng": 78.71471319999999,
      "address": "NH-07, WADKI, Yavatmal",
      "open_now": true
    },
    {
      "place_id": "ChIJhdOdki4L0zsR1DAmnGGQekQ",
      "name": "Bharat petroleum Aksha petroleum wadaki",
      "lat": 20.288166,
      "lng": 78.7176525,
      "address": "Zullar",
      "open_now": true
    },
    {
      "place_id": "ChIJ4fLPqWus0zsR0jyvJW-ugO0",
      "name": "IndianOil",
      "lat": 20.2864539,
      "lng": 78.7194178,
      "address": "Ground Floor, Akhada Ward, Pandharkawada",
      "open_now": true
    },
    {
      "place_id": "ChIJF8KAPQAL0zsRAd0d8im9SK8",
      "name": "Bharat Petroleum, Petrol Pump -Shaun Enterprises",
      "lat": 20.282115,
      "lng": 78.719568,
      "address": "WADKI,HYD ROAD,YAVATMAL, YAVATMAL",
      "open_now": true
    },
    {
      "place_id": "ChIJb9DxFC4L0zsRHeU6rzXpTZ0",
      "name": "AHILYA INDANE GRAMIN VITRAK WADKI",
      "lat": 20.2748103,
      "lng": 78.72114739999999,
      "address": "Khasara No 63, near Kakde Complex, A1, Khairi Road, Yavatmal",
      "open_now": null
    },
    {
      "place_id": "ChIJL6zXnKkL0zsRLfhEucq_V8c",
      "name": "IndianOil",
      "lat": 20.2729135,
      "lng": 78.7150928,
      "address": "Ground Floor, Ralegaon, Wadki",
      "open_now": true
    },
    {
      "place_id": "ChIJF40cBgAL0zsRUVscRclsV-g",
      "name": "Nayara Energy Shingare Petroleum",
      "lat": 20.2685157,
      "lng": 78.7143158,
      "address": "Bori-Ichod",
      "open_now": true
    },
    {
      "place_id": "ChIJV8YLt54J0zsR3UtT5mjoUnY",
      "name": "Bharat Petroleum, Petrol Pump -Sai Sarthak Petroleum",
      "lat": 20.230264,
      "lng": 78.6984738,
      "address": "KINHI, YAVATMAL",
      "open_now": true
    },
    {
      "place_id": "ChIJvXWWfAAJ0zsRp2LAVNon0Q8",
      "name": "युरिया पंप",
      "lat": 20.2057356,
      "lng": 78.6838473,
      "address": "Wadki",
      "open_now": true
    },
    {
      "place_id": "ChIJF_DMuMcJ0zsRSUE-Ya7Q9a4",
      "name": "Nayara Petrol Pump - Kanchan Petrolum",
      "lat": 20.2212477,
      "lng": 78.6919156,
      "address": "Survey No 127/2-B,Plot No.01 at post kinhi(Jawade, Ralegaon",
      "open_now": true
    },
    {
      "place_id": "ChIJyd4_3voJ0zsR2zSnI2LiX_U",
      "name": "IndianOil",
      "lat": 20.233686,
      "lng": 78.69557580000001,
      "address": "Survey No 61, 2 Kinhi, Ghodkhindi, Yavatmal",
      "open_now": true
    },
    {
      "place_id": "ChIJdfLQPwAJ0zsRogLzxqYyHbQ",
      "name": "OM Sai Ram Petrolium",
      "lat": 20.23419419999999,
      "lng": 78.69447070000001,
      "address": "6MMV+MQH, Kinhi Jawade",
      "open_now": null
    },
    {
      "place_id": "ChIJo_1rmm-o0zsR3Y2J_aIBTLI",
      "name": "bhasakar auto service ( Bpcl)",
      "lat": 20.1379519,
      "lng": 78.6243422,
      "address": "Pandharkawada, Yavatmal, NH-930, Wani Yavatmal Highway, Kelpur",
      "open_now": true
    },
    {
      "place_id": "ChIJAdFPxFGp0zsRwUzmW0Xlnlc",
      "name": "Bharat Petroleum, Petrol Pump- DAWARE SONS",
      "lat": 20.124286,
      "lng": 78.6085495,
      "address": "Before Karanji Traffic Police Check Post On LHS Nagpur to Hyderabad Highway NH44, Mangi",
      "open_now": true
    },
    {
      "place_id": "ChIJL3tW7Nup0zsRxkgBTWmeylc",
      "name": "Shri Jagdamba Bharat Petroleum",
      "lat": 20.1166429,
      "lng": 78.6018678,
      "address": "4J82+QP, Mangi",
      "open_now": true
    },
    {
      "place_id": "ChIJ_yG94r6u0zsR2VyhZWoMuBI",
      "name": "Bharat Petroleum DJ & SONS PETROL PUMP KONGHARA",
      "lat": 20.0724766,
      "lng": 78.5472298,
      "address": "NH 7, POST, PIMPRI, Konghara",
      "open_now": true
    },
    {
      "place_id": "ChIJ-7iDsnSv0zsRkz2YC9S1id8",
      "name": "Tamilnadu petrol pump",
      "lat": 20.0548406,
      "lng": 78.54620539999999,
      "address": "3G3W+WFP, Pimpari Road",
      "open_now": null
    },
    {
      "place_id": "ChIJ5_jctcmv0zsRVaes7Km1960",
      "name": "IndianOil",
      "lat": 20.0545493,
      "lng": 78.5461632,
      "address": "Ground Floor, Akhada ward, Pimpri Road, Kelapur, Pandharkawada",
      "open_now": true
    },
    {
      "place_id": "ChIJ0zWEFgCv0zsR3hnCSTA2-Tk",
      "name": "Jio BP",
      "lat": 20.05423279999999,
      "lng": 78.5473209,
      "address": "3G3W+WFP, Pimpari Road",
      "open_now": true
    },
    {
      "place_id": "ChIJYWuRKAOv0zsR4vACVSkWNVg",
      "name": "Hindustan Petroleum Corporation Limited",
      "lat": 20.101381,
      "lng": 78.531481,
      "address": "Ground Floor, Umari",
      "open_now": true
    },
    {
      "place_id": "ChIJQ6iRI3Wt0zsR5nnhE3VDo1A",
      "name": "R.B MOTORS",
      "lat": 20.0369339,
      "lng": 78.5482074,
      "address": "main Line main Line",
      "open_now": null
    },
    {
      "place_id": "ChIJU91ctL6t0zsR4Mirm5Qoi1o",
      "name": "IndianOil",
      "lat": 20.1093176,
      "lng": 78.57961039999999,
      "address": "Ground Floor, Kelapur, Dharna",
      "open_now": true
    },
    {
      "place_id": "ChIJoexc1iBX0jsRHKz9YIkomng",
      "name": "Hindustan Petroleum Corporation Limited",
      "lat": 19.807111,
      "lng": 78.56844099999999,
      "address": "Survey No 27, Jainad, Kamai",
      "open_now": true
    },
    {
      "place_id": "ChIJDTEoGwBR0jsR26D8sZGgxF4",
      "name": "Hindustan Petroleum Corporation Limited",
      "lat": 19.8167353,
      "lng": 78.5605843,
      "address": "RH86+M6W, Kamai",
      "open_now": null
    },
    {
      "place_id": "ChIJBzJbRxdb0jsRfWsOuLR11xc",
      "name": "IndianOil",
      "lat": 19.7623032,
      "lng": 78.5640008,
      "address": "Lock No T3/11, C/4/2, Pusai",
      "open_now": true
    },
    {
      "place_id": "ChIJ2wL9wxla0jsR-ghPAI4fZAo",
      "name": "IndianOil",
      "lat": 19.7517607,
      "lng": 78.55578249999999,
      "address": "India",
      "open_now": null
    },
    {
      "place_id": "ChIJt5pYi6db0jsRg22NsLFZwuo",
      "name": "Hindustan Petroleum Corporation Limited",
      "lat": 19.6834098,
      "lng": 78.5111901,
      "address": "Ground Floor Adilabad Ponnari, Road, Bhattisavargaon",
      "open_now": true
    },
    {
      "place_id": "ChIJP-Vk4npb0jsRALrlbW8ivB0",
      "name": "HP PETROL PUMP - MEENAKSHI PET.AGENCY SAVARGAON",
      "lat": 19.6833,
      "lng": 78.51120999999999,
      "address": "OFF Rural Police Station Rampur RD Battisavargaon Village",
      "open_now": true
    },
    {
      "place_id": "ChIJRban7Q9b0jsRVu4u4t-z4Vs",
      "name": "BPCL - Sri Hari Hara Sai Filling Station",
      "lat": 19.68117699999999,
      "lng": 78.51803500000001,
      "address": "SY NO55/B, Rampur Road, Bhuktapur",
      "open_now": true
    },
    {
      "place_id": "ChIJYdQz9yFb0jsRSAqzo312BP4",
      "name": "BSR FILLING STATION Bharat petroleum",
      "lat": 19.67719109999999,
      "lng": 78.48240539999999,
      "address": "road, Sunkidi, Ponnari",
      "open_now": true
    },
    {
      "place_id": "ChIJDUnWqIFb0jsRyHTyjKxXLJU",
      "name": "IndianOil",
      "lat": 19.6787657,
      "lng": 78.5231105,
      "address": "near Adilabad, Lock No IG386, Survey No 46/3/2/2 Bhuktapur, near Adilabad, Collectorate, Adilabad",
      "open_now": true
    },
    {
      "place_id": "ChIJU2CUKn5c0jsRP_nKdx2-56A",
      "name": "IndianOil",
      "lat": 19.6695396,
      "lng": 78.5219517,
      "address": "Sy No 31/3, Arhar Bhikhapur,Adilabad Collectorate, Adilabad",
      "open_now": true
    },
    {
      "place_id": "ChIJDZGBak1d0jsRwIDMlpeF9Ak",
      "name": "BPCL- Srinivasa Fuel Station",
      "lat": 19.67249439999999,
      "lng": 78.5275486,
      "address": "behind Basaveshwara statue, Vidya Nagar, Adilabad",
      "open_now": true
    },
    {
      "place_id": "ChIJWcxcjnFb0jsRw8CB-NfZ6I4",
      "name": "IndianOil",
      "lat": 19.6771792,
      "lng": 78.5336023,
      "address": "Lock No D2, 39/40/41/42/A/7/2 NH 7, Collectorate, Adilabad",
      "open_now": true
    },
    {
      "place_id": "ChIJP5sHh3lc0jsRPsff5G4P6gM",
      "name": "indian mobile",
      "lat": 19.6699245,
      "lng": 78.5297001,
      "address": "MG9H+XV8, Ponnar, Ravindra Nagar Colony, Adilabad",
      "open_now": null
    },
    {
      "place_id": "ChIJKQ5FYexd0jsRxKjNGTHBGmg",
      "name": "NAYARA Petrol Pump",
      "lat": 19.6675327,
      "lng": 78.5300065,
      "address": "MG8J+X4R, Muncipal Quarters, Ravindra Nagar Colony, Adilabad",
      "open_now": true
    },
    {
      "place_id": "ChIJ1z9o05pb0jsRUgnAztkh5w0",
      "name": "Hindustan Petroleum Corporation Limited",
      "lat": 19.682901,
      "lng": 78.542091,
      "address": "Ground Floor, Adilabad - Nagpur Road, Adilabad",
      "open_now": true
    },
    {
      "place_id": "ChIJI7t1qSpd0jsR17utni1zxd4",
      "name": "Bharat Petroleum, Petrol Pump -Tirumala Filling Station",
      "lat": 19.658908,
      "lng": 78.5241999,
      "address": "SY NO, DASANAPUR, Teachers Colony, Adilabad",
      "open_now": true
    },
    {
      "place_id": "ChIJy6F36Yhb0jsRSBj2xWQwp78",
      "name": "Bharat Petroleum, Petrol Pump -Bp-Adilabad",
      "lat": 19.6850647,
      "lng": 78.5436208,
      "address": "BHORAJ, NEAR BHORAJ CHECKP, Adilabad",
      "open_now": true
    },
    {
      "place_id": "ChIJsZ1CZgBd0jsRE1c6vypW3hU",
      "name": "Bharat petroleum",
      "lat": 19.6702683,
      "lng": 78.53743829999999,
      "address": "Masood Chowk, Brahmanwadi, Adilabad",
      "open_now": true
    },
    {
      "place_id": "ChIJOezMk-pb0jsRS50HXQssPqU",
      "name": "Hindustan Petroleum Corporation Limited",
      "lat": 19.698488,
      "lng": 78.545281,
      "address": "S No 46/2, Old NH 44, Adilabad - Nagpur Road, Belluri",
      "open_now": true
    },
    {
      "place_id": "ChIJv0s0HgBb0jsRtFqle8O04z8",
      "name": "Hindustan gas agency",
      "lat": 19.686406,
      "lng": 78.5474345,
      "address": "MGHR+78Q, Mohalla Badh, Adilabad",
      "open_now": null
    },
    {
      "place_id": "ChIJ76eXwURd0jsRU-HaE5P6Pwk",
      "name": "Hindustan Petroleum Corporation Limited",
      "lat": 19.592495,
      "lng": 78.490622,
      "address": "Survey No 85, Adilabad Hyderabad Road, Talamadugu, Pangadpipri",
      "open_now": true
    },
    {
      "place_id": "ChIJr4RYNltd0jsRuyewJHpF8_A",
      "name": "Hindustan Petroleum Corporation Limited",
      "lat": 19.590621,
      "lng": 78.489892,
      "address": "Survey No 14/B, Gudihathinur",
      "open_now": true
    },
    {
      "place_id": "ChIJ7XjY1Atd0jsREdtRdVOiw-Y",
      "name": "Dharvi Petroleum Bharat Petroleum",
      "lat": 19.5882165,
      "lng": 78.49115130000001,
      "address": "Sy no 13, kamalapur, Gudihathinur",
      "open_now": null
    },
    {
      "place_id": "ChIJ_YJzJLFn0jsRcehyM6GMMpM",
      "name": "IndianOil",
      "lat": 19.497295,
      "lng": 78.500962,
      "address": "L No 410/11/D1/F, National Highway 44, Kamalapur",
      "open_now": true
    },
    {
      "place_id": "ChIJVW9NbHJm0jsR9NErn3FVE_Q",
      "name": "IndianOil",
      "lat": 19.497246,
      "lng": 78.5019281,
      "address": "Gudihathinur",
      "open_now": true
    },
    {
      "place_id": "ChIJf67xbgBx0jsRhW8oWQT5NRM",
      "name": "Def filling station TATA LEYLAND etc",
      "lat": 19.36505159999999,
      "lng": 78.43393619999999,
      "address": "9C8M+2HF, Kupti (Khurd)",
      "open_now": null
    },
    {
      "place_id": "ChIJqbQqaQBx0jsRpwMl9pxsVjg",
      "name": "DEF FILLING STATION",
      "lat": 19.3414544,
      "lng": 78.4252405,
      "address": "8CRG+H3Q, Kupti (Khurd)",
      "open_now": null
    },
    {
      "place_id": "ChIJI5tkQsFv0jsREzDJ-ltAhkY",
      "name": "Indian Oil",
      "lat": 19.4075771,
      "lng": 78.44814319999999,
      "address": "India",
      "open_now": null
    },
    {
      "place_id": "ChIJiWA6QsFv0jsRPvpZh7DdF9Q",
      "name": "Bharat Petroleum BP Petrol Pump / Gas Station",
      "lat": 19.4076414,
      "lng": 78.44810679999999,
      "address": "National Highway 44, Adegaon Buzurg",
      "open_now": null
    },
    {
      "place_id": "ChIJa3GdixNv0jsRi9JOiAW14IM",
      "name": "SSV filling station",
      "lat": 19.413527,
      "lng": 78.4503842,
      "address": "Shop No 2233, Ichoda",
      "open_now": null
    },
    {
      "place_id": "ChIJs9L77b9v0jsRTmDtF_JL7Yo",
      "name": "Hindustan Petroleum Corporation Limited",
      "lat": 19.413461,
      "lng": 78.45136099999999,
      "address": "S No 10, E Ichoda, Adegaon Buzurg",
      "open_now": true
    },
    {
      "place_id": "ChIJ3XEQLA6JzTsRwkvT3YcCgXY",
      "name": "Hindustan Petroleum Corporation Limited",
      "lat": 19.157188,
      "lng": 78.464171,
      "address": "Survey No 11, E Mamda, Burugupalle",
      "open_now": true
    },
    {
      "place_id": "ChIJO8cHSAWJzTsRYkvYNRtEXoM",
      "name": "IndianOil",
      "lat": 19.1559031,
      "lng": 78.46226899999999,
      "address": "Lock No T3/96/C/6/3 Nirmal Bypass, NH7, Burugpally, Buggaram",
      "open_now": true
    },
    {
      "place_id": "ChIJizAOdQCJzTsRpujDOK7JVEY",
      "name": "DEF Filling Station",
      "lat": 19.1559206,
      "lng": 78.46202629999999,
      "address": "5F46+8P, Gayadpalle",
      "open_now": null
    },
    {
      "place_id": "ChIJieswgGSMzTsR2N677imVTPA",
      "name": "Hindustan Petroleum Corporation Limited",
      "lat": 19.08669429999999,
      "lng": 78.3445665,
      "address": "Survey No 1614, Nirmal Bhainsa Road, Adilabad",
      "open_now": true
    },
    {
      "place_id": "ChIJCXXPTPWNzTsRFkB_Uak3PuY",
      "name": "Hindustan Petroleum Corporation Limited",
      "lat": 19.086198,
      "lng": 78.351012,
      "address": "Survey No 1086, Nirmal - Mancherial Road, Venkatapur",
      "open_now": true
    },
    {
      "place_id": "ChIJR7M9e2-MzTsRz3I8eVHlLjo",
      "name": "New Maruthi Petrol",
      "lat": 19.0864334,
      "lng": 78.35056159999999,
      "address": "India",
      "open_now": null
    },
    {
      "place_id": "ChIJAU_xQVuNzTsRbwckruqOq44",
      "name": "IndianOil",
      "lat": 19.086201,
      "lng": 78.346501,
      "address": "Lock No 74/75, D1, D, National Highway 44, Bangalpet, Nirmal",
      "open_now": true
    },
    {
      "place_id": "ChIJeTIZL7uNzTsRBkAI0EF3Tsc",
      "name": "Bharat Petroleum, Petrol Pump -Chitkeshi Vishwanath Narsimhlu",
      "lat": 19.0888185,
      "lng": 78.34544950000002,
      "address": "NIRMAL TOWN (CVN), NIRMAL, ADILABAD",
      "open_now": true
    },
    {
      "place_id": "ChIJB6mAh5qNzTsRaC56YLxqXjA",
      "name": "KAMAL NAYAN DHANANIWALA NIRMAL",
      "lat": 19.0909959,
      "lng": 78.34441029999999,
      "address": "Shop No 07, Indira Nagar, Nirmal",
      "open_now": null
    },
    {
      "place_id": "ChIJuw4WWHuMzTsR4f49uAUesqc",
      "name": "IndianOil",
      "lat": 19.091101,
      "lng": 78.344201,
      "address": "Lock No D177, A4/2, National Highway 44, Bangalpet, Nirmal",
      "open_now": true
    },
    {
      "place_id": "ChIJhy7lGwCNzTsR1a2UG6AE3SM",
      "name": "Hindustan Petroleum Corporation Limited",
      "lat": 19.0956918,
      "lng": 78.34336789999999,
      "address": "Ground Floor, Adilabad Road, Nirmal",
      "open_now": true
    },
    {
      "place_id": "ChIJ0Qh9DE6MzTsRo2MVHqkrRdY",
      "name": "Santosh Guptha Filling Station",
      "lat": 19.0615313,
      "lng": 78.35154709999999,
      "address": "Kadthal Main Road, Kadthal",
      "open_now": true
    },
    {
      "place_id": "ChIJTSEfmjKPzTsRjxwKAYtmDPQ",
      "name": "JK FILLING STATION NAYARA PETROLEUM",
      "lat": 19.0872778,
      "lng": 78.4106791,
      "address": "3CP6+W77, Nirmal - Mancherial Road",
      "open_now": true
    },
    {
      "place_id": "ChIJPT78CrGNzTsR6fKnVY_XZwA",
      "name": "Hindustan Petroleum Corporation Limited",
      "lat": 19.058681,
      "lng": 78.352217,
      "address": "Survey No 176, Hyderabad Road, AA/2, Soan",
      "open_now": true
    },
    {
      "place_id": "ChIJRboh-IKLzTsRjjM-HQon3GA",
      "name": "Hindustan Petroleum Corporation Limited",
      "lat": 19.110018,
      "lng": 78.340856,
      "address": "Survey No 2215, Bhail Bazar, Budhwarpet, Nirmal",
      "open_now": true
    },
    {
      "place_id": "ChIJJcFDjfiLzTsRj1_-0n28VJg",
      "name": "Bharat Petroleum Petrol Pump , SRI VENKATESWARA FILLING STATION",
      "lat": 19.1124128,
      "lng": 78.3404237,
      "address": "D.NO.5-6-97/5-6JNEAR, Bail Bazar Road, Nirmal",
      "open_now": true
    },
    {
      "place_id": "ChIJV3xtOJ2LzTsRgW3aOvM-JSk",
      "name": "Rishabh Auto Gas Filling Station",
      "lat": 19.1135958,
      "lng": 78.3401746,
      "address": "487R+C3M, Nirmal Road, Naidiwada, Nirmal",
      "open_now": null
    },
    {
      "place_id": "ChIJsyRnpiWSzTsR2YMQFs4znbc",
      "name": "Hindustan Petroleum Corporation Limited",
      "lat": 18.9766091,
      "lng": 78.3759642,
      "address": "Survey No 324/1, NH 44, Nagpur Road, Pochampad, Hyderabad",
      "open_now": true
    },
    {
      "place_id": "ChIJo8aHYC6SzTsRxtwrLtmKexc",
      "name": "Indian Oil",
      "lat": 18.9701078,
      "lng": 78.3755049,
      "address": "India",
      "open_now": null
    },
    {
      "place_id": "ChIJExs7T7WNzTsRU2AN87azuQU",
      "name": "Bharat Petroleum, Petrol Pump -Aishwarya Filling Station",
      "lat": 19.0115055,
      "lng": 78.3679788,
      "address": "3CMJ+4X6, Kanakapur",
      "open_now": true
    },
    {
      "place_id": "ChIJk8VFKgiRzTsRegvLOKsVpVA",
      "name": "Hindustan Petroleum Corporation Limited",
      "lat": 18.9558505,
      "lng": 78.40235849999999,
      "address": "Survey No 12, A & 12/AA, Mendora",
      "open_now": true
    },
    {
      "place_id": "ChIJKZIFI2-UzTsRY1kq38jItok",
      "name": "Hindustan Petroleum Corporation Limited",
      "lat": 18.8982487,
      "lng": 78.35237099999999,
      "address": "Survey No, 990 & 991, Road, Balkonda, Kisannagar",
      "open_now": true
    },
    {
      "place_id": "ChIJtdttn1CUzTsRmq2YD42vLTY",
      "name": "IndianOil",
      "lat": 18.8789211,
      "lng": 78.34603249999999,
      "address": "Ground Floor, Balkonda",
      "open_now": true
    },
    {
      "place_id": "ChIJOWRybouTzTsR0s_qvgMh3nE",
      "name": "IndianOil",
      "lat": 18.919802,
      "lng": 78.35943549999999,
      "address": "BADDAM MUTHYAM REDDY,MUPKAL, National Highway 44, Ratnapur",
      "open_now": true
    },
    {
      "place_id": "ChIJodzXfO2TzTsR5Zhf45ZZntQ",
      "name": "Bharat Petroleum COCO Pump, BP MUPKAL",
      "lat": 18.9233021,
      "lng": 78.362055,
      "address": "W9F6+8RF, Asian Highway 43, Nallur",
      "open_now": true
    },
    {
      "place_id": "ChIJLbriJQGVzTsR9-qSkaM1M1A",
      "name": "IndianOil",
      "lat": 18.861676,
      "lng": 78.33540599999999,
      "address": "Ground Floor, Balkonda",
      "open_now": true
    },
    {
      "place_id": "ChIJiWC-FymTzTsRhBm0-Xwog6c",
      "name": "Hindustan Petroleum Corporation Limited",
      "lat": 18.9263411,
      "lng": 78.3637473,
      "address": "Survey No 87/3A, NH 44, Hyderabad Nagpur Road, Mupkal",
      "open_now": true
    },
    {
      "place_id": "ChIJj2EizqaTzTsRH3th6kDCQ_s",
      "name": "Charitha Fuel Station",
      "lat": 18.9264435,
      "lng": 78.3637396,
      "address": "87/3a, Nallur",
      "open_now": true
    },
    {
      "place_id": "ChIJoSzMgJ-_zTsRvmVaipPNkgw",
      "name": "Hindustan Petroleum Corporation Limited",
      "lat": 18.7987066,
      "lng": 78.3112762,
      "address": "Survey No 367 & 368, Armoor Road, Perkit",
      "open_now": true
    },
    {
      "place_id": "ChIJrZxLtOm_zTsRk123SJ_37qk",
      "name": "Pervez Filling Station | BPCL and CNG Station",
      "lat": 18.8036952,
      "lng": 78.3142936,
      "address": "PERKIT, NIRMAL ROAD, NH-7, NIZAMABAD",
      "open_now": true
    },
    {
      "place_id": "ChIJt5zCfAC_zTsRh03pwqfzlgk",
      "name": "CNG armor",
      "lat": 18.803742,
      "lng": 78.314463,
      "address": "R837+HPW, National Highway 44",
      "open_now": null
    },
    {
      "place_id": "ChIJRQ_2jXy_zTsRP-3we4pF8Kg",
      "name": "IndianOil",
      "lat": 18.790948,
      "lng": 78.30654899999999,
      "address": "Ground Floor Perkit,Ankapoor, Armur",
      "open_now": true
    },
    {
      "place_id": "ChIJUxStEfC_zTsRN-4Xyy20Aog",
      "name": "LVR FILLING STATION",
      "lat": 18.7911494,
      "lng": 78.3063382,
      "address": "Indian Oil Dealer, NH 7, Perkit",
      "open_now": null
    },
    {
      "place_id": "ChIJy4Uxoi6_zTsRsoUuDz9r6MM",
      "name": "Kanaka Lakshmi Narasimha Kisan Seva Kendra",
      "lat": 18.7883037,
      "lng": 78.2998298,
      "address": "5-8 Nizamabad To, Nizamabad - Koratla Road, Suresh Nagar Colony, Nizamabad",
      "open_now": null
    },
    {
      "place_id": "ChIJmc9ua96_zTsRM_R4lqGYnqA",
      "name": "Bharat Petroleum, Petrol Pump -Sri Laxmi Filling Station",
      "lat": 18.8139659,
      "lng": 78.3177278,
      "address": "PERKIT MAHILAPRANGANAM, NIZAMABAD",
      "open_now": true
    },
    {
      "place_id": "ChIJoXRyZI-_zTsREWw59gja6xQ",
      "name": "Hindustan Petroleum Corporation Limited",
      "lat": 18.7830254,
      "lng": 78.30074599999999,
      "address": "Survey No 110, near Raja Ramesh Theatre, NH 7, Hyderabad Nagpur Road, Mamidipally, Armur",
      "open_now": true
    },
    {
      "place_id": "ChIJS79jh3PAzTsR5K5OWy8fLko",
      "name": "IndianOil",
      "lat": 18.788794,
      "lng": 78.28946599999999,
      "address": "Ground Floor NH 16, Ankapur",
      "open_now": true
    },
    {
      "place_id": "ChIJ4agA8DrBzTsRiH_WB5w4XKY",
      "name": "Bharat Petroleum, Petrol Pump -Mohd. Saleh & Co.,",
      "lat": 18.7899094,
      "lng": 78.28783399999999,
      "address": "SY NO 431/3, Armur",
      "open_now": true
    },
    {
      "place_id": "ChIJV8aQAtPBzTsRn7eWxUHpEAM",
      "name": "Kanka Lakshmi Narasimha Kisan Seva Kendra",
      "lat": 18.7823719,
      "lng": 78.2873877,
      "address": "5-7, Morthad Villege Road, Suresh Colony, Morthad",
      "open_now": null
    },
    {
      "place_id": "ChIJYfvwYYPBzTsRKIXVftBOYlc",
      "name": "NAVANATHA FILLING STATION",
      "lat": 18.7865725,
      "lng": 78.2841993,
      "address": "National Highway 63, Armur",
      "open_now": true
    },
    {
      "place_id": "ChIJr2H263-_zTsRcDU96VY3nxE",
      "name": "IndianOil",
      "lat": 18.769634,
      "lng": 78.294339,
      "address": "Ground Floor, Ankapur",
      "open_now": true
    },
    {
      "place_id": "ChIJp9gcTrbrzTsRWZSZ9B17-cw",
      "name": "IndianOil",
      "lat": 18.821154,
      "lng": 78.2839515,
      "address": "No 815/1/2, Pipri",
      "open_now": true
    },
    {
      "place_id": "ChIJww7W-WXBzTsRKY_8QOhMzxs",
      "name": "M/s Balaji Filling Station, Mamidipally ,Armoor",
      "lat": 18.7660617,
      "lng": 78.2913725,
      "address": "Q78R+CGH, National Highway 44, Armur",
      "open_now": true
    },
    {
      "place_id": "ChIJtfJAYP7BzTsRfVo1ArMy9s4",
      "name": "IndianOil",
      "lat": 18.765555,
      "lng": 78.29043899999999,
      "address": "Mamidipally, Ground Floor NH 7, Armur",
      "open_now": true
    },
    {
      "place_id": "ChIJ3ayKwz--zTsRi1kPtcmAphk",
      "name": "IndianOil",
      "lat": 18.799876,
      "lng": 78.360463,
      "address": "Sy No 561/36, Karimnagar - Nizamabad Road, Akloor, Armur",
      "open_now": true
    },
    {
      "place_id": "ChIJb7ohvB2_zTsRaTf07K-a_9E",
      "name": "IndianOil",
      "lat": 18.757656,
      "lng": 78.337203,
      "address": "Ground Floor, Gajulpet, Govindpet",
      "open_now": true
    },
    {
      "place_id": "ChIJ9ZBIJvbFzTsRT-aRP7i-Nk0",
      "name": "IndianOil",
      "lat": 18.623718,
      "lng": 78.187086,
      "address": "Sy No 430, Chakarnpalli, A & 431/Aa, Nizamabad",
      "open_now": true
    },
    {
      "place_id": "ChIJGxqwEsTIzTsRS1_8u62RBHo",
      "name": "IndianOil - 7th BATTALION FILLING STATION",
      "lat": 18.5948384,
      "lng": 78.2186018,
      "address": "Dichpally",
      "open_now": true
    },
    {
      "place_id": "ChIJmYqmdd3IzTsRYASTrcHhaDg",
      "name": "SARANG AUTOLINES BPCL BHARAT",
      "lat": 18.587881,
      "lng": 78.22359999999999,
      "address": "BPCL PETROL PUMP, SURVEY NO. 449E DICHPALLI, Nizamabad",
      "open_now": true
    },
    {
      "place_id": "ChIJa6hf6bLIzTsRsX-YTcj1KbU",
      "name": "IndianOil",
      "lat": 18.6110833,
      "lng": 78.2039444,
      "address": "APSP Camp, Sy No 235 Nadipally, Dichpally, Nizamabad",
      "open_now": true
    },
    {
      "place_id": "ChIJd5CtgQbGzTsR6jzoTvxtd_k",
      "name": "IndianOil",
      "lat": 18.633186,
      "lng": 78.207645,
      "address": "Survey No 652/A, Suddapalli",
      "open_now": true
    },
    {
      "place_id": "ChIJP-a0e9nFzTsRifu-1txZKY0",
      "name": "RAGAVA Enterprises Bharat Petroleum & CNG",
      "lat": 18.6246909,
      "lng": 78.1870275,
      "address": "Nadipalli, Nadepalle",
      "open_now": true
    },
    {
      "place_id": "ChIJ5xZGWMPIzTsRWbACEmAuOrs",
      "name": "Hindustan Petroleum Corporation Limited",
      "lat": 18.5912821,
      "lng": 78.2202623,
      "address": "Survey No 452, NH 7, hoi, Dichpally",
      "open_now": true
    },
    {
      "place_id": "ChIJEe0DwL7FzTsRJaQTnLkRD9w",
      "name": "KABS AUTOLINES HPCL",
      "lat": 18.63591659999999,
      "lng": 78.1775729,
      "address": "Dichpally",
      "open_now": true
    },
    {
      "place_id": "ChIJ8Ryxi-DIzTsRE6GshgJGcsk",
      "name": "IndianOil - Jagat Pran Service Station",
      "lat": 18.5830677,
      "lng": 78.2248238,
      "address": "Sy no:- 187, NH :- 44, Bibipur",
      "open_now": true
    },
    {
      "place_id": "ChIJNb8gHIPFzTsRV7LOxTFym3c",
      "name": "Hindustan Petroleum Corporation Limited",
      "lat": 18.6362076,
      "lng": 78.17703,
      "address": "Survey No 741/2, 741/5, Dichpally - Nizamabad Road, Bardipur",
      "open_now": true
    },
    {
      "place_id": "ChIJDx2eKWzGzTsRBl0A9Jq44Yc",
      "name": "Hindustan Petroleum Corporation Limited",
      "lat": 18.6539604,
      "lng": 78.2168724,
      "address": "Survey No 567/Ru, Hyderabad Nagpur Road NH 44, Dichpalle, Mentrajpalle",
      "open_now": true
    },
    {
      "place_id": "ChIJxz4awh3LzTsRWELWSpQzH34",
      "name": "Hindustan Petroleum Corporation Limited",
      "lat": 18.485673,
      "lng": 78.2189267,
      "address": "Survey No, 644/A, Gadkole Sirikonda Road, Aa/E/Ee, Sirikonda",
      "open_now": true
    },
    {
      "place_id": "ChIJr4lZutnLzTsRzidDhRTH1GM",
      "name": "Hindustan Petroleum Corporation Limited",
      "lat": 18.5202357,
      "lng": 78.2336849,
      "address": "Survey No 777, NH 44, Hyderabad Nagpur Road, Gannaram",
      "open_now": true
    },
    {
      "place_id": "ChIJsxvONDfLzTsRr7Gu5uQsHOk",
      "name": "CNG station Bharat Petroleum, Petrol Pump and CNG Station - Sri Vijaya Durga Filling Station",
      "lat": 18.4493217,
      "lng": 78.230249,
      "address": "B/W DICHPALLY TO KAMREDDY, NIZAMABAD",
      "open_now": true
    },
    {
      "place_id": "ChIJYZxkENc0zDsRa_WEB_bQ0w0",
      "name": "IndianOil",
      "lat": 18.4304848,
      "lng": 78.2439004,
      "address": "IOC Petrol Pump, GANDHARI X ROAD, Kamareddy",
      "open_now": true
    },
    {
      "place_id": "ChIJD3IZNmY1zDsRxOZD4QDb3mY",
      "name": "BPCL Sri Sai Sevalal Fs,Padmajawadi x road",
      "lat": 18.4289225,
      "lng": 78.2361411,
      "address": "C6HP+HF6, Padmajiwadi",
      "open_now": true
    },
    {
      "place_id": "ChIJcz7lUz_LzTsRl3_7O5YXGmY",
      "name": "IOC Petrol Pump",
      "lat": 18.4306262,
      "lng": 78.2333743,
      "address": "Gandhari x roads, Padmajiwadi",
      "open_now": true
    },
    {
      "place_id": "ChIJofC9Vk_LzTsRRsbP3OieJnE",
      "name": "Hindustan Petroleum Corporation Limited",
      "lat": 18.4489309,
      "lng": 78.2291889,
      "address": "Survey No 2, NH 44, Hyderabad Nagpur Road, Kolwaral",
      "open_now": true
    },
    {
      "place_id": "ChIJ4wOAYzHLzTsRdbv9xTYXoIM",
      "name": "Hindustan Petroleum Corporation Limited",
      "lat": 18.4489309,
      "lng": 78.2291889,
      "address": "Survey No 2, NH 44, Hyderabad Nagpur Road, Kolwaral",
      "open_now": true
    },
    {
      "place_id": "ChIJ____vzrLzTsRyekFd_4vqcA",
      "name": "IndianOil",
      "lat": 18.45249799999999,
      "lng": 78.2283901,
      "address": "Survey No 11/2A Kammajiwadi, Sadashivnagar",
      "open_now": true
    },
    {
      "place_id": "ChIJj6uJy_dJzDsRHXoI3oXiMes",
      "name": "Kanaka Durga Bharat CNG Petrol bunk",
      "lat": 18.3493866,
      "lng": 78.30721779999999,
      "address": "Tekriyal",
      "open_now": null
    },
    {
      "place_id": "ChIJl7GppA9KzDsR5g0cKkwx1tU",
      "name": "Hindustan Petroleum Corporation Limited",
      "lat": 18.3639864,
      "lng": 78.3026838,
      "address": "922, Survey No 917A, AA/E & 918, Hyderabad Nagpur Road, Adloor Yellareddy",
      "open_now": true
    },
    {
      "place_id": "ChIJQa0q86hJzDsRknpkShoia6c",
      "name": "IndianOil",
      "lat": 18.31564639999999,
      "lng": 78.3354298,
      "address": "Ground Floor, Kamareddy",
      "open_now": true
    },
    {
      "place_id": "ChIJDxaPJABJzDsRVPnlcWs138c",
      "name": "Go gas auto LPG",
      "lat": 18.3431251,
      "lng": 78.3127713,
      "address": "88V7+43Q, Tekriyal",
      "open_now": null
    },
    {
      "place_id": "ChIJaYIEhAxJzDsR4iqCbAx-YYM",
      "name": "Hindustan Petroleum Corporation Limited",
      "lat": 18.3427775,
      "lng": 78.31213559999999,
      "address": "No 131/4/3 & 131/4/2/1, Old NH 7, Elichpur",
      "open_now": true
    },
    {
      "place_id": "ChIJ4d2rm5dJzDsRYsrbVmSXV2A",
      "name": "IndianOil",
      "lat": 18.330607,
      "lng": 78.3263801,
      "address": "Ground Floor, Adloor",
      "open_now": true
    },
    {
      "place_id": "ChIJY08_zXJJzDsRIYjT8z-xc54",
      "name": "CNG &BPCL Rani jahlkari fuel station",
      "lat": 18.3242714,
      "lng": 78.3119158,
      "address": "State Highway 11, Kamareddy",
      "open_now": true
    },
    {
      "place_id": "ChIJ_9FUUjFJzDsRTygxA4tR7_o",
      "name": "Bharat petroleum",
      "lat": 18.3392471,
      "lng": 78.345917,
      "address": "Neat, Kamareddy - Ramareddy Road, Gumasta Colony, Adloor",
      "open_now": true
    },
    {
      "place_id": "ChIJafdZntNJzDsRw1V2RRJStR0",
      "name": "IndianOil",
      "lat": 18.3229815,
      "lng": 78.30830879999999,
      "address": "Survey No 138, 2/2, Devanpally, Ambarpet",
      "open_now": true
    },
    {
      "place_id": "ChIJoRyqhEJJzDsR71a6fF8XdEg",
      "name": "IndianOil",
      "lat": 18.319391,
      "lng": 78.327293,
      "address": "90/9A, 90/7A, 92/3, 90/8A, 93/A, 94/1A, Lingapur",
      "open_now": true
    },
    {
      "place_id": "ChIJwy2vFh9JzDsRApEHIctLwEo",
      "name": "Hindustan Petroleum Corporation Limited",
      "lat": 18.3198819,
      "lng": 78.3313067,
      "address": "Survey No 753, Nizamsagar Road, Kamareddy",
      "open_now": true
    },
    {
      "place_id": "ChIJpViFIq1JzDsRli_eFz19Jts",
      "name": "IndianOil",
      "lat": 18.326188,
      "lng": 78.34244199999999,
      "address": "Ground Floor, Adloor",
      "open_now": true
    },
    {
      "place_id": "ChIJ7fIX_aZJzDsRuOXBclvajig",
      "name": "Santhosh BIKE POINT",
      "lat": 18.3207935,
      "lng": 78.3357302,
      "address": "88CP+879, Court Road, Vivekananda Colony, Ashok Nagar, Kamareddy",
      "open_now": null
    },
    {
      "place_id": "ChIJrXGd_CdJzDsR-iqJ50OKlMo",
      "name": "Hindustan Petroleum Corporation Limited",
      "lat": 18.3175001,
      "lng": 78.33490640000001,
      "address": "Ground Floor, Hyderabad Road, Nagpur",
      "open_now": true
    },
    {
      "place_id": "ChIJM9ulYclJzDsRloaitJRu4dY",
      "name": "Nayara energy",
      "lat": 18.3258533,
      "lng": 78.34845980000001,
      "address": "Sircilla Road, Kamareddy",
      "open_now": true
    },
    {
      "place_id": "ChIJswRnkwdJzDsRs-BEAhD6OiE",
      "name": "Chiranjeevi Voraganti",
      "lat": 18.3265909,
      "lng": 78.3524822,
      "address": "Srivalli Petrol Pump, Sircilla Road, Kamareddy",
      "open_now": null
    },
    {
      "place_id": "ChIJyQCHihNJzDsRfyW5_Xyiljk",
      "name": "M/S Srivalli Fuel Point Bharat Petroleum Corporation Limited",
      "lat": 18.3260191,
      "lng": 78.3558752,
      "address": "89G4+C92, Rameswarpalle",
      "open_now": true
    },
    {
      "place_id": "ChIJL6KzXp5JzDsRtXxoyjC-Fk4",
      "name": "SRI LAXMI NARASIMHA FILLING STATION",
      "lat": 18.3185127,
      "lng": 78.3508719,
      "address": "S Y No 439, Palwancha Palwancha, Kamareddy",
      "open_now": null
    },
    {
      "place_id": "ChIJgbUh1BVJzDsRFJlHycrKc5Q",
      "name": "IndianOil",
      "lat": 18.324717,
      "lng": 78.358996,
      "address": "Ground Floor, Adloor",
      "open_now": true
    },
    {
      "place_id": "ChIJW1QQAgBJzDsRF5wpNEDmzoU",
      "name": "SRIMANTHFUELSTATION INDIAN OIL PETROL PUMP ⛽️",
      "lat": 18.3241488,
      "lng": 78.3616979,
      "address": "89F6+MM4, Sircilla Road, Rameswarpalle",
      "open_now": null
    },
    {
      "place_id": "ChIJ6YhMaC1EzDsRCRZ6Szunn8Q",
      "name": "Jio Petrol Pump",
      "lat": 18.2142383,
      "lng": 78.3945499,
      "address": "697V+MRV, Anthampalle",
      "open_now": true
    },
    {
      "place_id": "ChIJ2_6A9fNFzDsRL72N2XIym-4",
      "name": "IndianOil",
      "lat": 18.2294188,
      "lng": 78.3868445,
      "address": "SY No 873 / 874, Bhiknoor",
      "open_now": true
    },
    {
      "place_id": "ChIJayJz4jxEzDsRQuQWgf7zAA4",
      "name": "IndianOil",
      "lat": 18.1955035,
      "lng": 78.3974671,
      "address": "Ground Floor, Bhiknoor, Anthampalle",
      "open_now": true
    },
    {
      "place_id": "ChIJTf9an-xFzDsRCa4dUwT_GM8",
      "name": "Hindustan Petroleum Corporation Limited",
      "lat": 18.19044969999999,
      "lng": 78.39944899999999,
      "address": "Survey No 1174, Bus Stand, near TSRTC, 1241 & 1242/A, TSRTC, Bhiknoor",
      "open_now": true
    },
    {
      "place_id": "ChIJrbjgZABFzDsRq6n1lNKJdM8",
      "name": "Sri Lahari and sons fuel station",
      "lat": 18.1860781,
      "lng": 78.3981799,
      "address": "59PX+C7M, Bhiknoor",
      "open_now": null
    },
    {
      "place_id": "ChIJdQwRVHpFzDsRNd0YxTaCGv0",
      "name": "IndianOil",
      "lat": 18.2508046,
      "lng": 78.4269326,
      "address": "Ground Floor, Domakonda, Nizamabad",
      "open_now": true
    },
    {
      "place_id": "ChIJ4edIvP1DzDsRUoqNbgLDRNU",
      "name": "Bharat Petroleum",
      "lat": 18.115227,
      "lng": 78.4066129,
      "address": "4C84+3J, Akkannapet",
      "open_now": null
    },
    {
      "place_id": "ChIJ4f24U3RDzDsRZL7BaBIm2Gs",
      "name": "Hindustan Petroleum Corporation Limited",
      "lat": 18.1189384,
      "lng": 78.4289651,
      "address": "Ground Floor, NH 7, Ramayampet",
      "open_now": true
    },
    {
      "place_id": "ChIJmcE7tQlDzDsRQh3UzTNavGk",
      "name": "IndianOil",
      "lat": 18.128253,
      "lng": 78.425162,
      "address": "Ground Floor, Ramayampet, Siddipet",
      "open_now": true
    },
    {
      "place_id": "ChIJo6vyvqtDzDsRXTliPCV7sVg",
      "name": "Shailaja Filling Station",
      "lat": 18.1283906,
      "lng": 78.42548719999999,
      "address": "4CHG+955, National Highway 44",
      "open_now": true
    },
    {
      "place_id": "ChIJIYYKxCBDzDsRznY1O5xFaXM",
      "name": "Hindustan Petroleum Corporation Limited",
      "lat": 18.114437,
      "lng": 78.40229099999999,
      "address": "35/AA/1, 35, No 35/A1/1, AA2/1 & 35/E2/1, Akkannapet",
      "open_now": true
    },
    {
      "place_id": "ChIJUdRoUQpDzDsRN6TkvWgi-5M",
      "name": "M.S.R Filling Station",
      "lat": 18.1159098,
      "lng": 78.44302569999999,
      "address": "4C8V+95, Ramayampet",
      "open_now": true
    },
    {
      "place_id": "ChIJr-9itOFDzDsRL60cUWgL3-Q",
      "name": "Bharat Petroleum Petrol Pump , PABBA GALAIAH",
      "lat": 18.1423832,
      "lng": 78.4170194,
      "address": "958, A AND 959BHIKNUR, 957/1, Kamareddy",
      "open_now": true
    },
    {
      "place_id": "ChIJqZ1Jw4VCzDsR2zkp6KP2WXk",
      "name": "Bharat Petroleum, Petrol Pump -Sri Jai Hanuman Filling Station",
      "lat": 18.0880603,
      "lng": 78.4361983,
      "address": "RAMAYANPET, Medak",
      "open_now": true
    },
    {
      "place_id": "ChIJMW-hE91CzDsRYF7vVA2BolI",
      "name": "IndianOil",
      "lat": 18.116081,
      "lng": 78.45408700000002,
      "address": "Sy No 487/A, 487, Aa & 488/E, Siddipet - Ramayampet Road, Bhumpally",
      "open_now": true
    },
    {
      "place_id": "ChIJF7QYVL9ozDsRs0EYYgdaky0",
      "name": "Hindustan Petroleum Corporation Limited",
      "lat": 18.0035666,
      "lng": 78.4526875,
      "address": "Survey No 17, AA Vallur, Chegunta",
      "open_now": true
    },
    {
      "place_id": "ChIJA7GWfUNpzDsR6QAw6sOecds",
      "name": "IndianOil",
      "lat": 18.006067,
      "lng": 78.451717,
      "address": "Survey No 305 NH 44, Narsing, Vallur, Chegunta",
      "open_now": true
    },
    {
      "place_id": "ChIJKQp80FhpzDsRjCaKx03r9kg",
      "name": "Nnn",
      "lat": 18.0302507,
      "lng": 78.4340036,
      "address": "2CJM+3H, Vallabhapur",
      "open_now": null
    },
    {
      "place_id": "ChIJx6M1n35pzDsRAC0QU8nYGe4",
      "name": "Shiva Linga Filling Station",
      "lat": 18.0304409,
      "lng": 78.4333825,
      "address": "2CRH+4G, Narsingi",
      "open_now": true
    },
    {
      "place_id": "ChIJ97e-Zv9ozDsRFQMo9n-Zdks",
      "name": "Hindustan Petroleum Corporation Limited",
      "lat": 18.031019,
      "lng": 78.433791,
      "address": "Survey No, 609 & 610, Vallabhapur",
      "open_now": true
    },
    {
      "place_id": "ChIJJZnFrfVvzDsRAJXFJvCqUAI",
      "name": "IndianOil",
      "lat": 17.984776,
      "lng": 78.458435,
      "address": "Sy No 469/A1/A2470/C NH 7, Chegunta, Chandampet",
      "open_now": true
    },
    {
      "place_id": "ChIJX6sqokxvzDsR58y7OEIIF-A",
      "name": "IndianOil",
      "lat": 17.983469,
      "lng": 78.4582971,
      "address": "Sy No 475, NH 7, Reddipally",
      "open_now": true
    },
    {
      "place_id": "ChIJ7dAi_eVpzDsRRCTyeX4yWO4",
      "name": "IndianOil",
      "lat": 17.984573,
      "lng": 78.420732,
      "address": "Sy No 305, Aa Shankarampet, Gavalpally",
      "open_now": true
    },
    {
      "place_id": "ChIJy246Iu1vzDsR3XhF4ZLZHJ0",
      "name": "Goel Fuel Station | BPCL - Petrol & CNG",
      "lat": 17.9148797,
      "lng": 78.4614158,
      "address": "MASAIPET",
      "open_now": true
    },
    {
      "place_id": "ChIJc35ZxJBvzDsRX3RyCaAkSJo",
      "name": "Hindustan Petroleum Corporation Limited",
      "lat": 17.9260317,
      "lng": 78.45907799999999,
      "address": "Survey No 166, NH 7, Masaipet",
      "open_now": true
    },
    {
      "place_id": "ChIJaZRLUglwzDsR2CNhoA4ybk4",
      "name": "Hindustan Petroleum Corporation Limited",
      "lat": 17.87643569999999,
      "lng": 78.46976889999999,
      "address": "Survey No179 & 179A, Nagulapally",
      "open_now": true
    },
    {
      "place_id": "ChIJH1SqBu5vzDsRJpDafSfWKsg",
      "name": "Hindustan Petroleum Corporation Limited",
      "lat": 17.9101601,
      "lng": 78.46346009999999,
      "address": "Survey No 163, Yeldurthy, Masaipet",
      "open_now": true
    },
    {
      "place_id": "ChIJk3Da1pBvzDsRa8UfWLaejjU",
      "name": "HPCL PETROL PUMP SRI SANTOSH FUEL POINT",
      "lat": 17.9251114,
      "lng": 78.458316,
      "address": "Near, Chegunta",
      "open_now": true
    },
    {
      "place_id": "ChIJgfd70HFvzDsRrEu9HTe1bgo",
      "name": "IndianOil",
      "lat": 17.950595,
      "lng": 78.460495,
      "address": "Ground Floor Chandampet, Wadiaram, Chegunta",
      "open_now": true
    },
    {
      "place_id": "ChIJ3XCFfQB3zDsRIs2VcKZPD8I",
      "name": "Hindustan Petroleum Corporation Limited",
      "lat": 17.7731282,
      "lng": 78.4686603,
      "address": "Survey No 68, AA Tupran, Manoharabad",
      "open_now": true
    },
    {
      "place_id": "ChIJ4V7HFpt3zDsRV6ssKSASd4s",
      "name": "SREE PRAKASH BIO FUELS",
      "lat": 17.76642069999999,
      "lng": 78.46809019999999,
      "address": "S YO 412, MANDAL, Manoharabad",
      "open_now": true
    },
    {
      "place_id": "ChIJMz_tuDR7zDsR8o5Q_5hkb_4",
      "name": "Hindustan Petroleum Corporation Limited",
      "lat": 17.8226206,
      "lng": 78.48260669999999,
      "address": "Ground Floor, Toopran to, SH 17, Doulatabad - Gajwel Road, Tupran, Allapoor",
      "open_now": true
    },
    {
      "place_id": "ChIJbQp4Cnl5zDsRWUxvQ8Yk6F8",
      "name": "Hindustan Petroleum Corporation Limited",
      "lat": 17.757578,
      "lng": 78.477155,
      "address": "Survey No 382, Wargal Road, Manoharabad, Dandupally",
      "open_now": true
    },
    {
      "place_id": "ChIJZ4KY3At7zDsRhdg5bshV2Fw",
      "name": "IndianOil",
      "lat": 17.8327907,
      "lng": 78.4770602,
      "address": "Sy No 471, A & 472/A, Tupran, Medak",
      "open_now": true
    },
    {
      "place_id": "ChIJXdqoGodwzDsRNiT23fp7VDo",
      "name": "Bharat Petroleum, Petrol Pump -Sheethal Kishore,",
      "lat": 17.83324069999999,
      "lng": 78.476761,
      "address": "TOOPRAN TOWN, MEDAK",
      "open_now": true
    },
    {
      "place_id": "ChIJlVptzRdxzDsRTSGsouuKk5g",
      "name": "Hindustan Petroleum Corporation Limited",
      "lat": 17.82143079999999,
      "lng": 78.4386075,
      "address": "Survey No 172/E, Venkatapur(B)",
      "open_now": true
    },
    {
      "place_id": "ChIJbTuM6-hwzDsRiZi2phxibnA",
      "name": "Bharat Petroleum G Gangaram Filling Station",
      "lat": 17.8257895,
      "lng": 78.4428037,
      "address": "Venkatapuram patti, Narsapur-Tupran Rd, Brahmanapalle",
      "open_now": true
    },
    {
      "place_id": "ChIJxcYH7qhxzDsRdlKPEPa7-00",
      "name": "Toopran Indizel Fuel Station",
      "lat": 17.8375147,
      "lng": 78.47092119999999,
      "address": "RFQC+293, Tupran",
      "open_now": false
    },
    {
      "place_id": "ChIJ1zx4y-CHyzsR_t7-p2Yhrgs",
      "name": "IndianOil",
      "lat": 17.6857963,
      "lng": 78.4806859,
      "address": "Survey No, 161/C, National Highway 44, Medchal, Yellampet",
      "open_now": true
    },
    {
      "place_id": "ChIJxbvN_z2PyzsRlKwuqyg6E_k",
      "name": "Hindustan Petroleum Corporation Limited",
      "lat": 17.6772205,
      "lng": 78.4897885,
      "address": "Survey No, LU Gandimaisamma, 485/RU & 485, Medchal Road, Goudavalli",
      "open_now": true
    },
    {
      "place_id": "ChIJ28W8xI-HyzsRkR5JL4ryB9k",
      "name": "Hindustan Petroleum Corporation Limited",
      "lat": 17.698506,
      "lng": 78.507352,
      "address": "Survey No 1/A4, 2, Mulug",
      "open_now": true
    },
    {
      "place_id": "ChIJ9w-VoWWHzDsRVGqHzQ2LPL0",
      "name": "Hindustan Petroleum Corporation Limited",
      "lat": 17.6772205,
      "lng": 78.4897885,
      "address": "Gajwel, Survey No 504, Pragnaur, Medak",
      "open_now": true
    },
    {
      "place_id": "ChIJV1UBExiGyzsR7O3Y-0Xrsbg",
      "name": "Bharat Petroleum COCO Petrol & CNG Pump, BP Medchal",
      "lat": 17.6644381,
      "lng": 78.48894390000001,
      "address": "ATTIVELLI, Secunderabad",
      "open_now": true
    },
    {
      "place_id": "ChIJQQgdFQCJyzsRfOtYdEu7NMw",
      "name": "Sri Lakshmi Narasimha filling station konaipally",
      "lat": 17.691322,
      "lng": 78.4553013,
      "address": "MFR4+G4F, Konaipalle",
      "open_now": null
    },
    {
      "place_id": "ChIJh6kktPd3zDsR_mFuHRuWNjc",
      "name": "IndianOil",
      "lat": 17.7211821,
      "lng": 78.4735512,
      "address": "Survey No, 416/E, National Highway 44, Manoharabad",
      "open_now": true
    },
    {
      "place_id": "ChIJrbWbixOHyzsRBg76K5qEIAY",
      "name": "Home",
      "lat": 17.6428884,
      "lng": 78.4859122,
      "address": "JFVP+5CP, Medchal, Secunderabad",
      "open_now": null
    },
    {
      "place_id": "ChIJS_VbH5yHyzsRZhAB-CRiVPE",
      "name": "Hindustan Petroleum Corporation Limited",
      "lat": 17.6427278,
      "lng": 78.4857689,
      "address": "Survey No, 296 & 296/P, Athvelly, Secunderabad",
      "open_now": true
    },
    {
      "place_id": "ChIJD2y_sIeEyzsRBg9L9X9vz1k",
      "name": "IndianOil",
      "lat": 17.570841,
      "lng": 78.557824,
      "address": "Sy No 88/P, Thumkunta, Shamirpet, Nisa Hakimpet, Thumukunta, Secunderabad",
      "open_now": true
    },
    {
      "place_id": "ChIJiStZM4mDyzsRTAXP5VMLc-g",
      "name": "IndianOil",
      "lat": 17.588468,
      "lng": 78.571646,
      "address": "Sy No 1212/A, Shamirpet Thumkunta, Shamirpet Road, Ankireddipalli",
      "open_now": true
    },
    {
      "place_id": "ChIJY9UCCIuDyzsRWgbK-R5uol0",
      "name": "Bharath Petroleum Sindhoor Enterprises Shamirpet",
      "lat": 17.593114,
      "lng": 78.56967780000001,
      "address": "Shamirpet, Secunderabad",
      "open_now": true
    },
    {
      "place_id": "ChIJUVca4ZGGyzsRLvQs7v4B1FI",
      "name": "Hindustan Petroleum Corporation Limited",
      "lat": 17.6332932,
      "lng": 78.5319016,
      "address": "Survey No 64EE, Shamirpet Medchal Road, Raja Bollaram",
      "open_now": true
    },
    {
      "place_id": "ChIJ8yVa9umFyzsR3FmGfIBn3gM",
      "name": "Bhagya Nagar Gas Limited Hyderabad",
      "lat": 17.5970168,
      "lng": 78.5445277,
      "address": "HGWV+RR3, Shamirpet, Secunderabad",
      "open_now": true
    },
    {
      "place_id": "ChIJE70SulaFyzsR91X7ORFEkVI",
      "name": "IndianOil",
      "lat": 17.5932765,
      "lng": 78.51708060000001,
      "address": "Survey No 444, 3/2, Medchal, Pudur",
      "open_now": true
    },
    {
      "place_id": "ChIJZ0j2IACFyzsRPTmGz7GPMoA",
      "name": "Rajesh Raiy",
      "lat": 17.5986091,
      "lng": 78.5180245,
      "address": "HGX9+C6R, Munirabad",
      "open_now": null
    },
    {
      "place_id": "ChIJx7iQ3Y6EyzsRGb2MhcgWaVc",
      "name": "Yashwanth Filling Station",
      "lat": 17.5696814,
      "lng": 78.55628899999999,
      "address": "HH94+VGF, Shamirpet Road, Thumukunta, Secunderabad",
      "open_now": true
    },
    {
      "place_id": "ChIJ9bKykBmFyzsRx2ejKB53hNQ",
      "name": "IndianOil",
      "lat": 17.567238,
      "lng": 78.52632369999999,
      "address": "Sy no 406, Door no 2-113/406, E/2, Devarayamjal",
      "open_now": true
    },
    {
      "place_id": "ChIJJbkFxX-EyzsRxp-07hCgFFg",
      "name": "IndianOil",
      "lat": 17.5732901,
      "lng": 78.5641401,
      "address": "Sy No 174, Ethumkunta,Nisa Hakimpet, Thumukunta, Secunderabad",
      "open_now": true
    },
    {
      "place_id": "ChIJewpTTeWFyzsRPFZ52p8_kts",
      "name": "Shahi Kumar Services",
      "lat": 17.5611092,
      "lng": 78.5459389,
      "address": "Thumkunta,vyjayanthi Services, Main Road, towards, Karimnagar",
      "open_now": null
    },
    {
      "place_id": "ChIJYR4uo2uFyzsRFJMArowpUx4",
      "name": "Hindustan Petroleum Corporation Limited",
      "lat": 17.5610187,
      "lng": 78.5459491,
      "address": "Survey No 362, SH 1, Hyderabad - Ramagundam Road, Shamirpet, Thumukunta, Secunderabad",
      "open_now": true
    },
    {
      "place_id": "ChIJW-vu4T-FyzsRJyNdURxawLo",
      "name": "IndianOil",
      "lat": 17.5598122,
      "lng": 78.5441235,
      "address": "Survey No 96, SH 1, Shamirpet Road, Hakimpet",
      "open_now": true
    },
    {
      "place_id": "ChIJF2xBdACFyzsRELLVO414pm4",
      "name": "Sri Lalitha Filling Station",
      "lat": 17.559786,
      "lng": 78.544095,
      "address": "HG5V+XQW, Devarayamjal",
      "open_now": null
    },
    {
      "place_id": "ChIJ-ROKloiGyzsRODElfMrsQLI",
      "name": "IndianOil",
      "lat": 17.6291301,
      "lng": 78.5247601,
      "address": "Survey No 27/C, Shamirpet, Pudur",
      "open_now": true
    },
    {
      "place_id": "ChIJI3Fipk6FyzsRnv1NpFGKB3k",
      "name": "Hindustan Petroleum Corporation Limited",
      "lat": 17.5455574,
      "lng": 78.5346698,
      "address": "Survey No 782, Hyderabad Karimnagar Road, SH 1, Shamirpet Road, Hakimpet",
      "open_now": true
    },
    {
      "place_id": "ChIJP3A4Qvd3yzsRxYfjGB3jpvs",
      "name": "IndianOil",
      "lat": 17.52738,
      "lng": 78.669144,
      "address": "Sy No 9, Keesara, Hyderabad",
      "open_now": true
    },
    {
      "place_id": "ChIJE9aJL_l3yzsRcPmBmVAb590",
      "name": "IndianOil",
      "lat": 17.5272743,
      "lng": 78.6694076,
      "address": "Sy No 367, Keesara, Hyderabad",
      "open_now": true
    },
    {
      "place_id": "ChIJOwlxrvF3yzsR0RRWuNp9JsM",
      "name": "Hindustan Petroleum Corporation Limited",
      "lat": 17.5226811,
      "lng": 78.6716481,
      "address": "Survey No 42, Ghatkesar Road, Keesara, Hyderabad",
      "open_now": true
    },
    {
      "place_id": "ChIJCfy8FDSdyzsR1DxpvhWt_Sc",
      "name": "HP PETROL PUMP - ADHOC VYJAYANTHI SERVICES",
      "lat": 17.525096,
      "lng": 78.629643,
      "address": "Cheeriyal Yadgarpalli Road, Keesara, Secunderabad",
      "open_now": true
    },
    {
      "place_id": "ChIJQZRwlG2dyzsR9TRxwIgq0q4",
      "name": "Hindustan Petroleum Corporation Limited",
      "lat": 17.525142,
      "lng": 78.6295122,
      "address": "Survey No 37 Keesara, Road Number 10, Cheeriyal",
      "open_now": true
    },
    {
      "place_id": "ChIJ2xvvRUGdyzsRjAY_pR7_6Xg",
      "name": "IndianOil",
      "lat": 17.5117392,
      "lng": 78.6389184,
      "address": "Survey No 122/3, A/A, opposite Vardhana School, Keesara, Cheriyal, Hyderabad",
      "open_now": true
    },
    {
      "place_id": "ChIJI8Cd30CdyzsRJnwy7d08pcs",
      "name": "Hindustan Petroleum Corporation Limited",
      "lat": 17.511211,
      "lng": 78.6369714,
      "address": "Survey No 125 Rampally, ECIL - Keesara Road, Keesara, Cheeriyal",
      "open_now": true
    },
    {
      "place_id": "ChIJcepog9uCyzsRIKEszfgrBpg",
      "name": "Hindustan Petroleum Corporation Limited",
      "lat": 17.5459672,
      "lng": 78.619627,
      "address": "Ground Floor Dharmaram, Keesara, Thimmaipalli",
      "open_now": true
    },
    {
      "place_id": "ChIJmYmSavx3yzsRQYdl6VgJtec",
      "name": "Indian Oil Corp. - Surya Filling Station",
      "lat": 17.5239483,
      "lng": 78.6612269,
      "address": "ECIL - Keesara Road, Keesara, Secunderabad",
      "open_now": true
    },
    {
      "place_id": "ChIJZy1V8wiDyzsREkU0lPP9_GE",
      "name": "Bharat Petroleum, Petrol Pump -Farhan Filling Station",
      "lat": 17.5468663,
      "lng": 78.61520449999999,
      "address": "THIMMAYAPALLI, RANGA REDDY",
      "open_now": true
    },
    {
      "place_id": "ChIJ37Zwg32dyzsRhSMUDCunYxk",
      "name": "DOMINION PETROL SERVICE",
      "lat": 17.5039633,
      "lng": 78.6257688,
      "address": "Bharat Petroleum Chemical Village, Medchal, Ghatkesar",
      "open_now": true
    },
    {
      "place_id": "ChIJnf97sn13yzsRtgAPm4e2BM4",
      "name": "Bharat Petroleum Petrol Pump , SHIVA SHANKARA FILLING STATION",
      "lat": 17.531021,
      "lng": 78.67102799999999,
      "address": "SY NO. 23/AA & 24/EE KEESARA VILL, Keesara",
      "open_now": true
    },
    {
      "place_id": "ChIJ6-aFcwB3yzsRcbGIiEV7UJM",
      "name": "Indian oil Petrol pump",
      "lat": 17.5001947,
      "lng": 78.65848539999999,
      "address": "FMX5+XFV, Dayara Rd, Rampally, Secunderabad",
      "open_now": null
    },
    {
      "place_id": "ChIJA_FpkLSdyzsRZ6NXnH7GWFU",
      "name": "Hindustan Petroleum Corporation Limited",
      "lat": 17.499371,
      "lng": 78.6150292,
      "address": "Survey No, 46 & 47, ECIL - Keesara Road, Nagaram, Secunderabad",
      "open_now": true
    },
    {
      "place_id": "ChIJlVdaYiqdyzsRd4miL1KJ6pQ",
      "name": "Veera Puncher Shop",
      "lat": 17.499706,
      "lng": 78.614344,
      "address": "Ranga Reddy, Electronics Corporation Of India Limited, 1, ECIL - Keesara Rd, Stella Nagaram, Dammaiguda, , Secund Baldalaguda",
      "open_now": null
    },
    {
      "place_id": "ChIJN1CBy355yzsRtgE-z4ZlC-Q",
      "name": "IndianOil",
      "lat": 17.542265,
      "lng": 78.676836,
      "address": "Sy No 816, Keesara, Ankireddypalli, Hyderabad",
      "open_now": true
    },
    {
      "place_id": "ChIJmeDQeMmdyzsREoVh4RoFmv4",
      "name": "Sadhula",
      "lat": 17.4981907,
      "lng": 78.6100618,
      "address": "Shop 13rampally, Hp Petrol Pump, Rampally X Road, Secunderabad",
      "open_now": null
    },
    {
      "place_id": "ChIJo8a1cyOdyzsReyYi1uP4Xns",
      "name": "Mazhar Ahmed Khan",
      "lat": 17.4982684,
      "lng": 78.6093973,
      "address": "Road No 10, Bandlaguda",
      "open_now": null
    },
    {
      "place_id": "ChIJezoPIc-dyzsRnwyVeWGbBdc",
      "name": "Yadalaxmi Filling Station BPCl",
      "lat": 17.4975599,
      "lng": 78.6101201,
      "address": "6th Phase K.P.H.B, Kundanpally, Secunderabad",
      "open_now": null
    },
    {
      "place_id": "ChIJo9TaWnR2yzsRFyC7MBeeJlQ",
      "name": "Hindustan Petroleum Corporation Limited",
      "lat": 17.4431496,
      "lng": 78.68301989999999,
      "address": "Survey No 513, NH 202, Hyderabad - Warangal Highway, Ghatkesar",
      "open_now": true
    },
    {
      "place_id": "ChIJp4G3pxSeyzsRrmu5fK2BK9E",
      "name": "Hindustan Petroleum Corporation Limited",
      "lat": 17.41898089999999,
      "lng": 78.6350214,
      "address": "Survey No 40, Ghatkesar Road, Narepally, Hyderabad",
      "open_now": true
    },
    {
      "place_id": "ChIJY_5cNgB1yzsRdovtSIOPjkg",
      "name": "Hindustan Petroleum Corporation Limited",
      "lat": 17.4076537,
      "lng": 78.65734839999999,
      "address": "Ground Floor Narapally, Korremula Road, Korremula, Hyderabad",
      "open_now": true
    },
    {
      "place_id": "ChIJiW8fj_11yzsR2Yb_rs6UIys",
      "name": "Bharat Petroleum",
      "lat": 17.4371615,
      "lng": 78.6638189,
      "address": "India",
      "open_now": null
    },
    {
      "place_id": "ChIJHfmDQGt3yzsRdftg_Ysjk30",
      "name": "G M BPCL SERVICE STATION",
      "lat": 17.4422999,
      "lng": 78.68254379999999,
      "address": "SY NO 513, NH 202(NEW NO 165)GHATKESAR VILLAGE & MANDAL",
      "open_now": true
    },
    {
      "place_id": "ChIJ0UClVR6RyzsRh22qBDivDS0",
      "name": "IndianOil",
      "lat": 17.4302553,
      "lng": 78.6526289,
      "address": "Sy No 97, 98, Nh 202, Hyderabad",
      "open_now": true
    },
    {
      "place_id": "ChIJJ6qAa653yzsRKwENtfc2lTE",
      "name": "Dhiraj Petrol Pump",
      "lat": 17.4422091,
      "lng": 78.6961726,
      "address": "Iqbal Manzil, Bokkoniguda",
      "open_now": null
    },
    {
      "place_id": "ChIJ45izQAx2yzsRefTvEVE9vzg",
      "name": "IndianOil",
      "lat": 17.4462899,
      "lng": 78.67544889999999,
      "address": "Ghatkesar Road, Ghatkesar",
      "open_now": true
    },
    {
      "place_id": "ChIJGdXBK0h1yzsRQD3Z3GmWExg",
      "name": "IndianOil",
      "lat": 17.423508,
      "lng": 78.71294800000001,
      "address": "Sy No 5 Edulabad, Ghatkesar, Ankireddipalli",
      "open_now": true
    },
    {
      "place_id": "ChIJWzFTB0ifyzsRqaElAJwWiec",
      "name": "Hindustan Petroleum Corporation Limited",
      "lat": 17.42788509999999,
      "lng": 78.6488652,
      "address": "H No 13/5, S No 713/1, Yadav Nagar, Hyderabad",
      "open_now": true
    },
    {
      "place_id": "ChIJUcSwqR6fyzsRncFXk6ugOkQ",
      "name": "Hindustan Petroleum Corporation Limited",
      "lat": 17.4363633,
      "lng": 78.6540835,
      "address": "Survey No 13/E/1, Infosys Campus Main Rd Pocharam, Annojiguda, Ghatkesar",
      "open_now": true
    },
    {
      "place_id": "ChIJxTX63wx2yzsRJc3UyDhdvw8",
      "name": "IndianOil",
      "lat": 17.4477422,
      "lng": 78.678107,
      "address": "No 9/169 NH 202, Main Road, Warangal Rd, Ghatkesar",
      "open_now": true
    },
    {
      "place_id": "ChIJMS6ZtUt3yzsRc5FH_fBVXqw",
      "name": "Bharat petrol pump",
      "lat": 17.4472072,
      "lng": 78.688092,
      "address": "CMWQ+V6P, Edulabad Main Road, Ghatkesar",
      "open_now": true
    },
    {
      "place_id": "ChIJU38mNByfyzsRYIWY4_bFgks",
      "name": "Sri Chakra Transport - BPCL Retail Outlet",
      "lat": 17.4225923,
      "lng": 78.64072940000001,
      "address": "Korremula, Hyderabad",
      "open_now": true
    },
    {
      "place_id": "ChIJNTag_Ex1yzsRBQr3KqsUaX8",
      "name": "IndianOil",
      "lat": 17.408686,
      "lng": 78.723731,
      "address": "Survey No 151 Edulabad, Ghatkesar, Ankireddipalli",
      "open_now": true
    },
    {
      "place_id": "ChIJ8YbcV-J0yzsRyg5qNRIzIyY",
      "name": "Bharat Petroleum",
      "lat": 17.3793691,
      "lng": 78.704503,
      "address": "India",
      "open_now": null
    },
    {
      "place_id": "ChIJ_bfgqlt1yzsRN09zMx4g0mM",
      "name": "Rishit Fuels | BPCL",
      "lat": 17.3793715,
      "lng": 78.70454029999999,
      "address": "9PH3+H2W, Daira",
      "open_now": null
    },
    {
      "place_id": "ChIJQeweFpkKyzsR-v-zL93m01k",
      "name": "Hindustan Petroleum Corporation Limited",
      "lat": 17.3178485,
      "lng": 78.6643661,
      "address": "Survey No 233, Hyderabad - Vijayawada Highway, NH 9, Pedda Amberpet",
      "open_now": true
    },
    {
      "place_id": "ChIJ3Rp6dTwKyzsRoruUp4VbA3g",
      "name": "Indian Oil Petrol Bunk",
      "lat": 17.2689306,
      "lng": 78.6852139,
      "address": "Ramoji Film City, Ramoji Film City Main Road, Anajpur",
      "open_now": null
    },
    {
      "place_id": "ChIJMfCe-CGhyzsRNz6wG6CdoDc",
      "name": "Bharat Petroleum Koheda - Lakshmi Raja Petroleum",
      "lat": 17.2877155,
      "lng": 78.64713239999999,
      "address": "near Koheda, Koheda - Sanghi Road, near Koheda, X Road, Hyderabad",
      "open_now": true
    },
    {
      "place_id": "ChIJGyjCtZ4KyzsRDN-rM2ROfAY",
      "name": "DEF FILLING STATION",
      "lat": 17.3171882,
      "lng": 78.6622788,
      "address": "India",
      "open_now": null
    },
    {
      "place_id": "ChIJKZvRoXSgyzsRLEroKwcXhK0",
      "name": "IndianOil",
      "lat": 17.319815,
      "lng": 78.651276,
      "address": "Sy No 173, NH 9, Pedda Amberpet",
      "open_now": true
    },
    {
      "place_id": "ChIJEVVdAgALyzsRdaZEYaGhZZI",
      "name": "Enviro Fluids DEF/Ad Blue Filling station",
      "lat": 17.3167022,
      "lng": 78.66882389999999,
      "address": "8M89+MGP, Hyderabad - Vijayawada Highway, Pedda Amberpet",
      "open_now": true
    },
    {
      "place_id": "ChIJBVEhIooLyzsR8PDjtZXyOzw",
      "name": "Raju Maharaj",
      "lat": 17.3153188,
      "lng": 78.6710978,
      "address": "RAHU MAHARAJ Neellappalya",
      "open_now": null
    },
    {
      "place_id": "ChIJRfQxRtwLyzsRj3ba_4MJtpU",
      "name": "Indira Petroleum | BPCL",
      "lat": 17.3165951,
      "lng": 78.6697174,
      "address": "8M89+9V4, Pedda Amberpet",
      "open_now": null
    },
    {
      "place_id": "ChIJ48-ngYgLyzsR43oX0nsBJgQ",
      "name": "Indra Bharat Petroleum",
      "lat": 17.3166408,
      "lng": 78.6697564,
      "address": "12, Abdullapurmet, Pedda Amberpet",
      "open_now": null
    },
    {
      "place_id": "ChIJyQjex0QLyzsRV_N-UDaA6rU",
      "name": "Hindustan Petroleum Corporation Limited",
      "lat": 17.3156731,
      "lng": 78.67106629999999,
      "address": "11A, Haytaythnagar, Sy No 244,11B,12A, 12B, Hyderabad - Vijayawada Highway, Pedda Amberpet",
      "open_now": true
    },
    {
      "place_id": "ChIJWxz9r0gLyzsRifO3eSglwSc",
      "name": "IndianOil",
      "lat": 17.316302,
      "lng": 78.67122599999999,
      "address": "Ground Floor, NH 9, Hayatnagar, Pedda Amberpet",
      "open_now": true
    },
    {
      "place_id": "ChIJb5qtM8WhyzsR7XewW3mMzo0",
      "name": "RAJU PETROLEUM",
      "lat": 17.3220772,
      "lng": 78.64412910000001,
      "address": "Pedda Amberpet",
      "open_now": null
    },
    {
      "place_id": "ChIJG97dWhOgyzsRfFBOlDQQvQs",
      "name": "Hindustan Petroleum Corporation Limited",
      "lat": 17.3212422,
      "lng": 78.64025889999999,
      "address": "Sy 90/1 & 90/2, Hyderabad Vijayawada Rd NH 9, Hayatnagar, Pedda Amberpet",
      "open_now": true
    },
    {
      "place_id": "ChIJDTBqxvQLyzsRRCxKQIU7qeA",
      "name": "Sri Dhurga Matha Filling Station Bharat petroleum",
      "lat": 17.2742692,
      "lng": 78.6678647,
      "address": "7MF9+P45, Umer Khanguda",
      "open_now": null
    },
    {
      "place_id": "ChIJD4bVxhSgyzsR1sS1ygtr_Zs",
      "name": "Bharat Petroleum",
      "lat": 17.321365,
      "lng": 78.63827669999999,
      "address": "India",
      "open_now": null
    },
    {
      "place_id": "ChIJCW9CXAChyzsRewyWB0KnBbU",
      "name": "Rachakonda Filling Station BPCL",
      "lat": 17.3213391,
      "lng": 78.63821020000002,
      "address": "8JCQ+H59, Pedda Amberpet",
      "open_now": null
    },
    {
      "place_id": "ChIJTYd1hZGhyzsR20Y5yrg0klM",
      "name": "Petrol pump",
      "lat": 17.3214375,
      "lng": 78.63793749999999,
      "address": "8JCQ+H59, Hyderabad",
      "open_now": true
    },
    {
      "place_id": "ChIJ6wNKVwChyzsRIFEpNnUkdqI",
      "name": "Hyt-o-t014",
      "lat": 17.3220939,
      "lng": 78.6328056,
      "address": "8JCM+R4M, National Highway 65, Hyderabad",
      "open_now": null
    },
    {
      "place_id": "ChIJO9ufEQChyzsRsQkx1wEN1j4",
      "name": "HYT-O-T-015",
      "lat": 17.3217167,
      "lng": 78.6321583,
      "address": "8JCJ+CXF, Pedda Amberpet",
      "open_now": null
    },
    {
      "place_id": "ChIJqUNgpz-gyzsRhVxkG_Jtzjg",
      "name": "Hindustan Petroleum Corporation Limited",
      "lat": 17.3218501,
      "lng": 78.63137119999999,
      "address": "S No 645/1, Hayathnagar, Pedda Amberpet",
      "open_now": true
    },
    {
      "place_id": "ChIJr9SKxeWmyzsRKXWso8a1ZkU",
      "name": "Indian Oil",
      "lat": 17.2183933,
      "lng": 78.6027067,
      "address": "6J93+934, Bongloor",
      "open_now": true
    },
    {
      "place_id": "ChIJ29qZVP2myzsRdjpy5aukRrQ",
      "name": "Pavan Petroleum Port - HPCL CNG ALSO AVAILABLE",
      "lat": 17.21402,
      "lng": 78.6123289,
      "address": "opp. to SRI INDU COLLEGE OF ENGINEERING & TECHNOLOGY",
      "open_now": true
    },
    {
      "place_id": "ChIJbY7NwMCmyzsRWp8wD2TDLD8",
      "name": "Hindustan Petroleum Corporation Limited",
      "lat": 17.2244978,
      "lng": 78.5940636,
      "address": "Survey No 112/B, Bongluru Cross Road, SH19, Hyderabad - Nagarjuna Sagar Road, Ibrahimpatnam",
      "open_now": true
    },
    {
      "place_id": "ChIJV-LSnMWnyzsRgbhk6wKTLTs",
      "name": "IndianOil",
      "lat": 17.2134108,
      "lng": 78.6097115,
      "address": "Survey No 246/A, Mangalpalle",
      "open_now": true
    },
    {
      "place_id": "ChIJddUKh96nyzsRtWrXVO6eka0",
      "name": "Bharat Petroleum Petrol Pump , SAI INDHANAM (ADHOC)",
      "lat": 17.213313,
      "lng": 78.60970619999999,
      "address": "SY.NO.222/AA, SAGAR ROADBESIDE SRI INDU ENGG COLLEGE",
      "open_now": true
    },
    {
      "place_id": "ChIJp8m2WhunyzsR34m_PruKCQI",
      "name": "Hindustan Petroleum Corporation Limited",
      "lat": 17.2138429,
      "lng": 78.61118549999999,
      "address": "Survey No 54, Sri Indu college of engineering, SH 19, Nagarjuna Sagar Road, Sheriguda",
      "open_now": true
    },
    {
      "place_id": "ChIJl-OjjDmnyzsRJimjtgPmPxU",
      "name": "IndianOil",
      "lat": 17.21094009999999,
      "lng": 78.61666009999999,
      "address": "Survey No 214 & 215 Sheriguda, Ibrahimpatnam, Adibatla",
      "open_now": true
    },
    {
      "place_id": "ChIJCT0LcC2nyzsRxyKIWps99YI",
      "name": "Bharat Petroleum Petrol Pump , YCSR FILLING STATION",
      "lat": 17.2247388,
      "lng": 78.59482870000001,
      "address": "near Y CONVENTION HALL (AFTER ORR, Nagarjuna Sagar Road",
      "open_now": true
    },
    {
      "place_id": "ChIJo4hFev2nyzsRS4siHYVAsZE",
      "name": "SAI INDHANAM",
      "lat": 17.2201771,
      "lng": 78.58578399999999,
      "address": "Patelguda Road, Manneguda",
      "open_now": true
    },
    {
      "place_id": "ChIJM9jD316nyzsRVgRWqmKLBNA",
      "name": "Hindustan Petroleum Corporation Limited",
      "lat": 17.2325101,
      "lng": 78.589147,
      "address": "near Bongloor, Survey No 123/E Mangalpally Patelguda Road, near Bongloor, Cross Road, Ibrahimpatnam",
      "open_now": true
    },
    {
      "place_id": "ChIJychN8aKnyzsRdVzxT4W7lbU",
      "name": "Hindustan Petroleum Corporation Limited",
      "lat": 17.2325101,
      "lng": 78.589147,
      "address": "near Bongloor, Survey No 123/E Mangalpally Patelguda Road, near Bongloor, Cross Road, Ibrahimpatnam",
      "open_now": true
    },
    {
      "place_id": "ChIJqZs-ctKnyzsRUFid-yj6GzA",
      "name": "Hindustan Petroleum Corporation Limited",
      "lat": 17.240123,
      "lng": 78.612236,
      "address": "Survey No 217, Koheda Road, Ramdas Pally",
      "open_now": true
    },
    {
      "place_id": "ChIJ180_A4ShyzsRHuSDc05izVo",
      "name": "Rev R P Indian Oil Petrol Filling Station",
      "lat": 17.2496692,
      "lng": 78.5856258,
      "address": "6HXP+R5G, Hyderabad - Nagarjuna Sagar Road, Manneguda",
      "open_now": true
    },
    {
      "place_id": "ChIJuVroWi-hyzsR1AiZbxe2CL0",
      "name": "S Sudeep",
      "lat": 17.2496433,
      "lng": 78.5853348,
      "address": "Hyderabad - Nagarjuna Sagar Road, Manneguda",
      "open_now": null
    },
    {
      "place_id": "ChIJ977gMgChyzsRFHK6UV7PoOk",
      "name": "Sai Baba Filling Station Manneguda",
      "lat": 17.250909,
      "lng": 78.58632999999999,
      "address": "7H2P+P95, Pagoda Plaza Road, Manneguda",
      "open_now": null
    },
    {
      "place_id": "ChIJmYGR_i2nyzsRZRBHtd_oT7A",
      "name": "Hindustan Petroleum Corporation Limited",
      "lat": 17.194308,
      "lng": 78.6443718,
      "address": "D No, 7/70/1 SH 19, Nagarjuna Sagar Road, Ibrahimpatnam",
      "open_now": true
    },
    {
      "place_id": "ChIJOT5rK0qhyzsR0aX3I_ZakqE",
      "name": "Bharath Petrol Bunk",
      "lat": 17.2529419,
      "lng": 78.5860878,
      "address": "opposite RTA IBRAHIMPATNAM, mannegud petrol bunk, opposite RTA IBRAHIMPATNAM",
      "open_now": true
    }
  ]
}