{
  "city": "Salem",
  "state": "Tamil Nadu",
  "count": 197,
  "center": {
    "lat": 11.65,
    "lng": 78.1667
  },
  "pumps": [
    {
      "place_id": "ChIJV06XZEXkqzsR2KC8lAPW_iE",
      "name": "IndianOil",
      "address": "NH 544 Service Road, Chinnasiragapadi",
      "lat": 11.5808781,
      "lng": 78.0534148,
      "open_now": true
    },
    {
      "place_id": "ChIJv2hmOGrkqzsRrR39U33Gd6Y",
      "name": "IndianOil",
      "address": "SF No 9/3A1, Kadathur Agraharam",
      "lat": 11.5752873,
      "lng": 78.04056489999999,
      "open_now": true
    },
    {
      "place_id": "ChIJuTqtnq_vqzsRAYIeolT7980",
      "name": "IndianOil",
      "address": "Dasanaickenpatti",
      "lat": 11.6066327,
      "lng": 78.1462433,
      "open_now": true
    },
    {
      "place_id": "ChIJk97zJoXmqzsRZS1fLDOyoDI",
      "name": "IndianOil",
      "address": "Lock No 22013, Tiruchengode - Salem Main Road, Attayampatti",
      "lat": 11.5408163,
      "lng": 78.0545745,
      "open_now": true
    },
    {
      "place_id": "ChIJVzy37OXvqzsRodx0fu9w0oc",
      "name": "IndianOil",
      "address": "No 98A, Lock, 13017, Sankari Main Road, Kondalampatti, Salem",
      "lat": 11.631617,
      "lng": 78.12662499999999,
      "open_now": true
    },
    {
      "place_id": "ChIJe1IvquTvqzsRIchJpaH2Ahc",
      "name": "Indian Oil Corporation Limited and CNG Station",
      "address": "1st Sdloa Building 234 Bangalore, Bypass Road, Kondalampatti, Salem",
      "lat": 11.6360244,
      "lng": 78.1222812,
      "open_now": true
    },
    {
      "place_id": "ChIJqcoUp-TvqzsRJw8jFg3L4wU",
      "name": "Hindustan Petroleum Corporation Limited",
      "address": "near Bangalore Bypass Road, Ground Floor Ottal Karar Thottam, near Bangalore Bypass Road, Kondalampatti, Salem",
      "lat": 11.6359958,
      "lng": 78.1231976,
      "open_now": true
    },
    {
      "place_id": "ChIJF2O4EknvqzsR_Q_FyxQbOyE",
      "name": "Jio-bp",
      "address": "No 2/350, near Shanmuga Weigh Bridge, Sankari Main Road, Salem",
      "lat": 11.6342983,
      "lng": 78.1287033,
      "open_now": true
    },
    {
      "place_id": "ChIJP9TUtzbmqzsRVuHEFzv9pEI",
      "name": "IndianOil",
      "address": "S No 111/1A2 111/2B Vennanthur, Rasipuram",
      "lat": 11.5133024,
      "lng": 78.0929974,
      "open_now": true
    },
    {
      "place_id": "ChIJ-2BQu9DuqzsRe55_AwqS7uM",
      "name": "IndianOil",
      "address": "Ground Floor Adikarai, Rasipuram Road, Panamarathupatti",
      "lat": 11.5641953,
      "lng": 78.1631077,
      "open_now": true
    },
    {
      "place_id": "ChIJv_46xdDuqzsRUE_0T-8LSt0",
      "name": "Bharat Petroleum Petrol Pump , SREE SAKTHI VINAAYAGA AGENCIES",
      "address": "SANDHAI PETTAIPANAMATHUPATTI, Salem",
      "lat": 11.5630785,
      "lng": 78.1628368,
      "open_now": null
    },
    {
      "place_id": "ChIJyVy8H8_vqzsR_JicnqAEIyY",
      "name": "Bharat Petroleum, Petrol Pump - Sowdambiga Fuels",
      "address": "R.R. Complex, 3/53, Trichy Main Road, P M Nagar, Seelanaickenpatti, Salem",
      "lat": 11.6274048,
      "lng": 78.1477903,
      "open_now": true
    },
    {
      "place_id": "ChIJeUlY-s7vqzsR18MuFll0nMs",
      "name": "Total Gas Bunk E",
      "address": "1, 9, Trichy Main Road, R.S.P Thottam, M G R Nagar, Seelanaickenpatti, Salem",
      "lat": 11.628234,
      "lng": 78.1484753,
      "open_now": null
    },
    {
      "place_id": "ChIJ2XRkQwDlqzsRLkZnB1j1uYA",
      "name": "நாச்சி",
      "address": "H36R+P22, Sevanthampatti",
      "lat": 11.5619275,
      "lng": 78.09008539999999,
      "open_now": null
    },
    {
      "place_id": "ChIJIYNsU0DlqzsRPfL0P9f8b5U",
      "name": "RVC Fuels - HP Petrol Bunk",
      "address": "Ground Floor, opposite VSA College, Salem South, Salem",
      "lat": 11.5978901,
      "lng": 78.087841,
      "open_now": true
    },
    {
      "place_id": "ChIJ7UqnQQDlqzsR1v_aSzGlQ6Q",
      "name": "Hp petrol pump",
      "address": "NH544, Salem to, Kochi",
      "lat": 11.5991647,
      "lng": 78.0886189,
      "open_now": null
    },
    {
      "place_id": "ChIJh8mDWkjlqzsR33oC76hYAYY",
      "name": "Hindustan Petroleum Corporation Limited",
      "address": "No 182/3B, Veerapandi",
      "lat": 11.5882527,
      "lng": 78.076264,
      "open_now": true
    },
    {
      "place_id": "ChIJnSCHwWblqzsRvdWdUZ91HpQ",
      "name": "IndianOil",
      "address": "S No 140, 1140/3, Veerapandi",
      "lat": 11.5790926,
      "lng": 78.0742332,
      "open_now": true
    },
    {
      "place_id": "ChIJNZ-bXgDlqzsR4RmY6iaCeDs",
      "name": "SARASWATHI FUELS",
      "address": "3/349, Uthamasolapuram Main Road, Salem",
      "lat": 11.6052645,
      "lng": 78.09857889999999,
      "open_now": true
    },
    {
      "place_id": "ChIJTWvFPCjlqzsRrF08h3UVgKI",
      "name": "KR Fuels - Auto LPG Station - Uthamasolapuram",
      "address": "NTR Motors SF.No. 62-1C1(Part Uthamasolapuram, Kondalampatty Salem South Taluk, Salem",
      "lat": 11.6065722,
      "lng": 78.09692969999999,
      "open_now": true
    },
    {
      "place_id": "ChIJB5HfHXDlqzsRX-3_N8eMDws",
      "name": "Inn Oil",
      "address": "India",
      "lat": 11.6070069,
      "lng": 78.09835509999999,
      "open_now": null
    },
    {
      "place_id": "ChIJZeJSaevlqzsRc4mgF3btFo0",
      "name": "Bharat Petrol pump",
      "address": "4/190, Road, Poolavari, Neykkarapatti, Salem",
      "lat": 11.6081306,
      "lng": 78.10625979999999,
      "open_now": true
    },
    {
      "place_id": "ChIJd0gRsFLlqzsRyQwiMMHd_6k",
      "name": "Bharat Petroleum, Petrol Pump -Sri Anjaneya Fuels",
      "address": "NH-47, SIDCO,SALEM, Salem",
      "lat": 11.5879006,
      "lng": 78.06593649999999,
      "open_now": true
    },
    {
      "place_id": "ChIJNbWbyWDlqzsRwj7u2DnHvX8",
      "name": "NAYARA energy",
      "address": "1A Neikarappati, 54/2K, Salem",
      "lat": 11.6170392,
      "lng": 78.10554200000001,
      "open_now": true
    },
    {
      "place_id": "ChIJoelVJF7lqzsR6-Hth00SqSY",
      "name": "Bharat Petroleum",
      "address": "India",
      "lat": 11.6191611,
      "lng": 78.10706669999999,
      "open_now": null
    },
    {
      "place_id": "ChIJjW-MSPXvqzsREBLqhjUtDw4",
      "name": "KPN Fuels Highway Star",
      "address": "KPN Plaza Inn, NH 47, Neikarapatti Road, Kondalampatti, Salem",
      "lat": 11.6191492,
      "lng": 78.107282,
      "open_now": true
    },
    {
      "place_id": "ChIJM1hbSPXvqzsRDgbtFPzjRXE",
      "name": "KPN Fuel Service",
      "address": "J496+QRP, National Highway 544, Sandaipet, Kondalampatti, Salem",
      "lat": 11.6194735,
      "lng": 78.1120682,
      "open_now": true
    },
    {
      "place_id": "ChIJJZxxjjrvqzsRuR15jfmOc-Y",
      "name": "Hindustan Petroleum Corporation Limited",
      "address": "S No 66/2A Ammapalayam, Santhiyur",
      "lat": 11.5711128,
      "lng": 78.1420559,
      "open_now": true
    },
    {
      "place_id": "ChIJZWlb633vqzsR3Vgx6G7z5XQ",
      "name": "Bharat Petroleum COCO Company outlet - Mallur",
      "address": "281, Sandiyur Attayampatti",
      "lat": 11.5763279,
      "lng": 78.1441309,
      "open_now": true
    },
    {
      "place_id": "ChIJ3Sg2xhnvqzsRmdQshl3diTc",
      "name": "BPCL - RRK Hitech Petroleum Dealer",
      "address": "ATTAYAMPATTY, Santhiyur",
      "lat": 11.5786621,
      "lng": 78.14615169999999,
      "open_now": true
    },
    {
      "place_id": "ChIJu1IbzATvqzsR_rBILo7a4zA",
      "name": "NAYARA PETROL PUMP",
      "address": "panamarathupatty junction, Salem",
      "lat": 11.587166,
      "lng": 78.148916,
      "open_now": true
    },
    {
      "place_id": "ChIJuVKHoahhqTsR4FM7Pcx2luc",
      "name": "Hindustan Petroleum Corporation Limited",
      "address": "near Combined Court Premises, 102A, Sankari Main Road, Seetharamapalayam, Namakkal",
      "lat": 11.6260324,
      "lng": 78.1208049,
      "open_now": true
    },
    {
      "place_id": "ChIJw6IrjxzvqzsRdHkvp_jK2MU",
      "name": "IndianOil",
      "address": "Survey No 109, 4B, Gajjalnaickenpatti, Dasanaickenpatti",
      "lat": 11.5848728,
      "lng": 78.1515988,
      "open_now": true
    },
    {
      "place_id": "ChIJLaWJlVfnqzsRa36MgH4EkEM",
      "name": "IndianOil",
      "address": "S Y No 56/2A1, Ponparappipatti",
      "lat": 11.5305038,
      "lng": 78.11894749999999,
      "open_now": true
    },
    {
      "place_id": "ChIJS-jtz6jvqzsRdr0mwgyauFg",
      "name": "IndianOil",
      "address": "Lock No 1301522004, Nilavarapatti, Trichy Rd, Dasanaickenpatti",
      "lat": 11.6027944,
      "lng": 78.1474997,
      "open_now": true
    },
    {
      "place_id": "ChIJC5INb0bpqzsRvuKJQbmujF4",
      "name": "Bharat Petroleum, Sri Maruti Fuel",
      "address": "MALLUR, Salem",
      "lat": 11.5483992,
      "lng": 78.1442327,
      "open_now": true
    },
    {
      "place_id": "ChIJ8VfCheXvqzsR1gw4x3inmw4",
      "name": "Hindustan Petroleum Corporation Limited",
      "address": "Ground Floor, Kondalampatti, Salem",
      "lat": 11.631001,
      "lng": 78.12570099999999,
      "open_now": true
    },
    {
      "place_id": "ChIJw5S3HubvqzsR2pWI14FcHJQ",
      "name": "ESSAR",
      "address": "India",
      "lat": 11.6310468,
      "lng": 78.12908829999999,
      "open_now": null
    },
    {
      "place_id": "ChIJp2_pvVnvqzsRDAoTGW1rFKU",
      "name": "Hindustan Petroleum Corporation Limited",
      "address": "S No 37, 10C4B2 & 37, near Dhivyam Cinemax, 10C3, Amanikondalampatty, Salem",
      "lat": 11.6276469,
      "lng": 78.13466609999999,
      "open_now": true
    },
    {
      "place_id": "ChIJ7yvylsPnqzsRB0b4kxOR6H8",
      "name": "Bharat Petroleum, Petrol Pump -Sri Ganapathi Agencies",
      "address": "near KOLANDAGOUNDER TH, NAMAKKAL",
      "lat": 11.5213973,
      "lng": 78.0802812,
      "open_now": true
    },
    {
      "place_id": "ChIJU9VSSQDlqzsREmK-xmvrVtc",
      "name": "KPL FUELS",
      "address": "H2MM+5W, Salem",
      "lat": 11.5830242,
      "lng": 78.03407930000002,
      "open_now": true
    },
    {
      "place_id": "ChIJU7Xc8MToqzsROqKir5joCvY",
      "name": "IndianOil",
      "address": "No 3, Lock No, 12010, E Pethampatti, Komarapalayam",
      "lat": 11.5380479,
      "lng": 78.1425972,
      "open_now": true
    },
    {
      "place_id": "ChIJj4k6quTvqzsRwqH8JDu37Vw",
      "name": "IndianOil",
      "address": "SF No 131/2A1, No 5/1948, 2A2, Bangalore Bypass Road, Salem",
      "lat": 11.6362887,
      "lng": 78.1221024,
      "open_now": true
    },
    {
      "place_id": "ChIJjZRMVMLvqzsRP2CgIa-UDYw",
      "name": "IndianOil",
      "address": "SF No 44, KanagavallI, Amani Kondalampatti, 4A, Bypass Road, Salem",
      "lat": 11.628011,
      "lng": 78.136253,
      "open_now": true
    },
    {
      "place_id": "ChIJ5yIenlTvqzsRhO07TGYNfSM",
      "name": "KR Fuels - Auto LPG Station - Salem – Bangalore Bypass Road",
      "address": "No. 46 / 2B, 2C, 47 / 2B1 (Part, Bangalore Bypass Road, Amanikondalampatty, Salem",
      "lat": 11.6271162,
      "lng": 78.1383062,
      "open_now": true
    },
    {
      "place_id": "ChIJP9IoAe_vqzsRua055sVL3Cw",
      "name": "MS SREE ARASU AGENCY",
      "address": "24/9, Pachiamman Kovil Street, Thammanaickenpatty",
      "lat": 11.6258792,
      "lng": 78.14131119999999,
      "open_now": null
    },
    {
      "place_id": "ChIJKwSehqnvqzsRBrVOkOLvTsk",
      "name": "Hindustan Petroleum Corporation Limited",
      "address": "Ground Floor, Trichy Main Road, Seelanaickenpatti, Salem",
      "lat": 11.621801,
      "lng": 78.146501,
      "open_now": true
    },
    {
      "place_id": "ChIJK7_EbUbnqzsRrxe7mzmbDMU",
      "name": "IndianOil",
      "address": "Lock No 13009, Tiruchengode - Salem Main Road, Attayampatti",
      "lat": 11.5298374,
      "lng": 78.04688519999999,
      "open_now": true
    },
    {
      "place_id": "ChIJtV1aXQPwqzsRInZBsdZDPpk",
      "name": "Salem LOA Bunk",
      "address": "National Highway 44, Konerikarai, Kandhampatty",
      "lat": 11.6464538,
      "lng": 78.12090529999999,
      "open_now": true
    },
    {
      "place_id": "ChIJC3oFjsvvqzsRH7xiiPuJVy0",
      "name": "Hindustan Petroleum Corporation Limited",
      "address": "SF No 129/7A1, Bypass Road, Attur, M G R Nagar, Seelanaickenpatti, Dadagapatty",
      "lat": 11.6253169,
      "lng": 78.15246069999999,
      "open_now": true
    },
    {
      "place_id": "ChIJN308pGTxqzsRgYn5OngIpQE",
      "name": "K.M.BROTHERS FUEL & OIL",
      "address": "100, Salem - Kochi Highway, Konerikarai, Kandhampatty",
      "lat": 11.6473276,
      "lng": 78.1200544,
      "open_now": null
    },
    {
      "place_id": "ChIJKcH4nATwqzsRy6ANiBIYYCI",
      "name": "Bharat Petroleum",
      "address": "J4WC+W4J, Service Road, Salem",
      "lat": 11.6473436,
      "lng": 78.120267,
      "open_now": null
    },
    {
      "place_id": "ChIJPxDlrTzvqzsRhrzkzLupQnE",
      "name": "Hindustan Petroleum Corporation Limited",
      "address": "Ground Floor, Nethimedu, Salem",
      "lat": 11.640701,
      "lng": 78.135801,
      "open_now": true
    },
    {
      "place_id": "ChIJi5x9-zPuqzsR5N9O-dZIE1U",
      "name": "Samy Traders Bharat Petroleum",
      "address": "Salem - Ulundurpettai Highway, K R Nagar, Seelanaickenpatti, Salem",
      "lat": 11.6269064,
      "lng": 78.1618288,
      "open_now": true
    },
    {
      "place_id": "ChIJmdOp_jPuqzsRzhGqZDO1epY",
      "name": "IndianOil",
      "address": "RS No 153/2A12A2, Dadagapatti, Seelanaickenpatti, Salem",
      "lat": 11.6252667,
      "lng": 78.15642059999999,
      "open_now": true
    },
    {
      "place_id": "ChIJr62BZjPuqzsR0yLLMAxlBaM",
      "name": "RV Traders Bharat Petroleum",
      "address": "K R Nagar, Seelanaickenpatti, Salem",
      "lat": 11.6269227,
      "lng": 78.1582835,
      "open_now": true
    },
    {
      "place_id": "ChIJiwkJntXvqzsRxOoZC57iBZQ",
      "name": "A V PETROLEUM Petrol Bunk",
      "address": "27, Trichy Main Road, Karungalpatty, Gugai, Salem",
      "lat": 11.6418834,
      "lng": 78.1535438,
      "open_now": null
    },
    {
      "place_id": "ChIJnZJ__I_vqzsRjLBY27LopoE",
      "name": "Lpg",
      "address": "J5H8+M9G, National Highway 79, Attur, Salem",
      "lat": 11.629179,
      "lng": 78.1659675,
      "open_now": null
    },
    {
      "place_id": "ChIJoykhRSXuqzsRjdJmuFS-lyg",
      "name": "Hindustan Petroleum Corporation Limited",
      "address": "Survey No 29/4, Annamar, Muniyappan Kovil Street, Erumapalayam, Salem",
      "lat": 11.6344236,
      "lng": 78.159218,
      "open_now": true
    },
    {
      "place_id": "ChIJ4cmTpNbvqzsRsfLNfZOfVVw",
      "name": "Nayara Energy Petrol Bunk Kannammal Agency",
      "address": "2/1 B, NATIONAL HIGHWAY, Sanniyasigundu Road, PO, Salem",
      "lat": 11.6407893,
      "lng": 78.17403620000002,
      "open_now": true
    },
    {
      "place_id": "ChIJH4CBXrPpqzsR2_9RCIGI_uc",
      "name": "Rainbow Fuels NAYARA ENERGY LIMITED",
      "address": "Namakkal - Salem, Byepass",
      "lat": 11.5196834,
      "lng": 78.1491604,
      "open_now": true
    },
    {
      "place_id": "ChIJ8-9QvuPvqzsRvE4yMTDNw9w",
      "name": "Hindustan Petroleum Corporation Limited",
      "address": "Ward No AA, Block 14, Sy No 144/4, Trichy Branch Road, Salem",
      "lat": 11.6395459,
      "lng": 78.1461612,
      "open_now": true
    },
    {
      "place_id": "ChIJu5iiyJXvqzsRXjkTBZUz-JQ",
      "name": "THIRUMOORTHI LAKSHMANAN",
      "address": "148, South St, Periyar Colony, Gugai, Salem",
      "lat": 11.6397671,
      "lng": 78.14610069999999,
      "open_now": null
    },
    {
      "place_id": "ChIJy75ZWt_vqzsRA2XWB3Ymtbk",
      "name": "Hindustan Petroleum Corporation Limited",
      "address": "Ground Floor, near Kaliamman Kovil Street, 70/ B, Sankari Main Road, Nethimedu, Salem",
      "lat": 11.6418197,
      "lng": 78.13829849999999,
      "open_now": true
    },
    {
      "place_id": "ChIJUxfgqCDwqzsRdFjvcwTyxgg",
      "name": "A V M FUELS Bharat Petroleum",
      "address": "NETHIMEDU, SALEM, Salem",
      "lat": 11.6425336,
      "lng": 78.1387208,
      "open_now": true
    },
    {
      "place_id": "ChIJK8G5DdPxqzsRIMpbs-pJTgs",
      "name": "IndianOil",
      "address": "Ward J, Lock No IG 7118, Ts No 2/2A, Trichy Main Road, Salem",
      "lat": 11.650399,
      "lng": 78.158669,
      "open_now": true
    },
    {
      "place_id": "ChIJBWHKQc7sqzsRcgzNyUUtQ2E",
      "name": "Bharath Petrol Pump serngottaiyan agencies",
      "address": "Gajjalnaickenpatti - Seshanchavadi Road, Kammalapatti",
      "lat": 11.5908832,
      "lng": 78.2859695,
      "open_now": null
    },
    {
      "place_id": "ChIJxUbnXpD6qzsR3kvCKSS2X60",
      "name": "IndianOil",
      "address": "Steel Plant Road, Solampallam, Suramangalam, Salem",
      "lat": 11.673551,
      "lng": 78.1016331,
      "open_now": true
    },
    {
      "place_id": "ChIJOQTVVzrwqzsRA8UpiuYi-Vk",
      "name": "IndianOil",
      "address": "71/A, Leigh Bazar Road, Arisipalayam, Salem",
      "lat": 11.656488,
      "lng": 78.142601,
      "open_now": true
    },
    {
      "place_id": "ChIJk2HPAab6qzsRGj246BxB9aU",
      "name": "Hindustan Petroleum Corporation Limited",
      "address": "SF, No 106/3, Sivathapuram, Salem",
      "lat": 11.6521729,
      "lng": 78.1053475,
      "open_now": true
    },
    {
      "place_id": "ChIJAQtRxnjwqzsRe4vsPEG4Evg",
      "name": "IndianOil",
      "address": "SF No 103, 9A, Steel Plant Road, Ammapalyam, Salem",
      "lat": 11.679132,
      "lng": 78.112572,
      "open_now": true
    },
    {
      "place_id": "ChIJv4sWCHLwqzsRC_nebnZRHC0",
      "name": "Hindustan Petroleum Corporation Limited",
      "address": "RS No 17/2, Suramangalam Main Road, Bodinaickenpatti, Salem",
      "lat": 11.6687431,
      "lng": 78.1224278,
      "open_now": true
    },
    {
      "place_id": "ChIJzeCJLXnwqzsREtAiPlBHeXI",
      "name": "Hindustan Petroleum Corporation Limited",
      "address": "SF No 259, 2A3, Steel Plant Road, Rasi Nagar, Jagir Ammapalayam, Salem",
      "lat": 11.6802166,
      "lng": 78.1143919,
      "open_now": true
    },
    {
      "place_id": "ChIJyxzFv2rwqzsR3dqAj8SNLD4",
      "name": "Vijaya Auto LPG Station",
      "address": "23, Meyyanur Main Road, Meyyanur, Salem",
      "lat": 11.6659762,
      "lng": 78.1323225,
      "open_now": true
    },
    {
      "place_id": "ChIJOexKNjzwqzsR3uqcITwla_E",
      "name": "IndianOil",
      "address": "Ward No E8, TS No 20, 1B, Suramangalam Main Road, Pallapatti, Salem",
      "lat": 11.657941,
      "lng": 78.137024,
      "open_now": true
    },
    {
      "place_id": "ChIJ0d3nN4HwqzsR5g-BJ_cAxiA",
      "name": "Nayara Petrol Pump",
      "address": "S No.219/1 & Patta No.22, Village, Subbarayan Nagar, Jagir Ammapalayam, Salem",
      "lat": 11.690338,
      "lng": 78.115832,
      "open_now": true
    },
    {
      "place_id": "ChIJw2igboLwqzsR9HFv4TdHoFY",
      "name": "CNG FILLING STATION - Swarnambigai Fuel Service",
      "address": "near Radisson Hotel, S.F.NO.150/2A, National Highway 44, Ammapalayam",
      "lat": 11.6934495,
      "lng": 78.111788,
      "open_now": true
    },
    {
      "place_id": "ChIJSU20rBP7qzsRDRGwTqqYZ2k",
      "name": "Bharat Petrol Station",
      "address": "SALEM STEEL PLANT ROAD,MARAMANGALATHUPATTY, Salem",
      "lat": 11.6691737,
      "lng": 78.04565629999999,
      "open_now": true
    },
    {
      "place_id": "ChIJ4f8kCBP7qzsRSm1VrKf5kJs",
      "name": "Hindustan Petroleum Corporation Limited",
      "address": "Ground Floor, near Steel Plant, Steel Plant Road, Salem",
      "lat": 11.6683491,
      "lng": 78.0451882,
      "open_now": true
    },
    {
      "place_id": "ChIJc33-gEnwqzsRDTJjVwD_H7E",
      "name": "IndianOil",
      "address": "Lock No 13012, Ramakrishna Road, Salem",
      "lat": 11.667776,
      "lng": 78.150673,
      "open_now": true
    },
    {
      "place_id": "ChIJMR6G_1HwqzsRWuFTTMYVlHU",
      "name": "RUKMANI TRADERS Bharat Petrol Bunk",
      "address": "5, Sarada College Road, Ponnandigounder Nagar, LRN Colony, Hasthampatti, Salem",
      "lat": 11.6765049,
      "lng": 78.1506349,
      "open_now": true
    },
    {
      "place_id": "ChIJOTcm4crxqzsREr1Zp6G5PiI",
      "name": "Hindustan Petroleum Corporation Limited",
      "address": "Ground Floor, Cherry Road, Salem",
      "lat": 11.6629957,
      "lng": 78.1580609,
      "open_now": true
    },
    {
      "place_id": "ChIJ3XbpB83xqzsRiYP8xueQyK0",
      "name": "KSR & Co Bharat Petroleum Corporation Limited",
      "address": "Cherry Road, I Agraharam, Salem",
      "lat": 11.6565218,
      "lng": 78.1592665,
      "open_now": true
    },
    {
      "place_id": "ChIJV5GFQ03wqzsR2bCjFr6gA_Q",
      "name": "IndianOil",
      "address": "Lock No 22007, 22 A/36, Sarada College Road, Hasthampatti, Salem",
      "lat": 11.675845,
      "lng": 78.15551099999999,
      "open_now": true
    },
    {
      "place_id": "ChIJR8SzViVTqTsR3bliwL3F__U",
      "name": "HP PETROL PUMP - T.MANOHARAN",
      "address": "Mettur Dam, 24/160, East Street, Salem",
      "lat": 11.6769837,
      "lng": 78.1642924,
      "open_now": true
    },
    {
      "place_id": "ChIJidEntan7qzsR3UQxgOwzwOE",
      "name": "Bharat Petroleum Petrol Pump , AMMAN ARUL AGENCY",
      "address": "SIDDHAR KOVIL MAIN ROAD,PANANKADU, PO, Sivathapuram, Salem",
      "lat": 11.652826,
      "lng": 78.09916199999999,
      "open_now": true
    },
    {
      "place_id": "ChIJ00cyQAD7qzsRCcS-fLTB4-c",
      "name": "Inden Gase Agency",
      "address": "opposite Ayyannarapan Kovil, No 2/416, Siddhar Kovil Road, Sivathapuram, Salem",
      "lat": 11.6514981,
      "lng": 78.1069035,
      "open_now": null
    },
    {
      "place_id": "ChIJrfwrAcX6qzsRcap1tf19mck",
      "name": "IndianOil",
      "address": "Sy No 75/1, Vedukathampatti, Andipatti",
      "lat": 11.6534908,
      "lng": 78.0792926,
      "open_now": true
    },
    {
      "place_id": "ChIJ4xTF9wTwqzsR8aVKkpS9lHc",
      "name": "IndianOil",
      "address": "SF No 73/2, Siddharkoil Main Rd, Kandhampatty",
      "lat": 11.649049,
      "lng": 78.11928979999999,
      "open_now": true
    },
    {
      "place_id": "ChIJbZ5_dmHxqzsRmBRi_i9DAQs",
      "name": "Thirumalaivasan",
      "address": "Thirumalaivasan M, Kandhampatty",
      "lat": 11.649131,
      "lng": 78.11950879999999,
      "open_now": true
    },
    {
      "place_id": "ChIJEZzw-d3xqzsRRMcwvsWu13U",
      "name": "Thavasi",
      "address": "near RTO Office, Bypass, Kandhampatty",
      "lat": 11.6491499,
      "lng": 78.1196082,
      "open_now": null
    },
    {
      "place_id": "ChIJZaz-HgD7qzsRil58XXsqxFI",
      "name": "Aavin Indian oil bunk CNG BUNK",
      "address": "MDR439, Thalavaipatti, Sithanur, Salem",
      "lat": 11.670306,
      "lng": 78.085491,
      "open_now": null
    },
    {
      "place_id": "ChIJP_pI7oX6qzsReXTGGHsvHbU",
      "name": "IndianOil",
      "address": "S No 66/3, Mallamooppampatty, Salem",
      "lat": 11.678849,
      "lng": 78.100266,
      "open_now": true
    },
    {
      "place_id": "ChIJc7anBm3wqzsRC6dADGGggYs",
      "name": "SRI VARALAKSHMI FUELS",
      "address": "National Highway 44, Thiruva Kavundanur, Salem",
      "lat": 11.666564,
      "lng": 78.124665,
      "open_now": true
    },
    {
      "place_id": "ChIJL5vfII3xqzsR_R3VE-aN4Pc",
      "name": "Bharat Petroleum, Petrol Pump -Rowther & Co",
      "address": "Subramania Nagar, Suramangalam, Salem",
      "lat": 11.6725901,
      "lng": 78.12016870000001,
      "open_now": true
    },
    {
      "place_id": "ChIJJ9HbACTxqzsRyneflQX7vEo",
      "name": "KPNFUELSERVICE",
      "address": "SANKAGIRI, Main Road, Neikarapatti",
      "lat": 11.6769539,
      "lng": 78.11886230000002,
      "open_now": null
    },
    {
      "place_id": "ChIJi6qXV336qzsRcLsrrkUUh2Q",
      "name": "JKP Water Tank",
      "address": "M3PX+6X5, Sundhar Nagar, Old Suramangalam, Salem",
      "lat": 11.685511,
      "lng": 78.0999887,
      "open_now": null
    },
    {
      "place_id": "ChIJf5bn8zLxqzsRhY8VW2Dh8Mw",
      "name": "Mm car auto electricals",
      "address": "opposite 3 Rd, 6 jaya nagar petrol bunk, opposite 3 Rd, Mayanur, Meyyanur, Salem",
      "lat": 11.6663568,
      "lng": 78.13159759999999,
      "open_now": true
    },
    {
      "place_id": "ChIJtS1RaFrxqzsRjweltaOX8gM",
      "name": "Power gen Engineers",
      "address": "opp. Sivaraj Holiday Inn, No 15 sudarson Plaza, opp. Sivaraj Holiday Inn, Junction Main Road, Salem",
      "lat": 11.675568,
      "lng": 78.1266545,
      "open_now": true
    },
    {
      "place_id": "ChIJ0z-D-GXwqzsRW-XKoiGM7oM",
      "name": "IndianOil",
      "address": "Lock No 13011, Yercaud Main Road, Salem",
      "lat": 11.675472,
      "lng": 78.127136,
      "open_now": true
    },
    {
      "place_id": "ChIJ5Q8tkQHxqzsR95eiiBr1wyE",
      "name": "Hindustan Petroleum Corporation Limited",
      "address": "305, Suramangalam Main Road, Salem",
      "lat": 11.6590979,
      "lng": 78.1359212,
      "open_now": true
    },
    {
      "place_id": "ChIJbZoWKRjwqzsRsVvrIbd3BoA",
      "name": "IndianOil",
      "address": "449, Narasimman Road, Shevapet, Salem",
      "lat": 11.6515374,
      "lng": 78.138058,
      "open_now": true
    },
    {
      "place_id": "ChIJ8YUxNfvxqzsRGRwhsjkOGnM",
      "name": "AS Petroleum (Bharat Petroleum)",
      "address": "Steel Plant Road, Jagir Ammapalayam, Salem",
      "lat": 11.6842188,
      "lng": 78.1190713,
      "open_now": true
    },
    {
      "place_id": "ChIJjQ1W7fHxqzsRjR8ax2d3WG0",
      "name": "Hindustan Petroleum Corporation Limited",
      "address": "120, Cuddalore Main Road, Ammapet, Salem",
      "lat": 11.6608049,
      "lng": 78.19216519999999,
      "open_now": true
    },
    {
      "place_id": "ChIJ2yx9x6_xqzsR2CM83sKb_dA",
      "name": "Bharat Petroleum BP Petrol Bunk",
      "address": "Kannankurichi Main Road, Gurukkal Colony, Johnsonpet, Salem",
      "lat": 11.6783905,
      "lng": 78.1659436,
      "open_now": true
    },
    {
      "place_id": "ChIJB4utlR7yqzsRbSSlXjp26wY",
      "name": "IndianOil",
      "address": "Cuddalore Main Road, Ammapet, Salem",
      "lat": 11.6631471,
      "lng": 78.2062438,
      "open_now": true
    },
    {
      "place_id": "ChIJ737lzwbxqzsRwON27sKrA1A",
      "name": "IndianOil",
      "address": "No 5A, Lock, opposite Govt ITI, LG/7095, Yercaud Main Road, Salem",
      "lat": 11.691435,
      "lng": 78.162666,
      "open_now": true
    },
    {
      "place_id": "ChIJ1YtYstrxqzsRddbiv2I_mUg",
      "name": "Bharat Petroleum, Petrol Pump -K.S.K Agencies",
      "address": "Gorimedu",
      "lat": 11.6943469,
      "lng": 78.1633677,
      "open_now": true
    },
    {
      "place_id": "ChIJda9kSBbyqzsRdYxzL8U2MU0",
      "name": "Santhi Auto Agencies H P",
      "address": "NH 68, Udayapatti, Udayapati",
      "lat": 11.6661217,
      "lng": 78.2169183,
      "open_now": true
    },
    {
      "place_id": "ChIJ6Y8aOzDyqzsR3_Jv0Mvb4AY",
      "name": "IndianOil",
      "address": "SF No 228/1B, Sukkampatti, Kuyavan Kadu, Veeranam",
      "lat": 11.6808806,
      "lng": 78.2140879,
      "open_now": true
    },
    {
      "place_id": "ChIJPThkq0HyqzsRBGqx1lKC6kA",
      "name": "IndianOil",
      "address": "No 2/159, Masinaickenpatti, NH 68, Ulundurpet Rd, Salem",
      "lat": 11.6708049,
      "lng": 78.227997,
      "open_now": true
    },
    {
      "place_id": "ChIJ1VGaFVzxqzsR7Q5Zo_-XAio",
      "name": "Apps Trading Conpany V Market",
      "address": "No.3, Mel Bose Maithanam",
      "lat": 11.6519097,
      "lng": 78.16027079999999,
      "open_now": true
    },
    {
      "place_id": "ChIJ6YZxwCbxqzsRZMlDKDl2OZI",
      "name": "Hindustan Petroleum Corporation Limited",
      "address": "Ground Floor, V Market Road, Salem",
      "lat": 11.6541326,
      "lng": 78.1597453,
      "open_now": true
    },
    {
      "place_id": "ChIJ9_6fv7rxqzsR61eKG2sFAzA",
      "name": "IndianOil",
      "address": "Lock No 13013, 105, Salai Road, Salem",
      "lat": 11.6600766,
      "lng": 78.1691792,
      "open_now": true
    },
    {
      "place_id": "ChIJ-Q_bp8PxqzsRyOoBzeFiCS4",
      "name": "Bharat Petrol Pump",
      "address": "AMMAPET, Salem",
      "lat": 11.6578642,
      "lng": 78.1755968,
      "open_now": true
    },
    {
      "place_id": "ChIJTUusicbxqzsRhZvNPU8p8Z4",
      "name": "Hindustan Petroleum Corporation Limited",
      "address": "near Railway Gate, 33, Salai Road, Salem",
      "lat": 11.6612755,
      "lng": 78.17085809999999,
      "open_now": true
    },
    {
      "place_id": "ChIJg9lL6hPxqzsRiFU0yKt2HPc",
      "name": "Bharat Petroleum, Petrol Pump -Subramaniyam Pillai Traders",
      "address": "Maravaneri, Salem",
      "lat": 11.6620524,
      "lng": 78.1640554,
      "open_now": true
    },
    {
      "place_id": "ChIJg6jbf8vxqzsRuVxN3Hdnv4o",
      "name": "IndianOil",
      "address": "No 5, Lock No, 2008, Town Railway Station Road, Attur",
      "lat": 11.659937,
      "lng": 78.1589664,
      "open_now": true
    },
    {
      "place_id": "ChIJS_oGr8zxqzsRmL5GE-BIfCs",
      "name": "IndianOil",
      "address": "Ward No B, Block, TS No 9, 18, Bretts Road, I Agraharam, Salem",
      "lat": 11.659301,
      "lng": 78.156937,
      "open_now": true
    },
    {
      "place_id": "ChIJvcFzDjHwqzsRMe22ggosvE0",
      "name": "IndianOil",
      "address": "Lock No IG7103, PB No 910, Seetharam Road, Arisipalayam, Salem",
      "lat": 11.657359,
      "lng": 78.148842,
      "open_now": true
    },
    {
      "place_id": "ChIJvSBlTV_xqzsRmqbLN8dP_Ck",
      "name": "THE SALEM DISTRICT CONSUMERS COOPERATIVE WHOLESALE STORES LTD",
      "address": "Thammannan Road, Salem",
      "lat": 11.6570765,
      "lng": 78.14830169999999,
      "open_now": null
    },
    {
      "place_id": "ChIJZWG3nirxqzsR5Lx9Qw7nnDY",
      "name": "PONNI COOP SUPER MARKET",
      "address": "No.1, Chathiram, Salem",
      "lat": 11.6605453,
      "lng": 78.1482216,
      "open_now": null
    },
    {
      "place_id": "ChIJzwRYaQDxqzsRivYkTn_P-OE",
      "name": "ABIRAMI TRADERS",
      "address": "M52Q+3RG, National Highway 79, Salem",
      "lat": 11.6501968,
      "lng": 78.1895804,
      "open_now": null
    },
    {
      "place_id": "ChIJDxrRAC_xqzsRFUWlLABUpRI",
      "name": "VIHAL ENTERPRISES",
      "address": "70A/127,Bg Road, Sankari Main Road, Sandaipettai, Shevapet, Salem",
      "lat": 11.6515958,
      "lng": 78.14231029999999,
      "open_now": null
    },
    {
      "place_id": "ChIJ8crqhpLxqzsRg0JxbBh0pLA",
      "name": "IndianOil",
      "address": "No 4E Ward No, Ts 4, Door, C/20, Omalur Main Road, Swarnapuri, Salem",
      "lat": 11.664597,
      "lng": 78.145805,
      "open_now": true
    },
    {
      "place_id": "ChIJseNtyfTxqzsRCgyMlbUTHYQ",
      "name": "Bharat Petroleum, Petrol Pump -Sri Vari Fuels",
      "address": "Suramangalam Main Road, Salem",
      "lat": 11.6550517,
      "lng": 78.1404582,
      "open_now": true
    },
    {
      "place_id": "ChIJe4oOuRvxqzsRYCRhluj2ivQ",
      "name": "Hasthampatti roundana",
      "address": "M5G5+6VF, Sarada College Road, Hasthampatti, Salem",
      "lat": 11.6755524,
      "lng": 78.1596806,
      "open_now": null
    },
    {
      "place_id": "ChIJ1RxOejvwqzsR0T7e4UOLCbg",
      "name": "Hindustan Petroleum Corporation Limited",
      "address": "Ground Floor, Leigh Bazar Road, Arisipalayam, Salem",
      "lat": 11.6557701,
      "lng": 78.13985009999999,
      "open_now": true
    },
    {
      "place_id": "ChIJ9b82orLxqzsRyxTYXYNQOx8",
      "name": "Hindustan Petroleum Corporation Limited",
      "address": "Ground Floor, Cherry Road, Hasthampatti, Salem",
      "lat": 11.6762421,
      "lng": 78.1577181,
      "open_now": true
    },
    {
      "place_id": "ChIJ0ZXi74zyqzsRcGawnjYF9po",
      "name": "Hindustan Petroleum Corporation Limited",
      "address": "Ground Floor Ramalingapuram, Chinnakavundapuram",
      "lat": 11.6676951,
      "lng": 78.2552972,
      "open_now": true
    },
    {
      "place_id": "ChIJLxmsfAXzqzsRgBGehvHf-j8",
      "name": "Hindustan Petroleum Corporation Limited",
      "address": "S No 98/4B, Harur Main Road, Salem",
      "lat": 11.7030481,
      "lng": 78.25719289999999,
      "open_now": true
    },
    {
      "place_id": "ChIJXWNdzEWNqzsROWJDLwd3844",
      "name": "Sivasakthi Traders Bharat Petroleum",
      "address": "NH 68, Salem - Ulundurpettai Highway, Mettupatti",
      "lat": 11.6651091,
      "lng": 78.3072012,
      "open_now": true
    },
    {
      "place_id": "ChIJsS3XXwDzqzsRruBBB4uGsQQ",
      "name": "⛽ BHARAT PETROLEUM RADHAKRISHNAN ENERGY STATION RK BUNK",
      "address": "near Notre Dame School, 49, near Notre Dame School, Gundukallur, Udayapatti, Salem",
      "lat": 11.6609495,
      "lng": 78.2188049,
      "open_now": true
    },
    {
      "place_id": "ChIJxQroH3jvqzsR8GQLkJ8z7rM",
      "name": "SHRI SIVASAKTHI FUELS",
      "address": "Sy. No 8/1C, Attur Main Road, Udayapatti, Salem",
      "lat": 11.6661782,
      "lng": 78.21692709999999,
      "open_now": true
    },
    {
      "place_id": "ChIJzdnBbgDzqzsRJBpW-GYhRk0",
      "name": "Satheesh Fuel Point(Bharat petroleum)",
      "address": "M6GX+G7F, Vazhapadi",
      "lat": 11.6763197,
      "lng": 78.248161,
      "open_now": true
    },
    {
      "place_id": "ChIJWQcxKBnyqzsR6BR_5fbWZFU",
      "name": "Reliance Petroleum",
      "address": "18/13A1 & 38/1A2 & 38/1B, Attur Main Road, Adhikarippatty, Udayapatti, Salem",
      "lat": 11.665701,
      "lng": 78.2099901,
      "open_now": true
    },
    {
      "place_id": "ChIJP51pXv3zqzsRVXWm8rQwXes",
      "name": "Nayara Fuel Station - Shanmugam Traders",
      "address": "Shanmugam Traders, 223/1A2, 223/1B, Vazhapadi",
      "lat": 11.665485,
      "lng": 78.26524839999999,
      "open_now": true
    },
    {
      "place_id": "ChIJxXpCBgDzqzsRFo9cO62mB_A",
      "name": "MANIMEKALAI FUEL PARK",
      "address": "CHENNAI HIGHWAY, Salem",
      "lat": 11.6661403,
      "lng": 78.26788189999999,
      "open_now": true
    },
    {
      "place_id": "ChIJTxEV8irzqzsR0iGMMtjwP9M",
      "name": "Bharat Petroleum, Petrol Pump -R R K Fuels",
      "address": "Veeranam, Salem",
      "lat": 11.67748,
      "lng": 78.210398,
      "open_now": true
    },
    {
      "place_id": "ChIJJ0OfegDxqzsRUtG5c64f0yg",
      "name": "Hindustan Petroleum Corporation Limited",
      "address": "Ground Floor, Block No 29, Ward AL, Ammapet, Salem",
      "lat": 11.653256,
      "lng": 78.1969889,
      "open_now": true
    },
    {
      "place_id": "ChIJN1m1ff_yqzsRQ6nYFDjq_MU",
      "name": "Bharat Petroleum - SRI MR Raahgul Agencies - BPCL",
      "address": "M6QX+83P, State Highway 18, Salem",
      "lat": 11.688344,
      "lng": 78.2477036,
      "open_now": null
    },
    {
      "place_id": "ChIJMyncd4nxqzsRVUBO0sV9bQ8",
      "name": "Hindustan Petroleum Corporation Limited",
      "address": "SF No 144, 4A & 1444C, Thathampatty Road, Allikuttai, Salem",
      "lat": 11.6735873,
      "lng": 78.19916649999999,
      "open_now": true
    },
    {
      "place_id": "ChIJJYoCJlHzqzsRcvF_pu1TclQ",
      "name": "IndianOil",
      "address": "SF No 31, 4A, Belur, Vazhapadi, Minnampalli",
      "lat": 11.686043,
      "lng": 78.2691801,
      "open_now": true
    },
    {
      "place_id": "ChIJEzp1LyLzqzsRJb45f8ejWBM",
      "name": "Nayara Petrol bunk",
      "address": "P63W+868, Pallipatti Road, Valasaiyur",
      "lat": 11.7032829,
      "lng": 78.2455821,
      "open_now": true
    },
    {
      "place_id": "ChIJdwnfU3aNqzsRr2izuV1tjQY",
      "name": "Hindustan Petroleum Corporation Limited",
      "address": "S No 126/4A2B, Valapadi, Karumapuram",
      "lat": 11.664571,
      "lng": 78.29938299999999,
      "open_now": true
    },
    {
      "place_id": "ChIJjQ4qaiuNqzsRIgG5OgMZG14",
      "name": "IndianOil",
      "address": "S No 10, 4 5A, Agrahara Nattamangalam",
      "lat": 11.6890336,
      "lng": 78.2947331,
      "open_now": true
    },
    {
      "place_id": "ChIJ3eJwWXpzqzsRRQFEYGKTXR8",
      "name": "IndianOil",
      "address": "SF No 3/3, Iluppanatham, Salem",
      "lat": 11.6862584,
      "lng": 78.17395599999999,
      "open_now": true
    },
    {
      "place_id": "ChIJJ2OVGSz6qzsRXL-IvMptQoA",
      "name": "IndianOil",
      "address": "Lock No 13019, near Govt College of Engg, Kottagoundampatti, Salem",
      "lat": 11.722192,
      "lng": 78.07035499999999,
      "open_now": true
    },
    {
      "place_id": "ChIJQwwbYRz6qzsRLN_Nl8Ybyac",
      "name": "IndianOil",
      "address": "SF No 193/3, Omalur, Chettichavadi, Karuppur",
      "lat": 11.7257542,
      "lng": 78.0962538,
      "open_now": true
    },
    {
      "place_id": "ChIJyUL9K_r5qzsRz1-9E27rpvY",
      "name": "Hindustan Petroleum",
      "address": "",
      "lat": 11.7361857,
      "lng": 78.10191929999999,
      "open_now": true
    },
    {
      "place_id": "ChIJhS-rffz4qzsRQ_gv6csygo0",
      "name": "BHARAT PETROL BUNK",
      "address": "Omalur Taluk NH-7, Bangalore Main Road, Salem",
      "lat": 11.7759534,
      "lng": 78.0558503,
      "open_now": true
    },
    {
      "place_id": "ChIJGVSCGn_7qzsRNf09aOqET40",
      "name": "Bharat Petroleum Petrol Pump",
      "address": "Karuppur",
      "lat": 11.7117052,
      "lng": 78.0927083,
      "open_now": true
    },
    {
      "place_id": "ChIJ4zsIF2r7qzsRYT20S0dfWfU",
      "name": "Bharat Petroleum - TVS Dealership",
      "address": "P36Q+67P, Saminaickenpatti, Salem",
      "lat": 11.7105804,
      "lng": 78.0882058,
      "open_now": null
    },
    {
      "place_id": "ChIJbVtEzQX7qzsR2Ui4h1HEqCg",
      "name": "Bharat Petroleum sri Bharathi Agency",
      "address": "Service Road, Vellakalpatti, Salem",
      "lat": 11.7029796,
      "lng": 78.1009007,
      "open_now": true
    },
    {
      "place_id": "ChIJ3wpHq1_7qzsRUTk54FnxIis",
      "name": "AD BLUE / DEF OIL DISPENSER",
      "address": "Bharat petroleum, Dalmia Board, to, banglore highway, Vellakalpatti, Salem",
      "lat": 11.7028483,
      "lng": 78.10078089999999,
      "open_now": null
    },
    {
      "place_id": "ChIJkxQkC4X7qzsRAEkhO_zBYCA",
      "name": "Nayara Petrol Bunk - Shri Nalli Agencies",
      "address": "P433+8JX, Vellakalpatti, Salem",
      "lat": 11.7032566,
      "lng": 78.104227,
      "open_now": true
    },
    {
      "place_id": "ChIJe_YghkT5qzsR5Iy4c0KmuAw",
      "name": "ESSAR PETROLEUM, Fuel Station, Vellalapatti",
      "address": "P4W2+85W, Salem",
      "lat": 11.7458514,
      "lng": 78.10045749999999,
      "open_now": null
    },
    {
      "place_id": "ChIJV31Jk-X5qzsRjZc1fWUwCEw",
      "name": "Raajam Fuels",
      "address": "P4W2+86R, Unnamed Road, Vellalapatti",
      "lat": 11.7458585,
      "lng": 78.1005186,
      "open_now": true
    },
    {
      "place_id": "ChIJ1w0MwTv7qzsRt2zcbaMo9I0",
      "name": "Nayara Fuels - Jothi Murugan fuels Dealer",
      "address": "Bus Stop, Narayanampalayam Pirivu Road, Mattukaranoor Road, Venkaynoor, Karuppur",
      "lat": 11.725722,
      "lng": 78.0668786,
      "open_now": true
    },
    {
      "place_id": "ChIJnbrkGy3xqzsRp8LQaymQiTs",
      "name": "IndianOil",
      "address": "Ground Floor, Jagir Ammapalayam, A.Ayyamperumalpatti",
      "lat": 11.6933065,
      "lng": 78.1119042,
      "open_now": true
    },
    {
      "place_id": "ChIJLSvNDs35qzsRT7yCK5SgofM",
      "name": "IndianOil",
      "address": "No 143/1B1143/3A, Omalur, Chettichavadi, Vellalapatti",
      "lat": 11.7496926,
      "lng": 78.10476280000002,
      "open_now": true
    },
    {
      "place_id": "ChIJ3ezsqnX5qzsR8bqiKTGSmyc",
      "name": "Hindustan Petroleum Corporation Limited",
      "address": "No 44, 3/A/2/A, Vellalapatti",
      "lat": 11.7531763,
      "lng": 78.10236450000001,
      "open_now": true
    },
    {
      "place_id": "ChIJdcrRi8_xqzsRwIKTbPeoQ-o",
      "name": "MANI PUREGAS DISTRIBUTORZ (LPG) / Aegis Puregas(LPG) Dealer.",
      "address": "Mamangam, opp. SKS Automobiles, 3/5, Omalur Main Road, Salem",
      "lat": 11.6914684,
      "lng": 78.1151318,
      "open_now": true
    },
    {
      "place_id": "ChIJIen2Et77qzsR8Aiond-yrR4",
      "name": "IndianOil",
      "address": "Survey No 168, 4B2, Attukaranur, Pagalpatti",
      "lat": 11.6965728,
      "lng": 78.0613049,
      "open_now": true
    },
    {
      "place_id": "ChIJR8jesEfwqzsR42ddccUSphc",
      "name": "IndianOil",
      "address": "Omalur Main Road, Narasothipatti, Salem",
      "lat": 11.6830414,
      "lng": 78.1247499,
      "open_now": null
    },
    {
      "place_id": "ChIJ6yAIBmPwqzsRkBVB_yZiXo8",
      "name": "Sri Ranganathar & Co",
      "address": "Omalur Main Road, Narasothipatti, Salem",
      "lat": 11.6830414,
      "lng": 78.1247499,
      "open_now": true
    },
    {
      "place_id": "ChIJ1ZFUquDxqzsRa2WlLKWNg38",
      "name": "Biggybusiness",
      "address": "Salem",
      "lat": 11.6897632,
      "lng": 78.1364889,
      "open_now": null
    },
    {
      "place_id": "ChIJ7dT7hy77qzsRGhDFMGhwIc4",
      "name": "Bharat Petroleum Petrol Pump , N.S.R. & CO.",
      "address": "PAGALPATTI, PO, Salem",
      "lat": 11.7034816,
      "lng": 78.04893109999999,
      "open_now": true
    },
    {
      "place_id": "ChIJO0lYQG_5qzsREwbD-27kT2w",
      "name": "Hindustan Petroleum Corporation Limited",
      "address": "Ground Floor NH 7, Deevattipatti, Omalur",
      "lat": 11.7403871,
      "lng": 78.0493,
      "open_now": true
    },
    {
      "place_id": "ChIJFaohmGfwqzsR0Qj8qlZ512E",
      "name": "IndianOil",
      "address": "Lock No 13004, near 5 Road, Omalur Main Road, Salem",
      "lat": 11.677671,
      "lng": 78.13243899999999,
      "open_now": true
    },
    {
      "place_id": "ChIJ6xFfZHL7qzsR2HeIRe6hifo",
      "name": "Hindustan Petroleum Corporation Limited",
      "address": "S No 126/2B1, 126/2B2, Omalur, Chellapillaikuttai",
      "lat": 11.708689,
      "lng": 78.040224,
      "open_now": true
    },
    {
      "place_id": "ChIJRRNNi675qzsRPDLtwVi-lsc",
      "name": "Bharat Petroleum, Petrol Pump -Shri Selvam Agency",
      "address": "OMALUR TOWN, Salem",
      "lat": 11.7516771,
      "lng": 78.04790510000001,
      "open_now": true
    },
    {
      "place_id": "ChIJXyBrr0LwqzsRe4wAMYikGnU",
      "name": "Hindustan Petroleum Corporation Limited",
      "address": "5, 5 Road, junction, Meyyanur, Salem",
      "lat": 11.6750631,
      "lng": 78.13409539999999,
      "open_now": true
    },
    {
      "place_id": "ChIJzcUavOj5qzsRpbLteU36oVE",
      "name": "Hindustan Petroleum Corporation Limited",
      "address": "No 55/21, Omalur, Pottipuram",
      "lat": 11.7763257,
      "lng": 78.0736855,
      "open_now": true
    },
    {
      "place_id": "ChIJpWP_m1z5qzsRcFZcvf7_LbM",
      "name": "IndianOil",
      "address": "S F No 152, 2A 3, Mettur Main Road, Omalur",
      "lat": 11.7369931,
      "lng": 78.03708879999999,
      "open_now": true
    },
    {
      "place_id": "ChIJDZP0Ixv7qzsRXv4jA8qLnz0",
      "name": "IndianOil",
      "address": "opposite Steel Plant Road, SF No 120/4, Irumbalai, Maramangalathupatti",
      "lat": 11.6715107,
      "lng": 78.0571825,
      "open_now": true
    },
    {
      "place_id": "ChIJrX-IOxv5qzsRxyjAl4smkxg",
      "name": "IndianOil",
      "address": "SF No 82/3B 82/4D 93/1, Kamalapuram NH 7, Rd, Bengaluru",
      "lat": 11.765436,
      "lng": 78.053238,
      "open_now": true
    },
    {
      "place_id": "ChIJ-4HOF2LxqzsRj6Yn455X23o",
      "name": "Laxmi Diesel Service",
      "address": "Sarada College Road, Salem",
      "lat": 11.6761319,
      "lng": 78.1469288,
      "open_now": null
    },
    {
      "place_id": "ChIJcbCGaQDxqzsRS2Cl-LkZCIE",
      "name": "Hindustan Petroleum Corporation Limited",
      "address": "Ward E, Block 6, TS No 24/1, Kurumbapatti Road, Kombaipatti, Salem",
      "lat": 11.7061028,
      "lng": 78.1626979,
      "open_now": true
    },
    {
      "place_id": "ChIJy0qIVzH5qzsRKYkwGbiPxek",
      "name": "ANANDHA FUELS",
      "address": "115/1B1B1,Velagoundanoor, Tharamangalam main road, Omalur",
      "lat": 11.7341918,
      "lng": 78.03011649999999,
      "open_now": true
    },
    {
      "place_id": "ChIJqYDPFxPxqzsRpaAFuvFTmuA",
      "name": "Bharat Petroleum SRI KRISHNA ENERGY",
      "address": "Zoo main road, salem 8, Gorimedu",
      "lat": 11.7147394,
      "lng": 78.1662499,
      "open_now": true
    },
    {
      "place_id": "ChIJxVnyQNXxqzsR2-WeyLVri1U",
      "name": "IndianOil",
      "address": "opposite New Bus Stand Road, 323, Omalur Main Road, Hasthampatti, Salem",
      "lat": 11.6676597,
      "lng": 78.14238999999999,
      "open_now": true
    },
    {
      "place_id": "ChIJWVMWZ_DxqzsRSclbuSNS3i4",
      "name": "SRISHITHA & COMPANY",
      "address": "Adivaram Road, Yercaud Foot Hills, Kondappanaickenpatti, Salem",
      "lat": 11.7168065,
      "lng": 78.17774469999999,
      "open_now": null
    },
    {
      "place_id": "ChIJL1DAbwDxqzsRWLhptKKEanY",
      "name": "Indian oil petrol Bunk",
      "address": "P58H+M5M, Kondappanaickenpatti, Salem",
      "lat": 11.716695,
      "lng": 78.1779466,
      "open_now": true
    },
    {
      "place_id": "ChIJx2TZToHxqzsRDhhJcfj8WtQ",
      "name": "IndianOil",
      "address": "TS No 164/1A1, 164/1A2, Kondappanaickenpatti, Salem",
      "lat": 11.7082412,
      "lng": 78.1760951,
      "open_now": true
    },
    {
      "place_id": "ChIJ__-jDxPxqzsRcN4YiQzjoYc",
      "name": "Annapurna Agencies",
      "address": "5A, Yercaud Main Road, Anna Nagar, Salem",
      "lat": 11.7034455,
      "lng": 78.1769503,
      "open_now": null
    },
    {
      "place_id": "ChIJ6x0wQgDxqzsR5qO-EhGUk_o",
      "name": "Bharath Petroleum",
      "address": "law college, 159, Yercaud Main Road, busstop, Salem",
      "lat": 11.6993405,
      "lng": 78.1666735,
      "open_now": null
    },
    {
      "place_id": "ChIJ9Z3siyrxqzsRm-PQiMIMzok",
      "name": "IndianOil",
      "address": "SF No 33/1C, Kannankurichi",
      "lat": 11.695788,
      "lng": 78.176514,
      "open_now": true
    },
    {
      "place_id": "ChIJH7DxNADxqzsR6nd01qt8MV4",
      "name": "Freedom filling station",
      "address": "Yercaud Main Road, Hasthampatti, Salem",
      "lat": 11.6833333,
      "lng": 78.16110730000001,
      "open_now": true
    },
    {
      "place_id": "ChIJp-zHTEbwqzsRiiDxF3iVSWM",
      "name": "IndianOil",
      "address": "opp. Hotel Karpagam, 323, Omalur Main Road, Fairlands, Salem",
      "lat": 11.6677125,
      "lng": 78.1432145,
      "open_now": true
    },
    {
      "place_id": "ChIJ5akcx3jxqzsRuzg6NoQ2Fm4",
      "name": "SANTHA",
      "address": "No, 49/P267, Jalal Complex, Advaitha Ashram Road Near PNB, Salem - 636004, Salem",
      "lat": 11.6657979,
      "lng": 78.1413008,
      "open_now": null
    },
    {
      "place_id": "ChIJ4991gKX0qzsR6yY6PsxxI08",
      "name": "IndianOil",
      "address": "SF No 17, 28B18/1&18/4, Kuppanur - Yercaud Ghat Road, Achanguttaipatti",
      "lat": 11.7460965,
      "lng": 78.2816732,
      "open_now": true
    },
    {
      "place_id": "ChIJa6fJoNH1qzsRCqukK-PZnjM",
      "name": "Bharath Petroleum",
      "address": "Kombaikkadu",
      "lat": 11.7868631,
      "lng": 78.2106859,
      "open_now": true
    },
    {
      "place_id": "ChIJzagjJMT1qzsRDb5SrEjeI0k",
      "name": "Bharat Petroleum Petrol Pump , VEDHAMBALL FUELS",
      "address": "HARUR, East Coast Road, VIA, Salem",
      "lat": 11.743916,
      "lng": 78.27929,
      "open_now": true
    },
    {
      "place_id": "ChIJWf3uDAD1qzsR4q622-4w9bA",
      "name": "Kuppanur bus stop",
      "address": "P7VJ+Q2G, Kuppanur",
      "lat": 11.7444369,
      "lng": 78.2800666,
      "open_now": null
    },
    {
      "place_id": "ChIJYWSL7W6NqzsRlBQZUJYEdcQ",
      "name": "V S Thirupathi Agencies BPCL - Bharath பெட்ரோல்",
      "address": "Ayothiyapattinam - Belur - Kilakkadu Road, Sarkar Nattamangalam",
      "lat": 11.6930395,
      "lng": 78.29770239999999,
      "open_now": true
    },
    {
      "place_id": "ChIJzStj7H_2qzsRIBfG9mS9IM4",
      "name": "Hindustan Petroleum Corporation Limited",
      "address": "Survey No 71, Yercaud - Kanavaipudur Road, Ondikadai, Mundagampadi, Salem",
      "lat": 11.7804216,
      "lng": 78.2010165,
      "open_now": true
    }
  ]
}