place_id,name,address,latitude,longitude
"ChIJuWC0xgtREDkRPC4Akteh03Y","Hindustan Petroleum Corporation Limited","Ground Floor, near Patiala Gate, Haripura Colony, Sangrur","30.24164009999999","75.84837610000001"
"ChIJwdCvNg1REDkR-ojr0dfHW5g","IndianOil","Ground Floor, Ranbir College, near Ranbir College, Road, Sangrur","30.236452","75.84352899999999"
"ChIJ86w64FJQEDkRa1b0agf65QY","IndianOil","near Nankiana Sahib, Ground Floor Balial Bhattiwal Kalan Rd, near Nankiana Sahib, Gurudwara, Badrukhan","30.262467","75.862127"
"ChIJ3dZP6w1REDkRsgL_TlpLwqI","Hindustan","Jind Road, Mehalan Road, Sangrur Depot","30.2130011","75.86274449999999"
"ChIJA_jKWrJWEDkRZWnUGrvwC4Y","IndianOil","Ground Floor, Sangrur Longowal Rd, Ubhawal","30.2221463","75.803258"
"ChIJz9rkxpFREDkRKRK-hU2Sd9Y","Petrol pump","36A, Guru Nanak Colony, Mubarik Mehal Colony, Sangrur","30.2511366","75.8433156"
"ChIJ8QnmpBlREDkRkSkXFFXGCi8","IndianOil","Ground Floor, NH 64, Sangrur Barnala Road, Badrukhan","30.248514","75.833902"
"ChIJyTunjBNREDkRLslA0mHG1PU","Grewal Filling Station","6RQP+QGP, NH-71, Gobind Pura Colony, Sangrur","30.23946870000001","75.8363432"
"ChIJgW1DMwBREDkRbeuPf4Q-qFg","Government Owned Petrol Pump","6RQQ+7FJ, Sangrur","30.2382126","75.8386301"
"ChIJOdh7AZhREDkR6VyNr0Bs3q0","IndianOil","6RQQ+6CQ, Haripura Colony, Partap Nagar, Sangrur","30.23804339999999","75.83866530000002"
"ChIJx-3MRnlREDkRKb-9lWsRRIw","Bharat Petroleum, Petrol Pump -Pal Service Station","SANGRUR ON GAUSHALA ROAD, Sangrur","30.2506191","75.83385299999999"
"ChIJmfhC37ZREDkRizVJu9iHC1c","IndianOil","near Truck Union, Ground Floor Jind Road, NH 64,Badrukhan, near Truck Union, Sangrur","30.237123","75.83949299999999"
"ChIJERJ8tjJREDkRX9hIUJUr2EE","CNG Pump","5421, College Road, Hargobindpura Colony, Haripura Colony, Partap Nagar, Maan Colony, Sangrur","30.2365085","75.8434752"
"ChIJS7FJ2xJREDkR0n07ma7zfSA","Janta Service Station","Maan Colony, Sangrur","30.236609","75.8395638"
"ChIJWwHH4hRREDkR_TWUdVxybs4","IndianOil","Gobind Pura Colony, Sangrur","30.2369902","75.8331601"
"ChIJ3-Jy0yVREDkRrR8PND7-FM0","IndianOil","Ground Floor, Nabha Gate Road, Kishanpura, Badrukhan","30.254147","75.851959"
"ChIJU9UjDQpREDkRgW14C3ROfYs","National fire services and motors parts","6RMV+F2M, Sant nagar mehlan road, Maan Colony, Sangrur","30.2337002","75.8425475"
"ChIJb9B8MQBREDkRjl7wAXszYTE","Ujala Fuels","6RXF+PPC, near Police Line & Distirct Jail, Barnala Road, Sangrur","30.2493056","75.8242679"
"ChIJU2J8kKpREDkRnSHoWMpHgQE","Bharat Petroleum, Petrol Pump -Dhillon Petro Centre","near DHURI BYEPASS, SANGRUR, near DHURI BYEPASS, Sangrur","30.2577596","75.85417799999999"
"ChIJhVeDbr5REDkRnqq4BZ3Ak8M","Hindustan Petroleum Corporation Limited","Ground Floor, Infront of Sibia Hospital, Patran Road, Sangrur","30.2284234","75.8484564"
"ChIJG7n4t-eyETkRky2VnmbhZ00","TRHR PETROL PUMP","4W5P+C95, Sullar Gharat","30.1085168","75.9359826"
"ChIJof_IQQqzETkR9SvivSZaDls","IndianOil","Ground Floor, NH 71, Jind Road, Sulargarahat, Gujran","30.1083876","75.9361059"
"ChIJ97-hM4ezETkRy4_m-R2du_A","IndianOil","Ground Floor, Patran Sangrur Road, Mauran","30.114864","75.929771"
"ChIJDadiGQCzETkRYRBt6wc9gO4","Tilak Ram HANS Raj","4W4Q+7G5, Sullar Gharat","30.1056311","75.93886049999999"
"ChIJKSpx5uKyETkRNhXZE1mlmOk","Hindustan Petroleum Corporation Limited","Ground Floor, NH 71, Sangrur Patran Road, Dhandoli Khurd","30.101871","75.944101"
"ChIJB52TmjyzETkRNPpBDauQaWE","Bharat Petroleum, Petrol Pump -Bansal Filling Station","GUJRAN ON DIRBA ROAD, SANGRUR","30.11804639999999","75.9600091"
"ChIJ09AXvDqzETkRrrzj12zYhKc","IndianOil","Ground Floor, Sularghrat, Samana Road, Gujaran","30.121864","75.967779"
"ChIJhxqXQJezETkR3jfGaiMg368","Reliance Petroleum","Ground Floor, Sangrur Road, Toor Banjara","30.0860658","75.9629204"
"ChIJAdgFwV5NEDkRw3L2utAKdYk","Jai Shiv Shankar Filling Station","NH71, Sangrur","30.14172069999999","75.90953499999999"
"ChIJx0i8TABNEDkR4OF660GEExQ","IndianOil Pump Mann Filling Station","4WR5+RP2","30.143172","75.90925399999999"
"ChIJVYSooem2ETkRaMtL5mxoTrI","Hindustan Petroleum Corporation Limited","Ground Floor, NH 71, Khetla","30.0217852","76.0188727"
"ChIJi1qwECG3ETkRNQJ-avvMFc4","SHIV SHIVA SHAKTI FUELS","NAYARA PETROLEUM National Highway 52, Patran Road, Dirba","30.0410406","76.0118092"
"ChIJ5S-zu5q3ETkRoha-VZVds5E","IndianOil","Ground Floor Patran, Sangrur Rd, Dirba","30.051567","76.00722499999999"
"ChIJl5SGUEu3ETkRQeqpV0V5u-E","Dugal Bus Service","NH-52, Sangrur-Delhi Road, Vill, Dugal Kalan","29.9933956","76.028674"
"ChIJIahOi7u1ETkRdA2G8zYa86w","IndianOil","near Amritsar Bus Stand, Ground Floor Sunam, near Amritsar Bus Stand, Khadial","30.0584815","76.0225081"
"ChIJ_wb0t_yzETkR6QmWB5qu398","Hindustan Petroleum Corporation Limited","Ground Floor, Dirba","30.051861","75.981861"
"ChIJH60HzTGxETkRMJeH9hcvhuE","IndianOil","Ground Floor Kamper Dirba Kauhrian, Rd, Mubarakpur","30.035648","75.971789"
"ChIJJTCSWFSzETkRShgob2HCf-g","Pump","3X6Q+623, Lehra Road, Dirba","30.0607891","75.9877824"
"ChIJRfjwAYDHETkR0t-zwb5QTKE","Hindustan Petroleum Corporation Limited","Ground Floor, NH 71, Khanauri Road, Duttal","29.9229165","76.08553839999999"
"ChIJg0xwvPO3ETkR9URIRUsarFo","Hindustan Petroleum Corporation Limited","Ground Floor, Nial","29.97343829999999","76.0662539"
"ChIJIUmTCoC5ETkRptuy0bczAgE","IndianOil","Ground Floor NH 71, Narwana, Road, Patran - Narwana Road, Arno","29.93778499999999","76.068873"
"ChIJcYAi9n7HETkRrqlFMHbLvUs","IndianOil","Ground Floor Duttal, NH 71, Narwana Road, Arno","29.9191674","76.0885047"
"ChIJCXwBO8-5ETkRoN4fq1_bwq8","HP petrol pump patran","W3M2+RPG, Jakhal Road","29.9345529","76.05182409999999"
"ChIJK_1lm1e4ETkRs6BFTyABWDM","IndianOil","Ground Floor Patran, Road, Hamcheri, Moonak","29.93018289999999","76.05117190000001"
"ChIJD6IYsHnHETkR1Hri75APfM4","IndianOil","Ground Floor NH 52 patra delhi Road Shutrana, Arno","29.913701","76.095339"
"ChIJ5fniMBy5ETkRAzNhL_UXP1I","Kailash Filling Station Bharat Petroleum","SH 10, Jakhal Road, Patran","29.9281763","76.050421"
"ChIJ-eFS36q5ETkRRn4ZcrWi9Do","Hindustan Petroleum Corporation Limited","Ground Floor, Niall Bypass Road, Nial","29.9545493","76.0681338"
"ChIJJRKrUHLHETkRdhZGNxeeO0Q","Hindustan Petroleum Corporation Limited","Ground Floor, Patran - Narwana Road, Shutrana","29.91556419999999","76.10542"
"ChIJ3bC4fwDHETkRQ6bZa5-PIOk","ਪੈਟਰੋਲ ਪੰਪ ਪਿੰਡ ਦੁਗਾਲ ਕਾਲੇਕੇ ਸਰਦਾਰ","NH-52, Sangrur-Delhi RoadVillDugal, kaleke Kalan","29.90446189999999","76.09821649999999"
"ChIJA0h22DfHETkR_oCqBRIOOV4","IndianOil","Ground Floor Nial Banwala Road, Patran, Arno","29.961367","76.08870499999999"
"ChIJqyoMp2q5ETkR8wqouNuidH4","Essar filing station","Jakhal Road, Hamjheri","29.9105294","76.0481944"
"ChIJazfQMwDHETkR_lrjU1jRzBE","aggarwal energy station","W33X+7P6, Shutrana","29.9031535","76.0992613"
"ChIJ8ezLRbXHETkRuNEPk9mjt-w","Shutrana, Patran","W33X+JJ8, Shutrana","29.902832","76.099347"
"ChIJIQZiOAC5ETkRwdaX57W63J0","Nayara CNG Pump","X342+RWP, Patran","29.957085","76.05234"
"ChIJX6o1p8m5ETkRKBcjfVpprlg","IndianOil","Ground Floor Bypass Road, Patranpatran, Nial, Arno","29.965155","76.06701199999999"
"ChIJx4CUE963ETkRfDH0qgIhqts","IndianOil","Ground Floor Patran Patiala Road, State Highway 10, Arno","29.9627514","76.05638549999999"
"ChIJhTHmeVq3ETkR1yQZzLFjoIA","Hindustan Petroleum Corporation Limited","Ground Floor, Sangrur Road, Patran","29.9652947","76.0524369"
"ChIJ9-PDRVvAETkRizycwW2FKbg","IndianOil","Ground Floor, NH 71, Jind Road, Khanauri Mandi, Mandvi","29.83075869999999","76.1126995"
"ChIJ0SntCwDBETkReLieyY0A3iE","Jio BP","V445+C4, Saidewala Alias Naiwala","29.85601579999999","76.1077623"
"ChIJoYBxNgDBETkR9cQd8s4v9sM","Garg Filling Station","NH 152A","29.83213899999999","76.1235099"
"ChIJhWMeg1zAETkR4tm084nfghs","Rohtash Auto Service Bharat Petroleum","Patiala, NH-71, Sangrur Road, Khanouri, Khanouri","29.826043","76.114408"
"ChIJcWQTOvvBETkRdw5EITQD6F0","IndianOil","Ground Floor, Moonak, Kaithal - Khanauri Road, Banarsi, Mandvi","29.828201","76.095101"
"ChIJ0wUkTy7BETkR6lUzoE_2RcA","Indian oil","R44C+WMP, Patran - Narwana Road","29.8073423","76.121695"
"ChIJGVbfzjDAETkReBQIgxPAZ44","Hindustan Petroleum Corporation Limited","Ground Floor, Dhabi Gujran","29.807221","76.12210569999999"
"ChIJ1SGpGADBETkRv3n5FYnJF4c","Prince Petro care","Q4X3+FQ4, Padarth Khera","29.7986398","76.10445059999999"
"ChIJ33VnxUrpETkRBcH6OAt6iMs","IndianOil","Ground Floor, Kurar","29.73478919999999","76.20166929999999"
"ChIJlTcvwBHpETkR9w0uJaldQ08","Om Filling Station","Kurar","29.7317608","76.212403"
"ChIJ_dUyRD3pETkRtak1STFfWaU","Bharat Petroleum","India","29.731047","76.2122406"
"ChIJDdA_kXXpETkRgFvJ4LA_4a8","Bharat Petroleum Petrol Pump , R.K. FILLING STATION","VILLAGE, Dhanauri","29.78444799999999","76.181575"
"ChIJQbDn8B7qETkREscKzZZw4KA","Hindustan Petroleum Corporation Limited","Ground Floor, Kaithal Road, Dhanauri","29.797781","76.19290199999999"
"ChIJOYaOeCfoETkRsZsiRAKrvAs","Ashutosh Filling Station","R63Q+2P3, Mahal Kheri","29.8025246","76.23928710000001"
"ChIJVRPxTD38ETkRSWobjlWyjvI","IndianOil","Ground Floor Kaithal Road, Kithana, Rajound","29.557549","76.387723"
"ChIJmdrJDz38ETkRdqaGuf1qwqg","Hindustan Petroleum Corporation Limited","Ground Floor, Jind - Kaithal Road, Kaithal","29.559601","76.38890099999999"
"ChIJsQkbtD38ETkR4xCdI4GACcU","JAGLAN FILLING STATION KITHANA","11, State Highway 11A, Kithana","29.5615596","76.38904959999999"
"ChIJ8dsqhJ_-ETkRehJClw3wCP4","IndianOil","Ground Floor Kithana, Jind Road, Rajound","29.543658","76.38708"
"ChIJ_0E0PUr7ETkRIORFl2qayJI","IndianOil","Ground Floor Kithana Kalayat, Link Road, Kuchrana Kalan","29.571992","76.322347"
"ChIJ0XDvlCv5DTkRWX4NkPLSreQ","Reliance Petroleum","near 16 Km Milestone, Khewat No 263, Khatoni No 493 Sh 14, Safidon, Pillu Khera, near 16 Km Milestone, Jind","29.3718739","76.5068975"
"ChIJFdD_Z8n4DTkRbhyLD-fTjG0","IndianOil","Ground Floor, Kalwan, Jamni","29.367169","76.483747"
"ChIJDU-rarT5DTkRqxKTF78PRHM","JAI DURGA PETRO CARE BHARAT PETROLEUM","9F5M+RMF, Shaheed Sourabh Garg Road, Pilu Khera","29.3595587","76.4841848"
"ChIJr1SePk35DTkR5cedLjn1xmw","Hindustan Petroleum Corporation Limited","Ground Floor Rajana Khurd, Near, Budha Khera","29.3778166","76.53546659999999"
"ChIJ5bG2qbH4DTkRULPx--z0DGo","IndianOil","Ground Floor, Kalwa","29.3642703","76.47068279999999"
"ChIJV2AHihv5DTkR5r_DSZ5ULhk","IndianOil","Ground Floor, Link Road, Pillu Khera","29.346027","76.508376"
"ChIJMZ8ZmqkAEjkRFDp2ReN3ov0","Essar Oil Petrol Pump","Alewa Road, Dhatrath Village","29.3772996","76.4540492"
"ChIJhbzeuxKTDTkRLTC1kDMVud0","Nishant Auto Fuels (निशांत ऑटो फ्यूल्स)","Gohana-Rohtak Road, NH709, Gohana","29.0778157","76.6837073"
"ChIJWRWco-KSDTkRHS1CbVqEKC8","IndianOil","Ground Floor Bhainswan Khurd, NH-71A, Ahulana","29.087392","76.68696"
"ChIJwQRcZFGSDTkR5c5BfkxSea4","Bharat Petroleum, Petrol Pump -Shiv Ganga Fuels","VILLAGE PUTHI GOHANAROHTAK, SONEPAT","29.0668984","76.680945"
"ChIJARNDieCSDTkR8uMphzHlqcs","पवन मिष्ठान भण्डार","India","29.09652930000001","76.6842963"
"ChIJr-sjCiaTDTkR-gWoKKsTmJ4","SHRI RAM FILLING STATION","NH-709, Rukhi Pana","29.0598798","76.6788033"
"ChIJMdxPX4yTDTkRDIy8sN48Ws4","Hindustan Petroleum Corporation Limited","NH 709, Rohtak - Panipat Road, Gohana","29.059733","76.6787586"
"ChIJFVsQFQeTDTkRy-4jLgwEex8","HP CNG, PETROL PUMP","SURYA PARTY GARDEN, Gohana-Rohtak Road, Gohana","29.1027374","76.69472379999999"
"ChIJA1Vz8yOTDTkRTQ4ryORyuZc","Hindustan Petroleum Corporation Limited","Ground Floor, NH 709, Rohtak - Panipat Road, Mahra","29.103841","76.694531"
"ChIJiXodQdqTDTkRxrrrF7NL874","Bharat Petroleum, Petrol Pump -Chodhary Tekram Gramin Fuel Station","VILL BHAISWAL, CH TEKRAM G, SONEPAT","29.0455524","76.6750106"
"ChIJUYhu10vtDTkRhyz-d0cK1cw","IndianOil","Ground Floor, Gohana-Rohtak Road, Gohana","29.1112233","76.69617989999999"
"ChIJTdYhEk3tDTkRSDRCmRvLZ_Y","IndianOil","Ground Floor SH 16A, Gohana, Sonipat,Ahulana, Gohana","29.119464","76.654793"
"ChIJH_ptC1KTDTkR_aC8mXGjbOo","Reliance petrol pump","4M9X+5R9, Gohana mor, Gohana","29.11792329999999","76.6996083"
"ChIJx_Pt3oWYDTkRIpxOQV1tB_0","Hindustan Petroleum Corporation Limited","Ground Floor, opp. Lord Krishna International School, SH 18, Rohtak - Sonipat Road, Humayunpur","28.898741","76.82336300000001"
"ChIJ5fVGDPuYDTkRplHchgjrq9E","Nayara Petrol Pump","VQVP+6WM, Rohtak - Sonipat Road, Kansala","28.8930991","76.7872838"
"ChIJBSCzCACZDTkRccdNOLZlmeY","Baba Haridas Filling Station Petrol Pump","VRW2+9JP, Humayunpur","28.89528","76.802139"
"ChIJLxma1-2jDTkREusUfRI3gto","Tirupati balaji filling station","WR2Q+FQX, Rohtak - Sonipat Road, Sisana","28.9012381","76.8394977"
"ChIJ17r9tl6gDTkRcRGKzf8NmaA","IndianOil","Ground Floor Nilothi, Bahadurgarh, Soldha","28.80115799999999","76.867708"
"ChIJtS87NSihDTkRPOmyPPJoACs","BIJENDER DAHIYA FILLING STATION","RV29+935","28.8008196","76.8672915"
"ChIJiQzjCOINDTkRGizX1NYU060","Hindustan Petroleum Corporation Limited","Ground Floor Jhajjar, SH 22, Jhajjar - Bahadurgarh Road, Bahadurgarh","28.665756","76.842445"
"ChIJLc_T5pJ0DTkRC9l6zQean1s","Hindustan Petroleum Corporation Limited","Ground Floor, Beri Bahadurgarh Road, Mattan","28.695211","76.793911"
"ChIJQ1FWeQALDTkRf1naZKkeZM4","Indian Oil Vinayak Filling Station","MVQ9+7H6, Major District Road 122, Delhi","28.6882123","76.8687726"
"ChIJRyuA98sNDTkRQPbK7n9bx7E","Hindustan Petroleum Corporation Limited","Ground Floor, near Lohchab Mahindra, SH 18, Jhajjar - Bahadurgarh Road, Delhi","28.669628","76.86656099999999"
"ChIJfdsYo8xFGjkRAafjWRgXGCw","IndianOil","Khatoni No 231, Mustil No 22/4/2 Desalpur, Soldha, Bahadurgarh","28.650486","76.849194"
"ChIJVRfY0sASDTkRO62LRD5UnGE","IndianOil","Lock No 367, Dhansa Border, New Delhi","28.561979","76.843147"
"ChIJBUIEXc0SDTkRRZW1wpqYu3c","IndianOil","Ground Floor Daryapur Badli, Road, Chandu","28.550435","76.826171"
"ChIJL4XyckxtDTkRXAXHmKoxiEk","Hindustan Petroleum Corporation Limited","Ground Floor, near Metropolis Met City, Dhansa Road, Daryapur","28.563347","76.839765"
"ChIJcwd9b5JtDTkRy0Cl8XpD1U0","Hindustan Petroleum Corporation Limited","Ground Floor, Jhajjar Bypass, Badli","28.562236","76.809654"
"ChIJL-1aP7QSDTkReqXaDveO7Jo","Nirmal Oil Centre","Near Dariyapur Mod, Badli","28.56694719999999","76.8303279"
"ChIJa-qQLm0TDTkRYC4-U7HR6XE","SUNIIL DAHIYA DODO IGL CNG STATION DHANSA BORDER","धंसा बॉर्डर, ईसापुर, दिल्ली","28.5620305","76.845705"
"ChIJZ05UoDZtDTkR6M_r6tUn8E4","Hindustan Petroleum Corporation Limited","Ground Floor, Badli Road, Badli","28.570071","76.82179599999999"
"ChIJKxYGjh5tDTkRJn46W29JUkE","Reliance Site- Jogindra Engineering Works","HR73+GC9, Badli","28.5637911","76.8036238"
"ChIJ5ewqeQBtDTkRNApvecC7OLc","SK PUC CENTRE","HR8J+Q4Q, Major District Road 123, Ladpur","28.5693279","76.8096383"
"ChIJU7nDGWptDTkR47OrDJ1ux1U","Bharat Petroleum","87L, Jhajjar Bypass, Badli","28.5652157","76.8017062"
"ChIJJ5Mf0wQTDTkRzTaiQeUMl9M","Radhey Krishna filling station","GVC4+5X7, AIIMS Road, Badsa","28.5204018","76.8574209"
"ChIJAfcoKRMTDTkRLwqRSWaPCYI","Hindustan Petroleum Corporation Limited","Ground Floor, near AIIMS Road, Badsa","28.520224","76.857523"
"ChIJwaNbtkRtDTkRJt92D7LmGPs","uchalchinacort","HRC5+QXG","28.5719371","76.8099556"
"ChIJxU1jELNtDTkRIgyle-spxCc","Shri Ram Fuels","HRH9+V3G, Badli","28.5796765","76.81770879999999"
"ChIJQQnbWTkTDTkRahSfEmQTgl0","IndianOil","Ground Floor Mdr 136, Badsha, Badli","28.514847","76.863242"
"ChIJc9vUccxtDTkRp_6UpfkyBF0","Bharat Petroleum Petrol Pump , JUG LAL FILLING STATION","VPO. SONDHIBADLI-YAKUBPUR ROAD","28.5099923","76.7919494"
"ChIJIRwjtc8_DTkR96uUJ0N7Jss","NAYARA petrol pump","9VV7+28X, vill jhundsarai, Khawaspur","28.39261","76.8633701"
"ChIJiRQg6PoVDTkRQTi--P0D8qI","H.P. Petrol Pump jupiter","CWC5+2FX, SH-15A, Sector 95B, Gurugram","28.4201174","76.9087493"
"ChIJUWhbX00_DTkRQCWJjHP9K58","Hindustan Petroleum Corporation Limited","Ground Floor, NH 352/W, near KM 9, Farrukh, Pataudi Road, Jhunsarai, Gurugram","28.40465","76.88090009999999"
"ChIJb510dOgVDTkRoo4Q3B5anDQ","Bharat Petroleum, Petrol Pump -Devashish Fuels & Lubricants","KHENTAWAS,GURGAON, Gurugram","28.43235499999999","76.8738214"
"ChIJ88KyQJgVDTkROXl3lKSoZHI","Hindustan Petroleum Corporation Limited","Ground Floor, Road, Khentawas, Wazirpur, Farukh Nagar","28.4286943","76.882453"
"ChIJY59Q7JU_DTkRvO8WTDN1lyA","IndianOil","Adani Logistics Park, Khawaspur","28.3922425","76.8619599"
"ChIJs0t_DNE_DTkRyCvvD_yd4XE","Hindustan Petroleum Corporation Limited","Ground Floor IMT, Pataudi Road, Bhangrola, Gurugram","28.401623","76.891959"
"ChIJf9vjDvEVDTkR8zzDfwiAdmM","Haryana City Gas CNG Station","Pataudi Road, Village Dhorka, Sector 98, Gurugram","28.4140649","76.8973936"
"ChIJlfhclfkVDTkR85xTGtUkleY","IndianOil","Ground Floor NH 352W, Pataudi Road, Dhorka, Dhankot, Gurugram","28.41403799999999","76.897562"
"ChIJn7K3iek_DTkRnpV9ezy4SZ4","BPCL Om Shanti Petrol Pump","Connecting Rd pataudi Rd, to, Sector 8, Bhangrola, Imt Manesar","28.3980501","76.8924261"
"ChIJP4HMFD0VDTkRJ5AgBqCXm3c","Haryana City Gas CNG Station","Farukh Nagar - Wazirpur Road, Dhanawas, Sector H7, Gurugram","28.4249451","76.8955503"
"ChIJB_WUjecVDTkRynjSjx6UutY","Navuday fuels","CV7X+XFH, Pataudi Road, Gurugram","28.4149491","76.8987382"
"ChIJeySa4VAVDTkRMMbFoLDjVqg","BHARAT PETROLEUM PETROL PUMP","BPCL PUMP, near Wazirpur, to, Pataudi Road, Mod, Sector 95, Dhorka","28.4143264","76.8989593"
"ChIJhTAUWQAVDTkR8DSCdCyYBhk","Rao sahab office","CV7X+PJF, Gurugram","28.4143087","76.8990364"
"ChIJVXa46-wVDTkR3Vj8iZpkxUs","Hindustan Petroleum Corporation Limited","Ground Floor, near Railway Crossing, Farukh Nagar - Wazirpur Road, Dhanawas, Wazirpur, Gurugram","28.424632","76.898111"
"ChIJn1vO1Ic_DTkRB4Bn2BLpMWw","Hindustan Petroleum Corporation Limited","Kila No 7/1, 7/2/1, Manesar, Gurugram","28.39237","76.89231099999999"
"ChIJbzz4ZAAVDTkRayRNRVMoEK0","Jai Mata Fuels","CW52+QF2, Dhorka","28.409427","76.901798"
"ChIJI8L2uYMVDTkRucSH1W4xuO8","Pollutin Center","Dhorka","28.4155858","76.9026071"
"ChIJ_5XEWwAVDTkRAQoRfZLqqk0","Shiv ganga CNG","Ground Floor, Sector 92, Dhorka","28.4100779","76.9052387"
"ChIJtdGfOGs_DTkRq2qPWGCDBSs","Hindustan Petroleum Corporation Limited","Ground Floor, Sector 92, Dhorka","28.41011529999999","76.9053017"
"ChIJH2DEsSg5DTkRdk5Zd979Sao","Hindustan Petroleum Corporation Limited","Ground Floor, Delhi - Jaipur Expressway, Binola","28.304501","76.877461"
"ChIJF6o_0t04DTkR2PHKq26AhBw","B.P Bilaspur Bharat Petroleum (COCO)","Bilaspur Khurd, Gurugram NH-8, Delhi - Jaipur Expressway, Gurugram","28.2937855","76.8655607"
"ChIJyXpPcks5DTkR7paLFrLKun8","IndianOil","Ground Floor, Bilaspur, Tauru Road, Dhani Chitarsain, Patherheri","28.274408","76.89249699999999"
"ChIJMzNksyA6DTkRQabPT42otPY","JAURASIYA FUELS (hpcl) retail outlet,petrol pump","village-fatehpur,teh.-tauru,distt.-nuh, 132, Major District Road 132","28.2560153","76.9192564"
"ChIJobImOzE7DTkRPePa0MKjCM8","Hindustan Petroleum Corporation Limited","Ground Floor, Bilaspur Road, Tauru","28.2559047","76.91922919999999"
"ChIJP-7EUXg7DTkROsOQvH5F7oY","Hindustan Petroleum Corporation Limited","Ground Floor, Bilaspur Road, Tauru","28.2524266","76.9228629"
"ChIJrxm_VPI5DTkRd6eTrqc-fVk","IndianOil","Ground Floor Fatehpur, Tavru, Baghanki","28.2500088","76.9098073"
"ChIJlcMJqxk6DTkRl3ymvSo3tVg","Jp filling station","Major District Road 132, Jhamuwas","28.248105","76.927095"
"ChIJy9sD6E47DTkR1tRtVzIoyAU","IndianOil","Panchgaon To Mohammadpur, Bissar Akbarpur","28.2797329","76.9521528"
"ChIJHUpg5Zw7DTkRdTYNgUq_iQc","Eisha Filling Station","near Sunday Resort, Panchgaon Mahammadpur Road, Bissar Akbarpur","28.2795675","76.95260379999999"
"ChIJl5zxBR05DTkRWKHVfzgKhOg","Hindustan Petroleum Corporation Limited","Ground Floor, Bilaspur, Tauru Road, Patherheri","28.2830303","76.8741936"
"ChIJofDjwxA6DTkRpynwInedVBE","IndianOil","Bilaspur, Gurgaon MDR-132, Bilaspur Road, Gurgaon","28.24469999999999","76.931557"
"ChIJcau5l9E5DTkR1J60dJQ2NbM","Hindustan Petroleum Corporation Limited","Ground Floor Tauru, Bilaspur Road, Bilaspur Kalan","28.2831456","76.8714559"
"ChIJn2dQqmI5DTkRj0-alihwv-g","IndianOil","Mustakil No 45, Bilaspur Tavru Rd Killa No 23/2, Pathreri, Dhani, Chitter Sain","28.2845781","76.8700576"
"ChIJ7fpfpxA5DTkR3KWfNzt36NU","Velvex AdBlue (DEF) Filling Station","8V5M+PC9, Binola","28.3092905","76.8836123"
"ChIJP6lPO5A5DTkRJynQYl2VQas","IndianOil","NH 8, Manesar, Binola","28.3080307","76.881959"
"ChIJgdKDqoo5DTkRliGks-DpHyw","IGL CNG Station","8V5J+6Q8, Service Road, Panchgaon","28.3080365","76.8819596"
"ChIJMZARcsA5DTkR6LAjTvDBFss","Kamla Petro Mart ️","Bilaspur Khurd","28.2847593","76.86805989999999"
"ChIJ77MqHS45DTkRsmBFg_n8Xe0","Hindustan Petroleum Corporation Limited","Ground Floor, Delhi - Jaipur Expressway, Binola","28.30939009999999","76.8833301"
"ChIJ2-MGpK05DTkR95hShiPY13Q","Metro Filling Station ( Indian Oil)","57.5 KMS, NH-48, old NH-8, Vill, Binola","28.308167","76.88168"
"ChIJw3gTuBwwDTkRk_ovhCYKVaQ","Hindustan Petroleum Corporation Limited","Ground Floor, Sohna Tauru Road NH 919, Tauru, Maindla","28.2236752","77.0059881"
"ChIJtdfNvAIwDTkRAm231hscJgw","IndianOil","Ground Floor Tavru Road, Mendla, Sohna, Baghanki","28.226027","77.009524"
"ChIJ42pXMlwxDTkREAExXl4DkUk","KMP Fuels Bharat Petroleum","Killa no. 21, village dhulawat tehsil tauru, Gurugram","28.2225023","77.00180999999999"
"ChIJFw9NAAAvDTkRIxuLF8FElW0","Puc center","behind Shams Petrol Pump, 1, Sohna, Sehsaula","28.23710599999999","77.044265"
"ChIJ_aRSTPcvDTkRxs6J9tmT5yQ","Shams Petrol Pump","Sohna, Sahsola, Tauru Road, Tauru","28.23709969999999","77.04438379999999"
"ChIJywTqDwAvDTkR7ClJVgRIjYk","S D Chahaliya","52HV+Q72, Gajarpur","28.1793803","77.0431354"
"ChIJY6XByBDNujsRlKnXldyZhqY","IndianOil","Sohna Alwar Road, SH 13, Sohna","28.22743809999999","77.0655677"
"ChIJnQs_ehAvDTkRZc27gJJDuMA","IndianOil","Ground Floor Sohna Alwar Road, National Highway 248A, Sohna","28.2302723","77.0666431"
"ChIJq6qqusorDTkRkd8ww5INwDs","IndianOil","Ground Floor Mindkola, Nuh Rd, Chhainsa, Palwal","28.13337599999999","77.156795"
"ChIJEb9Ns0kqDTkRciLxy89vuvw","Prasad filling station Petrol Pump","45M4+9VC, Palwal","28.1334348","77.15712789999999"
"ChIJu70XD3crDTkRaFJ2iTL2Y4I","IndianOil","Ground Floor, Sohna Mindkola Road Gangoli, Nuh, Bhirawati","28.15191","77.121895"
"ChIJ8yjfiVkpDTkRP0i4yXc3h5k","IndianOil","Ground Floor, Nuh, Sohna-Mandkola Road, Kherli Dausa","28.1600967","77.115999"
"ChIJgbpyYpArDTkR2rGQv7HazvY","SAHEED RAMPAL FILL. STATION","45M5+2CH, Major District Road 132, Nuh","28.1325688","77.1586172"
"ChIJO8Z5bI8rDTkRyeuquC8rDt4","Hindustan Petroleum Corporation Limited","Ground Floor, Mandkola","28.13276979999999","77.1644774"
"ChIJF-cG5X0rDTkRpmm9P0VXgPA","Bharat Petroleum, Petrol Pump -Shaheed Rampal Filling Station","MINDKOLA,PALWAL NUH RD,MEW, PALWAL","28.1325957","77.16684529999999"
"ChIJVbdlPgDVcjkRpTLAanrkHmY","IndianOil","Ground Floor, NHAI Rest Area, Delhi - Mumbai Expressway, Tajpur","28.0354477","77.1208023"
"ChIJn-TvJ3LVcjkRNgWXR273_5U","Rest Area & Facility","24PC+49, Tajpur","28.0353458","77.1209644"
"ChIJVbHFslDVcjkRdtYyZebqvYo","IndianOil","Ground Floor, NHAI Rest Area, Delhi - Mumbai Expressway, Tajpur","28.0356006","77.11937329999999"
"ChIJhfpDoh4rDTkRniSIMR9eCcU","Bharat Petroleum Petrol Pump , A M FUEL STATION","NH 248A, KM STONE 40-50, LHS,GURGAON ALWAR ROAD, VILLAGE MARODA","28.07746999999999","77.102544"
"ChIJ5VcrOgArDTkR-rCeY2emHBs","BPCL Mahadev Filling Station Chhainsa","Hathin, Hathin Nuh Rd, Chhainsa","28.0750874","77.166742"
"ChIJNcS08_rVcjkRXSsXBOTg18A","Essar Petrol Pump","24M7+2G3, Nuh Hodal Road, Jaisinghpur","28.0325001","77.1138064"
"ChIJCyOsQADVcjkRj8q6jCjhOoI","Hindustan Petroleum Corporation Limited","MDR No 132, Nuh Hodal Road, Tajpur","28.0342526","77.1090718"
"ChIJ22suHQDVcjkRK076Cdl0YuM","PRA GAS","Usman Market, near Bay, 112, Nuh Hodal Road, Village, Chilavli, Nuh","28.027545","77.1231233"
"ChIJ-TS9ZQDVcjkR4aSvO2vHPmQ","M/s PRA GAS, CNG Station","24GF+W78, Jaisinghpur","28.0272833","77.1232164"
"ChIJMd_I4n3TcjkRX18tv_6Q1Io","IndianOil","MU No 173, Khata No 1833, 1820, Nuh Hodal Road, Ujina","28.042713","77.094773"
"ChIJUWDO8kXTcjkR1LtpDSWqvT0","ESSAR Petrol Pump, Ujina","Ujina","28.0474831","77.08663709999999"
"ChIJQ7co_9jTcjkRIUELmM6C2WI","Bharat Petroleum, Petrol Pump -Vimal Filling Station","UJHINA,NUH HODAL RD,MEWAT, MEWAT","28.0477684","77.0855579"
"ChIJE9vrCQDFcjkRIFK17IrskZs","CNG filling spoton DMIC","Q2R5+GW2, Baghola","27.7913747","77.0101838"
"ChIJEaIcPADFcjkRPVrEx23a6aE","Dev bp fuels","R2W3+JXH, Sakras","27.8474817","77.00511329999999"
"ChIJddS7NADFcjkRNHQOhwjgUlw","Indian Oil Petrol Pump","Q2R5+FQJ, Baghola","27.7912075","77.0097493"
"ChIJmeDYKQDFcjkRxEQRnY1uZrI","Chishti and Warsi Tayre workshop","IndianOil, rest area 63, Delhi - Mumbai Expressway, Baghola","27.7909171","77.01031139999999"
"ChIJU9tUtGfFcjkR7O-NVtvHKz4","IndianOil","63/140, Delhi - Mumbai Expressway, Gurugram","27.7909171","77.01031139999999"
"ChIJORRGldbbcjkR8A3-qMJw32o","Sarif Indian Oil","Sarif Indian Oil, Tigaon","27.83959339999999","77.06747510000001"
"ChIJF4XU9qTbcjkRlPz1-_6PL5o","IndianOil","Ground Floor, Bari Kothi Punhana Road Ghatwasan, Luhinga kalan","27.8364795","77.0693757"
"ChIJcds1Z47pcjkRXb1XBRt1rdQ","Karan Singh kirana stor and restorent","JWHR+QJR, Rasgan","27.6294865","76.94151649999999"
"ChIJTQpGNQDrcjkRfcVS4Ucc5WM","Rohit petrol filling station ⛽","JW68+PQF, Bakayanka","27.6118065","76.9169374"
"ChIJZzpBr2HpcjkR-TTCYM2Sl2k","जिया ई-मित्र","MW5V+M85, Golki","27.6591428","76.9433468"
"ChIJVT3WUwDtcjkR9OJRCTUqWQM","JAMVAAY ENTERPRISES DEF FILLING PUMP (ADD BLUE)","FRPV+85Q, Delhi - Mumbai Expressway, BADODAMEV, Seetal","27.485842","76.8429846"
"ChIJowQoANLtcjkRrHPzqCGs4_c","Shree Pilot Filling Station","Sheetal, Barodameo","27.4857513","76.84077309999999"
"ChIJG8HvfQDtcjkRCC8WkrjJpUg","Petrol pump","GV25+XX3, Bhayari","27.502402","76.85961739999999"
"ChIJYRPnGoPycjkR8aJ2dvv89XQ","IndianOil","Ground Floor, SH 14, Barodameo","27.4820067","76.8626127"
"ChIJ81kJIADtcjkR8z2AZ7qG3qQ","HP Petrol pump","GV26+99, Bhayari","27.50145719999999","76.8609592"
"ChIJh9gG1CvzcjkR74Ol5b6fmSs","IndianOil","Ground Floor, Bharatpur Road, Barodameo","27.4792871","76.8787155"
"ChIJ0R9ZmLyScjkRk2FRZcG8oQE","IndianOil","Ground Floor, Bharatpur Road, Ramgarh, Adarsh Colony, Jugrawar","27.4935519","76.8081895"
"ChIJsbOROcCLcjkRaWxn6gIv-jg","IGNITE ENERGY STATION","ON SH-44, TEHSIL- LAXMANGARH, Maujpur","27.3641679","76.8216591"
"ChIJvw7JTk2LcjkRpbOZmNp_zS8","Bharat Petroleum, Petrol Pump -Parasnath Filling Station","MAUJPUR ALWAR, Alwar","27.3628089","76.7964969"
"ChIJOxD-k8mLcjkRyefR8Vprhy8","Ashok emitra","9QJ9+G4J, Berla","27.3813464","76.7677704"
"ChIJPVBSu26LcjkRdLbnIqjElqE","IndianOil","Ground Floor, Laxmangarh Malakhera Road, Chimravali Sikh, Bedar, Alwar","27.3627291","76.78072519999999"
"ChIJu2oW8ABxcjkRWQ1LL70P_ws","Bharat Petroleum, Petrol Pump -Harsh Kisan Service Center","KESHOPURA DAUSA, DAUSA","27.0881684","76.63438119999999"
"ChIJex-M2HlxcjkRU3nL1pxD0Ho","Nayara Filling Station","3J6M+745, Kishanpura","27.0606318","76.63286169999999"
"ChIJa2zpey1ucjkRi7UEBtQM7u8","अभि ई-मित्र & स्टेशनरी","India","27.04740259999999","76.65238649999999"
"ChIJrVdRJgBlcjkRXhRooGZ6RI8","HP Petrol pump","Petrol pump at, Delhi - Mumbai Expressway","27.11826789999999","76.6635639"
"ChIJMWE2y2hxcjkRUJkLAZ5PIl8","Sitaram Bharat Ges Agency","Shop,No.02, near by Chote Lal Sabji Wale Ke Pass, Badiyal Road, Nandera","27.0590293","76.61586750000001"
"ChIJK8aiKeR0cjkRYxZfecP4aFE","Hindustan Petroleum Corporation Limited","Ground Floor, NH 11, Sikrai, Reta","26.92689499999999","76.510434"
"ChIJX4fAMAB1cjkRlfMiZjJfyJ0","Petrol and CNG pump","XF6W+HQ3, Delhi - Mumbai Expressway, Dhigariya Tappa Koleshwar","26.9613941","76.496933"
"ChIJ95qdawB1cjkR8GVme2TfUzc","HP CNG Pump","XF6W+HQ3, Delhi - Mumbai Expressway, Dhigariya Tappa Koleshwar","26.9615232","76.4978258"
"ChIJkVN54BJ1cjkRAfnKILK8Iv8","India Oil Petrol Pump","XF7W+6QQ, Unnamed Road, Dhigariya Tappa Koleshwar","26.9630947","76.4969991"
"ChIJwUaVBFp1cjkRs9Z3YkW7yew","IndianOil","Ground Floor, Delhi - Mumbai Expressway, Km 172, Dhanawar","26.9611925","76.5002019"
"ChIJtcnHXst1cjkR-15U40Ly1Y0","IndianOil","Delhi - Mumbai Expressway, Km 172, Dhanawar","26.9634398","76.49941869999999"
"ChIJPa7mAhN1cjkR7rg45HjccC8","IndianOil","Ground Floor, NH 11, Sikrai, Reta","26.921551","76.493616"
"ChIJ0Tf5de91cjkRIW0AjZENEwA","Essar petrol pump","WGMH+RVH, National Highway 21, Dolika Bas","26.9345607","76.52974379999999"
"ChIJ42EOgBF1cjkRUFmRuAPsytM","Bharat Petroleum, Petrol Pump -Arihant Petroleum (Nrl)","KALAKHO DAUSA, Dausa","26.9190384","76.4755546"
"ChIJZdqCDiv0bTkRMAhDh4pHs2w","IndianOil","Major District Road 63, Aluda","26.7991456","76.40815789999999"
"ChIJR55dEQD1bTkRwATjDzgupAo","IndianOil Petrol Pump","Kilometre 199, Delhi - Mumbai Expressway","26.80035999999999","76.375534"
"ChIJ3STpFQD1bTkRTnl8jtJVZts","IOCL Petrol and CNG Pump","R92G+2Q6, Aluda","26.8002915","76.37729379999999"
"ChIJcUiNr8jzbTkRyPKtIMkEKMU","Nayara Petrol Pump - bhavadiya Filling Stations","NH34, Jaykrishnapur, Murshidabad Dhuliyan","26.7936091","76.34119319999999"
"ChIJe5FLxaL1bTkRxaI9Rpl640w","Hindustan Petroleum Corporation Limited","Khasra No 681, 1 & 2, Aluda","26.8126362","76.3827043"
"ChIJrWqJ_DP3bTkRlHy54CnvNSk","IndianOil","Ground Floor, Nangal, Chharera","26.7509283","76.3957902"
"ChIJE4xtLqXzbTkRqwzb38IRBRM","Hindustan Petroleum Corporation Limited","Ground Floor, Lavan More, NH 11A, Dausa - Lalsot Road, Badagaon","26.817981","76.336034"
"ChIJf9V35GL7bTkRMUvadOcBWJo","Hindustan Petroleum Corporation Limited","Ground Floor, SH 24, Didwana","26.602681","76.304008"
"ChIJAb7Tp8XkbTkRojpUdTEq8cI","Pachwara Filling Station","J7G4+WW9, State Highway 24, Ramgarh Pachwara","26.6272859","76.2573524"
"ChIJW1b0Rnz8bTkRcW2dAEt31KQ","HP PETROL PUMP - NARDYA FILLING STATION","Village Deedwana SH-24 Tehsil Lalsot, Jaipur","26.594398","76.321227"
"ChIJf_oxltQRbjkRFTggvTOpKIc","MR. JITENDRA SAINI","Jatawti","26.2398991","76.2467533"
"ChIJMZxYjUgXbjkRcKI1hLI3xGs","Dev Kirana Store Pvt.Ltd","Bonli, Karadi","26.1873167","76.1932217"
"ChIJ0RgJz0olbjkRNRdeywA5D3o","IndianOil","Ground Floor, Alapur, Sawai Madhopur Road, Kushtala","25.9703619","76.2716769"
"ChIJQx-VLgAlbjkRzKZqNdOi8Ls","Kapil Filling Station","X7CH+FM, Jaisapura","25.9711944","76.2791944"
"ChIJcd1uI68lbjkR343i3AC9Vxs","Bharat Petroleum Petrol Pump , SHARMA FILLING STATION","0, KOTA MEGHA HIGHWAY, ROAD, Sawai Madhopur","25.9589195","76.2851106"
"ChIJpcarTQAlbjkR-4tXF5rXxqc","Jai balaji kushtala","X73M+MH, Kushtala","25.954165","76.28390999999999"
"ChIJAZ9jfiIlbjkRQ-dRVxQjr18","IndianOil","Ground Floor, SH 1, Kushtala","25.9539572","76.2838723"
"ChIJ5e6QlaEzbjkRUC4xP4EIIO0","IndianOil","Ground Floor, Lalsot Kota Mega Highway Indergarh, Lalpura, Antarda","25.765801","76.184401"
"ChIJI2rOyNozbjkR3UY1LgyuOSs","Hindustan Petroleum Corporation Limited","Ground Floor, Indergarh","25.761705","76.18190299999999"
"ChIJoVgWClXJbzkRcRgu8MyBABY","HP PETROL PUMP - MAHARAJA MOOL SINGH FILLING STATI","Khasra No, 152 & 153, Lakher Khatgarh Road, Lakheri","25.6602717","76.1755943"
"ChIJ-d_9-1XJbzkRi5X01oF8mJw","HP","M56F+954, Rajasthan State Highway 29, Lakheri","25.6608851","76.1729624"
"ChIJfXrLLYXFbzkRA1yD9EfIVco","Hindustan Petroleum Corporation Limited","Khasra No 66, SH 33, Laban","25.561214","76.21529799999999"
"ChIJ11VM8v3PbzkRQa1bn5ry284","IndianOil","Ground Floor, Amli, Badakhera","25.5783846","76.23152429999999"
"ChIJxwtK3O3FbzkR0KYKm4Wptg8","SHREE KAMAL ENTERPRISES FILLING STATION (BPCL)","Lalsot - Kota Mega Highway, Laban","25.5298295","76.2062749"
"ChIJiTWAcHbFbzkRaY7DRoa3DIA","Two bonds Fuel Station Petrolpump","Lalsot - Kota Mega Highway, Laban","25.52778239999999","76.2032152"
"ChIJ5RZUc3XFbzkR-ePaYp4q0y4","IndianOil","Khasra No 1402/1384, Near Lagan, Kota Khurd","25.527577","76.2027347"
"ChIJyUpX-AnCbzkRu1yfI1TvjFU","IndianOil","Near, 8 line, Mandawara","25.3855436","76.1956207"
"ChIJH7SrmQfsbzkRH6CppP4nl9g","Hindustan Petroleum Corporation Limited","Khasra No, 490 & 490/1 SH 70, Sultanpur","25.2883332","76.1691231"
"ChIJG9SHOwDtbzkRRvknOU6wpmY","Uttam petroleum corporation","75M6+695, Sultanpur","25.2830079","76.1609838"
"ChIJUZeaJgnsbzkRfZaXyeGlTqs","IndianOil","Ground Floor, Kota Road, Sultanpur","25.284301","76.163701"
"ChIJDw-8qt6KbzkRqcNM2JBvVHE","Bharat Petroleum Corporation Limited Kurar","Deoli, Kota, SH-51, Kota Road, Kota, Kota","25.04199","76.068129"
"ChIJI5-ZXaKLbzkRI6TdgvPOnjw","Nayara Petrol Pump - Malav Filling Station","Vill- Balapur, Tehsil-Ladpur, Dist, Kota","25.0588485","76.0415366"
"ChIJp4bt-UWLbzkR3pafJKZX7AI","BHARAT PETROLEUM PUMP- KALPTARU FILLING STATION","Kurar Near arandkhera, village, Kota","25.049216","76.05444539999999"
"ChIJ4dnlouxjZTkRHPUtQ1WNonw","UMA Filling station Nayara RRO","WWHX+HV2, Major District Road 7","24.9288876","75.9496484"
"ChIJZTCuzuljZTkRIy-IOdth8Lk","BPCL Mandana Bharat petroleum","WWPX+VR, Mandana","24.937122","75.9494663"
"ChIJkZV8IT9jZTkRc62NyImP6J0","Govindam Enterprises BPCL Filling Station","National Highway 52, Mandana","24.9389002","75.94930149999999"
"ChIJ2aRRVYxjZTkRbT9DZZmBr7s","IndianOil","Ground Floor, Ladpura, Mandana","24.9418303","75.9516634"
"ChIJEWhaFPliZTkRi5gatzdx_c0","Gawalera Filling Station","NH 12, Kota","24.9502883","75.9421818"
"ChIJmWO5fPFiZTkRY8PjCS_JSJQ","HP PETROL PUMP - HP FUELING CENTER","Ground Floor, Road, Mandana","24.959551","75.938281"
"ChIJ_dHaGwBnZTkRVgGxJPH26u4","धर","R2P2+JWV, Kota Road, Dara","24.8366211","76.00230789999999"
"ChIJ5RMPe3JmZTkREYP8O2J-Xl4","Ratan Filling Station-BPCL Petrol Pump","Darah, Kota, NH-52, Kota Jhalawar Highway, Kota","24.8357496","76.00400309999999"
"ChIJjfmQtg9lZTkRmGTRuidiehs","Mewati Def urea pump","Dara","24.8440268","75.9882817"
"ChIJg3goTwATZTkRHYPauZEKsKc","Jay Shree Kotri Shyam motors def urea pump","Nh52, Jhalawar Road, Dobara","24.8443796","75.98812769999999"
"ChIJZWFxWxNmZTkRsw97alyq5T8","Hindustan Petroleum Corporation Limited","Khasra No 398, NH 52, Dara","24.8320381","76.0096039"
"ChIJe2ViHaxlZTkRGIuT4Y1LjtQ","IndianOil","Khasra No, 330/205, Ladpura, Bhanwariya","24.8496487","75.9819184"
"ChIJt6qqqtpuZTkRhYp4wGS-Jmw","JAIN BROTHERS FILLING STATION","N.H-12,DHABADEH,Jhalawar highway, DHABADEH","24.725772","75.99525899999999"
"ChIJG8Eav5luZTkR0AAgZNhth4s","Bharat Petroleum Petrol Pump , MORAK FILLING STATION","RAMGANJMANDI, Kota","24.72257099999999","75.965378"
"ChIJQYhU8StvZTkRR-cip2Fb_jc","IndianOil","Ground Floor, NH 12, Modak","24.7690573","75.98681440000001"
"ChIJ5cW0DIVuZTkRwrAACBeyYjQ","IndianOil","Ground Floor, Ramganj Mandi, Binda Khedi, near Mangalam Cement Factory, Jhalawar","24.7217933","75.955455"
"ChIJaSxc2kxpZTkRRoLqEtXXMP8","Bharat Petroleum, Petrol Pump -Mahakali Highway Services","MORAK, JHALAWAR ROAD, KOTA","24.7306049","75.9935943"
"ChIJ3XYdYQBvZTkRa-H8c-0yeNY","CNG PUMP- Torrent Gas, Durga Filling station","QX9P+MQ6, Kamalpura","24.7691737","75.9867688"
"ChIJCdleBf1rZTkRTMpQ_zSF1tM","IndianOil","Ground Floor, Jhalawar Road, Dhabadeh, Kamalpura","24.7142001","76.002201"
"ChIJwaA6EgBrZTkRGRw7E346Qv8","Ramganj Kota","P273+P3, Hirya Kheri","24.71437199999999","76.00273299999999"
"ChIJNQ8TWHFvZTkRlUyvnplNP1w","M/S Raamkripa Fs Kamalpura","NH 52, Kamalpura","24.7719179","75.986069"
"ChIJiWolVEJvZTkR2N8FhUzkLU4","Hindustan Petroleum Corporation Limited","Ground Floor, Ramganj Mandi, SH 9A, Modak","24.736739","75.943653"
"ChIJL0r0awBtZTkRuNmHs1iApeU","R.K. FILLING STATION","MW37+G97, Ramganj Mandi","24.65378","75.91343"
"ChIJ26veDABtZTkRVbNumW67OSU","R.K. Filling station Nayara Energy","MW37+8FX, Goyanda Road, Manda","24.653364","75.91373999999999"
"ChIJxZPaeABtZTkRHHhEb7Pph1g","Indian oil petrol pump","MWHM+88, Goondi","24.6783203","75.9333419"
"ChIJkZcGVQBtZTkRSocFF099pak","S K fueling station","MWPM+9FQ, Rajasthan Road, Goondi","24.685973","75.9337479"
"ChIJwbtO1OUNZTkRAtDPhtu9rMc","भारत पेट्रोलियम श्री सांवलिया फिलिंग स्टेशन (पेट्रोल पंप)","Unnamed Road, Sandhara","24.5542097","75.8640906"
"ChIJSWSpMAqpZTkRYcliYbKvfX8","IndianOil","Ground Floor, Bhanpura Road, Bardiya Amra","24.3366171","75.6579964"
"ChIJw_1nTX2rZTkRlBII4NzW2qI","Vijay Shree Petroleum - BPCL","Boliya Road, Garoth","24.3110067","75.66167879999999"
"ChIJb7P3CiepZTkRIWgoiTRrKHs","NAYARA / ESSAR Abhinav Petroleum","8MC2+HJH, Shamgarh Road, Garoth","24.3178979","75.64742679999999"
"ChIJMbr7rXyrZTkR7KNnpIKfzUs","Shri Krishna Biofuel Station","near Garoth cut, Garoth Ujjain Road, near Garoth cut, Delhi - Mumbai Expressway, Garoth","24.3015546","75.6421276"
"ChIJs1etniOrZTkRk89jyMMektI","Ayushman Petroleum","Express Way, Garoth","24.2898369","75.6405201"
"ChIJLTnjBgCpZTkRG3-9dSTcEUI","Fuel station","8MWH+FQQ, Garot","24.34620349999999","75.6794725"
"ChIJxYHJLACpZTkRZmTflgIaRQI","NAYRA PETROL PUMP ⛽","8MXH+2M3, Garoth","24.3476575","75.6800968"
"ChIJRxkPLQBVZDkRvXeR4OiYdJM","Entry point ( पेट्रोल पंप गुरुकृपा )","DHABLA GURJAR, gurukripa filling essar pump, Dhablagujar Ujjain-garoth rd to shamgarh road Entry point, to, RAILWAY UNDER BRIDGET, Chandkhedi","24.2151519","75.6551226"
"ChIJH8isCsxUZDkRxi3Ghwrzs1w","गुरुकृपा पेट्रोल पंप","Chandkhedi","24.2133063","75.649931"
"ChIJlyoSxLpUZDkR1I-hojRipBM","NAYARA","India","24.2025848","75.6334815"
"ChIJh__r0pVUZDkROQ1d1LRoXjw","Hindustan Petroleum Corporation Limited","Ground Floor, Shamgarh Road, Mandsaur","24.1905701","75.6388801"
"ChIJkcjuBltVZDkRmUQsNngYnlY","IndianOil","Ground Floor Garoth, Shamgarh Road, Aankali, Deewan","24.1938","75.6307034"
"ChIJt-AGJgBVZDkRzphJHJkH-G4","Jai Balaji Petroleum","5JJQ+VM8, Suwasra Road, Shamgarh","24.1819734","75.6390369"
"ChIJCZdk1nNVZDkRPwHZRucq55g","Hindustan Petroleum Corporation Limited","Ground Floor, Shamgarh","24.176735","75.647311"
"ChIJ99KzIJdUZDkRxJoqsMFEWcI","Choudhary Filling Station, Bharat Petroleum","Shanti kunj ,garoth road,, Shamgarh","24.1992049","75.6129875"
"ChIJs2Xt1I33ZDkRXFwltWojLUg","KAVITA FILLING STATION","DAG TO CHOUMHLA, ROAD, Jamuniya","23.9510311","75.7397273"
"ChIJHyAdJgSHZDkRdaNIrkDlDe4","Bharat Petroleum Petrol Pump , SHIVAM AUTOMOBILES","Indokh Road, M.P","23.615968","75.73150300000002"
"ChIJAbromLWHZDkRzgKwdAGC6yQ","Hindustan Petroleum Corporation Limited","Ground Floor, Mahidpur, Makla","23.641506","75.737516"
"ChIJK-ELlP2HZDkRWX_r7w_sUng","Chouhan Kirana Store","Jharda","23.6052093","75.7240351"
"ChIJ6cHT22aHZDkRNo4sPcFdiHU","Hindustan Petroleum Corporation Limited","Ground Floor, Mahidpur, Jharda","23.5992768","75.7203553"
"ChIJK2-iW6WHZDkRvbiU5OEUzIw","IndianOil","Ph No 26, Survey No 960/4, Mahidpur","23.6001954","75.7196944"
"ChIJRUrsE1F_YzkRndWzJmsRFtA","Me Kisan Sewa Kender","1, Jagoti","23.3989227","75.8040008"
"ChIJz2ke5QB8YzkR6-COPP79YeM","IndianOil","Survey No 1032/3 Part, Ph No 115 Jagoti, Dhablahardu","23.397326","75.81057600000001"
"ChIJY5NQJLxwYzkRfZoh3lyb6lk","Bharat Petroleum, CNG Petrol Pump -Jay Nakoda Petroleum","JAITHALTECH ,UJJAIN KOTA R, Ujjain","23.28639","75.8261407"
"ChIJEy3_ss55YzkRKn7Gh1Vy7KM","IndianOil","Ph No 14, Survey No, 2986/5, Dhabla Hardu, Ghatia, Panbihar","23.314103","75.785507"
"ChIJg9FXqYRxYzkRRSBQfr9Gkwk","Bharat Pump","1 Gram Jethal Tek","23.2824257","75.8214371"
"ChIJUYzofgBxYzkRAV03_GpeO9w","Hotel Nandi Resort","7RPG+94J, Ujjain - Agar Road, Jaithal","23.2859692","75.82527809999999"
"ChIJg-QXlr5wYzkRDF07nhImdUU","IndianOil","Ph No 42, Survey No 296, 4 300, Dhabla Hardu, Jaithal","23.2848874","75.8259964"
"ChIJzxLAGvdxYzkRCCw3-_ZzEOw","Atharva Petroleum","ujjain agar, national highway, jhalawad","23.2590625","75.8174441"
"ChIJdQsI1gN0YzkR2Ms8Ep1HvZk","Hindustan Petroleum Corporation Limited","Ground Floor, Kanipura Road, Ujjain","23.2045794","75.8011155"
"ChIJNbqEkXt0YzkRXqzcD4X3cQo","Hindustan Petroleum Corporation Limited","No B, 5, Dewas Road, Rishi Nagar, Ujjain","23.1677962","75.7993236"
"ChIJQZH5R2l0YzkRwvsvleSKOYE","Hindustan Petroleum Corporation Limited","Ground Floor, Ujjain Dewas Road, Ujjain","23.176051","75.788791"
"ChIJ8Uuh4OtzYzkRtknJoRkFijM","Hindustan Petroleum Corporation Limited","Ground Floor, Ujjain - Maksi Road, Pawasa, Ujjain","23.1921541","75.82569529999999"
"ChIJZZ2GkZdzYzkRLXC61HyC2j8","Bharat Petroleum Petrol Pump , MAHAKAL FILLING STATION","PAWASAPANWASA, Ujjain - Maksi Road, Ujjain","23.1898354","75.8206194"
"ChIJhdOl4elzYzkRNJa0YywUerk","IndianOil","Survey No 168/3/1, Ph, 40, Maxi Road, Amodiya","23.1941428","75.8299086"
"ChIJDaC62oxzYzkRQzD54OpvMY4","IndianOil","Lock No 23009, Maksi Road, Desai Nagar, Ujjain","23.1849917","75.8150909"
"ChIJL8GNrIR1YzkRdvIcmUA0VVQ","Krishna Fuels","MR- 5 Inner Ring Road , Agar Maksi Bypass, Ujjain","23.1943079","75.8016884"
"ChIJvc90J7B1YzkRRYYY7E0KtuA","IndianOil","Ground Floor, Inner Ring Road Badnagar Kasba, Nagar, Maksi Road, Amodiya","23.1949697","75.8009795"
"ChIJkyGbAC9zYzkRvO9xY-R3wPM","IndianOil","Survey No 39/1, near Sanchi Dugdh Sangh, Ph No 51, Shankarpur, Desai Nagar, Ujjain","23.1947623","75.8479937"
"ChIJJeiGmyJ1YzkRTOqtCCohU7M","Rukmani Filling Station Bharat Petrol ONLINE CNG Pump","Ujjain Ring Road, Dhancha Bhavan Colony, Bapna Park Colony, Ujjain","23.1974983","75.79458989999999"
"ChIJjVj2AE51YzkR3qxDDHgsEzY","Gurunanak Fuels","near nageshwar dham, Gurunanak Fuels, near nageshwar dham, Kanipura Road, Ujjain","23.1993679","75.7933204"
"ChIJicyAQ8l1YzkRT6cg3F4WUSo","Patrol pamp","5QXV+Q62, Rajendra Nagar, Ujjain","23.1993787","75.7930047"
"ChIJ3f5590F0YzkRAkUVeeFZrPg","Gas Center","near MPEB Office, 16/3, Maksi Road, Ujjain","23.1822103","75.7914782"
"ChIJXSKj0Bl0YzkRiSAaeztyXgE","FUEL CENTER BPCL PETROL PUMP","Ujjain - Agar Road, Ujjain","23.1955259","75.7875105"
"ChIJzUwO4x10YzkRsjttTX6r30A","Hindustan Petroleum Corporation Limited","Ground Floor, Ashok Mandi Marg, Agar Road, Ujjain","23.205808","75.789672"
"ChIJ_3_22C11YzkRtWF1czHnohU","Bharat Petroleum, Petrol Pump -Subham Petroleum","FREEGANJ,NEAR RAILWAY BRID, Ujjain","23.2051297","75.78928069999999"
"ChIJkZd8O6d2YzkRVxWnyNud4yc","IndianOil","Survey No 90/2/1, near Ujjain Factory, Plot 61/1, Ashok Mandi Chouraha, Khilachipur, Ujjain","23.2089167","75.7904643"
"ChIJH2Elmm90YzkReYznpkMMtts","IndianOil","Ground Floor, University Road, Ashok Nagar, Desai Nagar, Ujjain","23.1729875","75.79260459999999"
"ChIJWSz-ju3BZjkRYh9MoqiXUzk","IndianOil","Ground Floor, Ujjain - Agar Road, Ujjain","23.191841","75.7855438"
"ChIJCeo2GLgTYzkRRzNwZsl1Xro","Hindustan Petroleum Corporation Limited","Ground Floor, Ujjain Dewas Road, Narwar","23.075172","75.904484"
"ChIJ5aQfUQANYzkRANFZJFMaa8Q","Nayara petrol pump","3VRM+V9, Datana","23.092163","75.883426"
"ChIJp7tggwATYzkR_Vxdt-6F9M8","Shree Sai Petrol Pump Narwar","3W87+4VM, Ujjain Dewas Road, Narwar","23.0653417","75.9146583"
"ChIJRc-BDQANYzkRjRD6pMkZC6w","Jio BP Petrol Pump","Datana","23.0968448","75.8785762"
"ChIJS_q-jk0NYzkRBr54HHDU2bw","Hindustan Petroleum Corporation Limited","Ground Floor, Datana","23.100294","75.872091"
"ChIJuXPglEASYzkRVMJx0e6vhcY","IndianOil","Lock No Ig 1697 Narwar, Ujjain Dewas Road, Bolasa","23.0576224","75.9273887"
"ChIJWQFRF0gRYzkRTZqmwO22J3c","Hindustan Petroleum Corporation Limited","Plot 686/1 & 686/2 SH 18, Ujjain Road, Dewas","23.015374","75.982236"
"ChIJ6cSOQgARYzkRjJqwfDccfWk","Leela फिलिंग station Leela","2X8J+MP, Bangar","23.0161453","75.9823194"
"ChIJuZMkDt4RYzkR55dYHDrhsgg","Jio BP petrol Pump- Petrol, Diesel, CBG/Bio CNG","No. 26, patwari halka, 129/2/2, Singawada","23.0052289","75.9936541"
"ChIJiZgN83YRYzkRZsdxLrXDlg4","IndianOil","Survey No 65, Chandana","22.9619962","75.9915963"
"ChIJfWkFkukdYzkReR4C8B_zU_A","Jio-bp","opposite Hpc Bottling Plant, Ground Floor Nh 3, Ab Road, Sanwer, Lasudia Parmar, opposite Hpc Bottling Plant, Indore","22.8417857","75.9435397"
"ChIJCwHdTikaYzkRsdyw6ILku5g","Hindustan Petroleum Corporation Limited","Ground Floor, Agra - Mumbai Highway, Kshipra","22.905151","75.987471"
"ChIJdc6h2_gbYzkR7joLH9hWX74","IndianOil","Ground Floor, A B Road Dakachaya, NH 3, Barlai Jagir","22.868214","75.961978"
"ChIJW9qGKvYbYzkRJj7KeOuzBgA","Arjun Baroda OSTS","Arjun Baroda","22.8720513","75.9645827"
"ChIJd59f7pUbYzkRpeTWEM3yj2U","BPCL COCO OUTLET PUMP ARJUN BARODA","National Highway 3, Baroda Arjun","22.8721125","75.9646192"
"ChIJwcHLCccbYzkRuaoygrsIKpk","Hindustan Petroleum Corporation Limited","Ground Floor, NH 3, Agra - Mumbai Highway, Arjun Baroda","22.882233","75.9715241"
"ChIJl7C0O3YbYzkRvZ3dUDUXvaQ","SUNIL SERVICE STATION DIESEL PUMP","N H 3, National Highway 3, Lasudiya Parmar","22.8505969","75.94952529999999"
"ChIJK6iqwjEdYzkRh4nu_0qJtSI","Aavantika Gas Limited CNG Station","India","22.8420203","75.9437829"
"ChIJH6dZh9xpYjkRv18eSveaN70","SHREE DUTT FUELS CNG PUMP","A.B. Road, National Highway 3, Bhodal","22.9005937","75.97570689999999"
"ChIJjbIxEgAbYzkRNPJnFknHOfg","Sipara Indore road","VXXM+P2Q, Kshipra","22.8993299","75.9826075"
"ChIJwYuiA4YcYzkRu5qaBkqs8Wg","IndianOil","KM Stone, Ground Floor NH 3, Raukhedi,Badayala Mata, near No 591/2, Ratlam","22.836144","75.940902"
"ChIJj3PK7bTiYjkRSplFneFeKQY","PALIWAL FUELS CLUB HPCL STAR","865/2, Khajrana,Ring Road Circle, Khajrana Road, Indore","22.731396","75.9014541"
"ChIJV8XmgsXiYjkRPSRg7Z5BWvw","The Tasty Treat","Prem Bandhan Chopati, near Petrol Pump, Indore","22.7199068","75.9122379"
"ChIJX5CPtEz9YjkR6xjBgP_AP98","IndianOil","LIG Link Road, Ring Road, LIG Square, Indore","22.7341181","75.8996882"
"ChIJW7N1oaoCYzkRLVwYBUzmBQo","Hindustan Petroleum Corporation Limited","Ground Floor, MR 10 Road, Khajrana, Indore","22.7507359","75.89860840000001"
"ChIJc_AQm1b9YjkR1CrYhZweFPU","Raghunath prasad and co . BPCL petrol pump","Infront of, Plot no 25 , Sheme no 54, AB Road, Vijay Nagar, Badi Bhamori, Indore","22.7453065","75.89422940000001"
"ChIJaZm6z1X9YjkRwsg4Lrh6KpY","IndianOil","No 307, AB Road, Vijay Nagar, DDU Nagar, Scheme No 54, Indore","22.7478152","75.894913"
"ChIJMdOViHIdYzkRbH9ksBCyJ44","Essar-Nayara Petrol Pump","QWFP+Q47, Bypass Rd, Omaxe City 1, Nipania, Indore","22.7744181","75.93528169999999"
"ChIJXzp2wJYbYzkRLBesEKZZDGA","IndianOil","CGO Complex Bypass Road, NH 3, Mayakhedi, Indore","22.77674","75.93634709999999"
"ChIJzeEsmjf9YjkRgTalXWfX7-4","IndianOil","New no 14/1, near Palasia, No 1/1, Old Palasia Road, Chauraha, Indore","22.7238933","75.88930669999999"
"ChIJxa1lkWfjYjkRG98uSbVqVq4","Hindustan Petroleum Corporation Limited","Ground Floor, MR 9 Road, Khajrana, Indore","22.736469","75.930533"
"ChIJSYtqLZriYjkRrB-Bn2ZAsxQ","IndianOil","Scheme No 159, No, MR10 County Walk Township, Indore","22.7444361","75.92943"
"ChIJJR0hD-viYjkRUY5AFJh5Kyk","Hindustan Petroleum Corporation Limited","Ground Floor, near Bypass Junction, Kanadia Main Road, Indore","22.72708870000001","75.92693349999999"
"ChIJQx9v2ZrjYjkRdDwfpC9HdAI","Bharat Petroleum, Petrol Pump -Gangotri Developers","KANADIA, Kanadia Main Road, Indore","22.7249666","75.9220293"
"ChIJVamvQgDjYjkRrh3guNN92Bc","Mahin bhai's house","PWH9+V64, Heena Palace, Indore","22.7296383","75.9180741"
"ChIJ59g0qPbjYjkRWZo0jO7arfU","Bharat Petroleum, Petrol Pump -Khajrana Petro Needs","Khajrana, Indore","22.7320085","75.9114285"
"ChIJ1YE7yl8dYzkRJFp-6xdKyAU","IndianOil","Ground Floor, near Apollo Db City, Nipania, Indore","22.7549626","75.92208769999999"
"ChIJo-hSNu7jYjkRLio7Zlb7RLs","Balkishan Kushwaha","9, Indore","22.7430511","75.90963959999999"
"ChIJZzo2Q5AdYzkRXO0OMUDvP38","Hindustan Petroleum","Hindustan Petroleum, Indore","22.7576054","75.9218446"
"ChIJmfgcMQDjYjkRRv0-yYeBSjc","Bhura","PW98+63Q, Shiv Shakti Nagar Road, Sarv Suvidha Nagar, Indore","22.7180843","75.9152201"
"ChIJ58ETuCsdYzkRrJyrpBiU1uc","IndianOil","CGO Complex, near Oscian Park, Nipania, Indore","22.7605498","75.92976519999999"
"ChIJe-exWE_7YjkRzJUfaVLyfmw","IndianOil","Ground Floor, Khandwa Road Kelod Kartal, Datoda, Kasturba Nagar, Indore","22.64004300000001","75.88798299999999"
"ChIJO-f1B8D8YjkRf85XGeNgJH8","Bharat Petroleum, Petrol Pump -H.S. Road Carriers","PALDA VILLAGE,NEAR GURUDRA, Indore","22.6785507","75.8781407"
"ChIJPW6rn9j7YjkRm_KkD0WL6pc","Reliance Petroleum","Ground Floor, near Carmel Convent School, Sh 27, Khandwa Road, Indore","22.6362616","75.8885961"
"ChIJaeQy4877YjkRQl5CebBFPPM","Bharat Petroleum, Petrol Pump -International Service Station,Kh Rd","KAILODKAR TAL,SH27,INDORE, Indore","22.632466","75.8881814"
"ChIJE_EAJrv7YjkRjgfx_TpkZIM","Purwa Gas godown CCTV service electrician service","JVHF+Q7, Morod","22.6294983","75.87321829999999"
"ChIJV0jzS6_7YjkRGCLchaoaby8","Bharat Petroleum, Petrol Pump ke pss","KAILODKARTAL,INDORE BYPASS, Indore","22.6371836","75.8688569"
"ChIJf_kuxHv7YjkR_fY6znIvrDY","IndianOil","Ground Floor, Khandwa Road, Morod","22.6200942","75.8860864"
"ChIJPwwOSCX7YjkRf1TmyNGcBPA","IndianOil","Ground Floor, Khandwa Road, Morod","22.6181901","75.887468"
"ChIJv3Qp1ez9YjkRvlbaewT2pCs","S.S. Auto Energies","Limbodi, Indore","22.670136","75.881925"
"ChIJu4xZHe77YjkRYuhT_nyJkw0","Bharat Petroleum, Petrol Pump -Ramsingh & Sons","NIHALPURMUNDI,NH-3 BY-PASS, Indore","22.63938","75.84980270000001"
"ChIJUfrcEATjYjkR3GEim--_oVM","RK FUELS","MWG3+2C3, Dev Guradia Road, Udhyog Nagar, Nayta Mundla, Indore","22.6750161","75.9035335"
"ChIJ91PyOiXjYjkRFmbYWYTL60c","Hindustan Petroleum Corporation Limited","Ground Floor, Palda, Rto Road, Udhyog Nagar, Pathar Mundla, Indore","22.675091","75.90357399999999"
"ChIJ3dcO9iz9YjkRHm1m-YoRSis","Kale Petrolium","12 Newmarket, Indira Colony, Indore","22.6752303","75.8747209"
"ChIJmSenowf9YjkRfAK0WoILc2o","Petrol Pump","in front of GURUDWARA GATE, 44, in front of GURUDWARA GATE, Khandwa Naka, Indore","22.6765662","75.8747946"
"ChIJw3qjx6fjYjkRp8tEdwEMj7s","IndianOil","Ground Floor, Dev Guradia Road, Dosdar, Nayta Mundla, Datoda","22.6710891","75.917621"
"ChIJM6QpRkv9YjkRDUOcqHd8ZV8","Gaurav Petrol Pump","Sanjay Gandhi Nager, 6, New RTO Road, Dinesh Nagar, Palda, Indore","22.6810238","75.8969109"
"ChIJjdornF_5YjkRz1sFuwQA6tw","IndianOil","CGO Complex, Rau Square, AB Road, Indore","22.628418","75.80560299999999"
"ChIJbZ7ibWT5YjkRMW8BpE6W-FM","Bharat Petroleum - Granth Petro/CNG Filling Station","Pigdambar","22.6155355","75.7990192"
"ChIJ9XrC7p75YjkRscQpDjpjNJo","IndianOil","Ground Floor Umaria, Mhow,Pigdamber, Indore","22.5966889","75.78744089999999"
"ChIJZzedYV_5YjkRj2Bi1HRky8Y","HP Petrol Pump","Mega City Circle, Rau, Indore","22.6296914","75.80673329999999"
"ChIJvYG-WPf7YjkRvVrjtptkKyo","Bharat Petroleum","Shramik Colony, Rau, Raumhow, Rdindor, NH-3, Agra Bombay Road, Ab Road, Indore","22.6452","75.8186"
"ChIJ8TzRaJP7YjkRAbIwR6c5NOo","IndianOil","Ground Floor, Indore Bypass Road, Pigdamber, Indore","22.6346429","75.8318331"
"ChIJOX5oOwD5YjkR_5R_AQL7h0I","Jirati Fuel Station","JQ8X+GCP, Pigdambar, Indore","22.616329","75.7985807"
"ChIJRTyHvaz5YjkRTeZvRCUURBw","Phoenix Car Fashion","near DMart, 02, hui hui hui, near DMart, Indore","22.600361","75.7910682"
"ChIJ8aqUZxz5YjkRcKG09RxlCWo","Hp petrol pump","HQWP+3FG, Mhow - Indore Highway, Harnya Khedi","22.5951877","75.78621"
"ChIJFZURnyH5YjkR5n_knxJx5Mk","Bharat Petroleum, Petrol Pump -M.P.Bombay Fuel Center","SONVAYE, Indore","22.6121491","75.77177309999999"
"ChIJpR-24xr5YjkRKGxwNonN6OM","IndianOil","Survey No 193 Paiki, Mhow, Sonway","22.6123527","75.76982590000001"
"ChIJu6YVyIv5YjkRYqXwKvFRiWQ","IndianOil","Ground Floor Pigdamber, near Iim Indore Gate, to, Cat Sq Road, Indore","22.6322139","75.7939359"
"ChIJq6uwHsP5YjkRsO5Nt2OZ69o","Mehtab fuels","315/1, Rau, Sonway","22.6234691","75.7731661"
"ChIJIUEYlw35YjkRuljj9c5k0dg","Hindustan Petroleum Corporation Limited","S No 3151/15/6/1/315/6/2, Rau - Pithampur Road, Pithampur, Indore","22.6237584","75.77317"
"ChIJW9N9HAz5YjkRhwAB0BYKatI","Hindustan Petroleum Corporation Limited","Ground Floor, AB Road, Rau, Indore","22.6303307","75.80697599999999"
"ChIJFabWfcH7YjkRIugtCGA64Ro","TRIVENDRA KA GHAR","JRM6+55V, Rau, Indore","22.6329859","75.8104335"
"ChIJ57ELyaL5YjkR26Mo1o4__sY","HP DIESEL , CNG PUMP - GOPIKISHAN CHHOGALAL","Rasalpura Mhow Indore, Agra-Bombay Road, Harnya Khedi","22.5830606","75.7787498"
"ChIJ95GC8lf5YjkRZCcg1J9W7PA","Nayara petrol pump","JRQ4+67V, CAT Road, Rau, Indore","22.6381193","75.8056845"
"ChIJuxdHLwD7YjkRN3qvF1s1PXQ","A one petroleum","Ashok Vatika, 553/2/1, Rau, Indore","22.630871","75.8181464"
"ChIJ-d0UaQD7YjkR5PDeKh2odko","Hindustan Petroleum Corporation Limited","1244/2, 1244/1/2, Survey No 950/2, AB Road, Rau, Indore","22.630991","75.818147"
"ChIJP1IBzsxXYjkRJpr_PwrcZ6M","Bharat Petroleum Petrol Pump","HMRX+WHW, Indrapuri Colony Main Rd, Pithampur Industrial Area, Indore","22.5923731","75.6989435"
"ChIJyVFYflRXYjkRvK5xx-190es","IndianOil","Survey No 471, 1/1/2 & 471/2/2, Karam, Khandwa","22.5884779","75.6587998"
"ChIJW8y157hXYjkRBf1ykVgdia0","Hindustan Petroleum Corporation Limited","Ground Floor, NH 52, Pithampur","22.580778","75.65142"
"ChIJsTAYnENXYjkRrHbAzLfSWgM","Bharat Petroleum, Petrol Pump -Garg Fuel Centre","DHANAND,RAU-PITHAMPUR RD,I, INDORE","22.6108199","75.66203399999999"
"ChIJKxHTTFdXYjkRODdgKkQCF00","Reliance Petroleum","Plot No 14/01 Akoliya, Maunimach, Rd","22.6121561","75.6585666"
"ChIJ9WblCl9WYjkRXxdLZHYfBq8","Hindustan Petroleum Corporation Limited","Ground Floor, near Dak, Pithampur","22.610151","75.66894099999999"
"ChIJXYtCxLVXYjkRAI986u008Uc","Bharat Petroleum","HJ7X+XPV, Jamanya","22.56499930000001","75.64930919999999"
"ChIJhzpx0xZXYjkRsUyvnVWvwzA","Bharat Petroleum Petrol pump United Highways BPCL","Tehsil : Mhow, near Sunrise Town, NH-52, Agra - Mumbai Highway, Banjari","22.5917851","75.6869935"
"ChIJk8SMIABXYjkRXcdvWwBZUsA","Shri Krishna transport and treding campani","JM6G+CWR, Pithampur","22.611121","75.6772689"
"ChIJj5SNJwBXYjkRscIOB1axR7g","Booster CNG","HMRQ+8Q6, Pithampur Industrial Area, Banjari","22.5902991","75.6896206"
"ChIJYeKfXShXYjkRdElVRHJ9vlE","Hindustan Petroleum Corporation Limited","Ground Floor, NH 3, Agra - Mumbai Highway, Banjari","22.590318","75.690038"
"ChIJcXxWTAv9YjkRUz2_iGhtT9U","IndianOil","Survey No 68, Ph No 37, Sagour Kuti, Kalibillod","22.6113442","75.6815986"
"ChIJbZe7imBXYjkRmjgqA9Le6eQ","DURGA FUELING STATION","1-c, Sagour Kuti, Pithampur","22.6059742","75.6866132"
"ChIJecTJKixXYjkRLsq4ZMh7V8c","Jio-bp pulse","No 37/1, Viswas Nagar, Banjari","22.5900418","75.6921888"
"ChIJO4hovCdXYjkRqD8YS-ys3IE","Nasrani fuels","near sez phase 2, 80/2, village bardari, Pithampur","22.6175058","75.64448569999999"
"ChIJ1ZBzG5ZWYjkRc-XPKuHxG0I","IndianOil","Ground Floor, near SEZ Phase 2, Bardari, Pithampur, Dhar","22.6177001","75.64469799999999"
"ChIJYYXQU_tXYjkRGNfhTVDMGBg","Bharat Petroleum, Petrol Pump -Anay Fuels","JAMNAYA JAGIR, INDORE","22.5563213","75.6508103"
"ChIJw3wUnTZWYjkRChvAM2j-1_c","Bharat Petroleum, Petrol Pump -Tamim Filling Station","PITHAMPUR, DHAR","22.5981699","75.69420269999999"
"ChIJtefVAB5XYjkR3E2i08cHu70","Bharat Petroleum, Petrol Pump -Jeerapur Golden Transport Co.","BHATKHEDI,MHOW NEEMUCH RD,, Indore","22.5943572","75.695805"
"ChIJcRcbEgRXYjkRzJiZc0jDXqU","MEHMOOD SETH","HMWW+5HM, Pithampur Chopati, Pithampur Industrial Area, Bhatkhedi","22.5954555","75.6964227"
"ChIJGyrYlRxZYjkRIbHze_9WXVY","IndianOil","Ph No 8, Sur No 78, 3, Mhow, Kuwali","22.4825506","75.6629979"
"ChIJI9CpMXZZYjkRPQOibVb5LJI","Essar petrol pump","FJ6X+9C4, Agra - Mumbai Highway","22.4608908","75.6485738"
"ChIJu4yAyOhZYjkRo-t54LcFjrA","Hindustan Petroleum Corporation Limited","Ground Floor, NH 3, Mhow, Yashwantnagar","22.4613059","75.6490021"
"ChIJWRxmuTpZYjkR1lZHx5lMjBI","IndianOil","Ph No 16, Sur No 30/2/2, Yashwantnagar","22.4662629","75.65092260000002"
"ChIJq8r_hOJZYjkRx1rIwKoGWfk","Bharat Petroleum, Petrol Pump -Shivram Auto Service","MANPUR,NH3,INDORE, INDORE","22.4681064","75.6531019"
"ChIJZ1v9ggBfYjkRs2V2uLwZC8w","Hindustan Petroleum Corporation Limited","Ground Floor, NH 3, Kankriya","22.4466683","75.6347601"
"ChIJ8d1FMIxfYjkRHSfnGfpjgSE","Bharat Petroleum Shrinath Petroleum","161/2/1, Agra - Mumbai Highway, Vill, Kankriya","22.4465583","75.63331509999999"
"ChIJv6LueQBfYjkRsbg_rnzueuI","जितेंद्र सिंह निनामा","CMV6+XV, Kankriya","22.4449027","75.66224679999999"
"ChIJYdy7-qteYjkRe3VcZkeZiGE","Hindustan Petroleum Corporation Limited","Ground Floor, Kankriya, Manpur","22.4410766","75.62548009999999"
"ChIJn55t0ihfYjkRFbvFMZ3YV0c","Reliance petrol pump, Devas","CJQF+RVX, National Highway 52","22.4396145","75.6247226"
"ChIJ6at3TQBZYjkRxi5QvvK7Fzw","Jio Petrol Pump","FMJ6+JV, Kuwali","22.4816037","75.6622447"
"ChIJpSwgFQBZYjkR9Ffyn_H1xCM","JIO PUMP MANPUR JANAPAV","FMP8+39W, Kuwali","22.4852466","75.66595880000001"
"ChIJ2SPhFANdYjkRdG1HbivNN0M","laxmi oil","near MANPUR, Agra - Mumbai Highway, Kuwali","22.432756","75.6199558"
"ChIJf3gjXJxZYjkRG8Ou1VYhWvk","Hindustan Petroleum Corporation Limited","Ground Floor, Hasalpur, Dr. Ambedkar Nagar","22.498055","75.6356632"
"ChIJE3hvjfVbYjkRTSHoFIjtfgo","Nayara Petrol Pump Sherpur","CJV2+VPC, Sherpur","22.4446925","75.6017699"
"ChIJlyXDe5tZYjkRdnIqThmwy30","IndianOil","Khudalpura","22.5000042","75.634754"
"ChIJHxl9GgBZYjkRP5qPTkga-7E","Shree mithiya balaji Krashi Seva Kendra","GJ2M+2W2, Khudalpura","22.5000121","75.6347607"
"ChIJ27DIPPdoYjkRvTAuBMkYG3o","Reliance Petrol Pump Dhamnod","7FQV+XW9, Sirsodiya","22.28992329999999","75.49487049999999"
"ChIJJ9QSvxBpYjkRvkXXJiVTlRQ","IndianOil","Ground Floor Sirsodiya, Dharmapuri, Balwari","22.3124252","75.4956995"
"ChIJJbzCciJpYjkRojS5uqzd2as","Reliance Petroleum","NH-3, VILL - CHIKTIYABAD, A.B. ROAD, THESIL -DHARAMPURI , DIST - DHAR Dhani","22.2859696","75.48881659999999"
"ChIJnVk403hpYjkRBgIM3feozIo","IndianOil","Ground Floor NH 3, Chiktiyabad, Dhamnod, Balwari","22.281522","75.49310009999999"
"ChIJk80YkOVoYjkRWgOubLocACU","Hindustan Petroleum Corporation Limited","Ground Floor, Agra - Mumbai Highway, Chikatyawad, Dhar","22.281101","75.492631"
"ChIJkQxgh-9oYjkRSMvsFcph4Pc","BP DHAMNOD, BPCL COMPANY OUTLET PUMP","Madhya Pradesh State Highway 31, Sirsodiya","22.2803388","75.49228750000002"
"ChIJn-ybsmRbDjkRheNhkvXv1KY","IndianOil","Ground Floor Bhodal, NH 3, Ahu","22.27388879999999","75.4897843"
"ChIJv7QhvaRpYjkR-6_tJAc2wHI","Hindustan Petroleum Corporation Limited","Ground Floor, near Cube Stop, NH 52, Agra - Mumbai Highway, Bhodal","22.272908","75.48914599999999"
"ChIJVZrDFiNoYjkR4MMoD24V7Ow","Hindustan Petroleum Corporation Limited","Ground Floor, NH 3, Agra - Mumbai Highway, Maheshwar, Kakadda","22.331096","75.500898"
"ChIJQ-HghIVpYjkRyAleKdWjsF4","Jio-bp pulse","Ground Floor Bypass Lodhipura, Dudhi","22.262466","75.4851309"
"ChIJ0U4t0xNxYjkRBA9cIX9Gf00","Ashutosh enterprise bio disel pump","4C5Q+PJ5, AB Road, Nimrani","22.109253","75.4391184"
"ChIJe_tlyilxYjkRzEoi3cchr6s","NAYARA ENERGY NARMADA AUTO ENERGY","4CCX+X96, Asian Highway 47, Nimrani","22.1224162","75.4483867"
"ChIJydNYNf9zYjkRVOeOGlb5xpU","HP AUTO CENTER.","Hp Auto Center, Satrati","22.10912459999999","75.4333158"
"ChIJQ_FtZrdxYjkRwW87YB-AJpo","IndianOil","Ground Floor, NH 3, AB Road, Satrati","22.105466","75.437251"
"ChIJ57dUnSxxYjkRuPs9R6xmVbw","petrol pump","4C4P+7M, Aurangapura","22.105718","75.43665949999999"
"ChIJa08_ydxxYjkR_FgJPQa3InM","Jiya fillings station","Nimrani","22.12749579999999","75.4483506"
"ChIJoZvj8nVxYjkRJpJY6LqHvYE","Yamuna Filling Station Petrol Pump","4C5J+R2X, Nimrani","22.10962040000001","75.43010269999999"
"ChIJzfvGtipyYjkRGkWP0Ghwqmk","Hindustan Petroleum Corporation Limited","Ground Floor, Satrati","22.1033339","75.4331049"
"ChIJzdWrBBNxYjkRkv_4LqKK5hU","IOCL Petrol Pump - NARMADA HIGHWAY POINT","NH3, Khal Khurd","22.1406552","75.4464899"
"ChIJC0igbptzYjkRtKOtEIs1sw0","IndianOil","Survey No 12/1, Lendipura, Kasrawad, Amlatha, Lendipura","22.0875874","75.4191953"
"ChIJqVRB5v1zYjkRDsOSads4Rlw","Bharat Petroleum, Petrol Pump -Pancheshwar Petrol Pump","GRAM MUKUNDPURA,NH-3KHARGO, KHARGONE","22.087492","75.41759259999999"
"ChIJMaR1NQBzYjkRdYyjuT42uAU","Adani CNG pump","3CQ8+3W, Makundpura","22.0877258","75.4172688"
"ChIJK9bX7rtvYjkRs1t_7923I4k","Aashirwad Fuels","near Ram Mandir, near Sameti, Old Road, Khalghat","22.1577659","75.4539088"
"ChIJH35QRBGh2DsRB4ntuUbVtZU","IndianOil","Ground Floor NH 3, Chikliya, Lingwa","21.9271753","75.26050630000002"
"ChIJIXNUUwCh2DsRbIRo0MawHRc","CNG petrol pump 24*7","W7G6+R54, Bakwadi","21.9270086","75.2604618"
"ChIJm0lNfw6h2DsRF59VoJhIpUM","Lingwa Wale","Narmada Deb Sangam, Lingwa","21.9357138","75.2531008"
"ChIJWy7CEQCh2DsRFs-SGWj6aB0","DEF AD BLUE PUMP SHREE SIYARAM ENTERPRISES","W7VF+CH4, Relwa Khurd","21.9435242","75.27394559999999"
"ChIJlV3vPSyn2DsR4wp65ljRKxE","IndianOil","Survey No 168, 6168/7170/8, Basavi, Rajur","21.9064001","75.24300099999999"
"ChIJN47YEgALYjkRYYWXNMK_3k0","M. L. Gupta Fuel Station","X76M+8WM, Badsalaya","21.9608479","75.28481"
"ChIJ1_NtMYmm2DsRzWWoLjXmtcs","IndianOil","Ground Floor, NH 3, Julwania","21.859135","75.207481"
"ChIJa9_DpX-n2DsR0mPlSyz0jQA","Bharat Petroleum, Petrol Pump -Talib Hussain & Sons","JULWANIA,MUMBAI-AGRA RD,BA, BARWANI","21.8634525","75.2089946"
"ChIJ-fiFiIam2DsRXhPMhopSeow","Hindustan Petroleum Corporation Limited","Ground Floor, NH 3, Agra - Mumbai Highway, Julwania","21.8491533","75.19974549999999"
"ChIJWwO_g4Wn2DsRSxT9QSeY4wE","IndianOil","near Bus Stand, Survey No 161/1Kh Rajpur, Julwania near, near Bus Stand, Barwani","21.8697737","75.2142106"
"ChIJzcHTuben2DsRXLVB4CIZ9H8","SiyaRam DEF/Adblue Pump","New Ab Road,By pass, Julwania","21.8722678","75.2159978"
"ChIJ_czSDjyn2DsRFJDHnSEarBE","Nihali Cng pump","V6MH+G5G, Nihali","21.8842081","75.22847879999999"
"ChIJhRrDF8Om2DsR9QD7gBynVsk","Bharat Petroleum, Petrol Pump -Danish Fuels","NIHALI,NH3,BARWANI, BARWANI","21.88439099999999","75.2283617"
"ChIJ2Rf_Cyil2DsR_E2QcblRa2s","Hindustan Petroleum Corporation Limited","Ground Floor Balsamud, Road, Nagalvadi","21.8213562","75.2111565"
"ChIJCUbpV-il2DsR1DlKzRsZTz4","Bharat Petroleum Petrol Pump , AMBAJI FUELS","VILLAGE OJHARNANGANWADI ROAD BARWANI, M.P","21.818533","75.22230499999999"
"ChIJFysjTL-l2DsRjOwsyVrN8bc","Hindustan Petroleum Corporation Limited","Ground Floor, Agra - Mumbai Highway, Julwania","21.8197316","75.1818483"
"ChIJ0fq1Cge32DsRptMeMvab2JA","IndianOil","Ground Floor, near Sendhwa, Goi, Gawadi","21.630551","75.076089"
"ChIJ8ztPkL222DsRNFrHCmvhajg","Hindustan Petroleum Corporation Limited","Ground Floor, Agra - Mumbai Highway, Newali, Gawadi","21.6287901","75.07659009999999"
"ChIJ5eise3G32DsRvSnN33-smI0","IndianOil","Indian oil NH 3, Khadkiya Sendhwa Near, Khadkiya","21.641278","75.0768394"
"ChIJbZY8HLG22DsRuKUuhjgqdOw","Bharat Petroleum","J3VG+4P2, Gawadi","21.6427532","75.076759"
"ChIJFR_YKL2x2DsR-tUMNZrYbo4","Jio-bp","opposite Maa Choti Bijasani Mandir, Old A, B. Road, Sendhwa","21.6657096","75.0811987"
"ChIJC09xLQ2x2DsRAn_rAk_XLAk","JAISWAL PETROLEUM","Reliance Pump, Mechanic Nagar, Sendhwa","21.66567","75.0817063"
"ChIJhzXgK0ex2DsRdAw5vrydiWI","Bharat Petroleum, Petrol Pump -Jaydeep Cargo Movers","KHADKIYA (SENDHWA),NH3,BAR, BARWANI","21.6681145","75.0828101"
"ChIJS3x7_vTL2DsRbA0EJYZZ_S0","Hindustan Petroleum Corporation Limited","Gat No 50/1, B/P, NH 52, Agra - Mumbai Highway, Palasner","21.5248486","75.0432871"
"ChIJhYyt6RfK2DsRDW8yUiQLD-Y","Indian Oil Petrol Pump","Palasner, Dhule, NH-3, Mumbai Agra Road, Dhule, Dhule","21.533231","75.04811099999999"
"ChIJQSlNIZbL2DsRysyC0v19cjA","Trambakraj Petroleum","G24C+FGJ, Panakhed","21.5062162","75.0212517"
"ChIJtRDXz8ky3zsR9tagmTQc9c0","NAYARA ENERGY - MISHRA & CO. PETROLEUM","9XP5+5QG, Natwade","21.3854343","74.95945549999999"
"ChIJC0b5WAAz3zsR1DOUQ9UiVq8","TATA MOTORS AUTHORISED DEF POINT","9XM5+X53, Natwade","21.3848966","74.9579177"
"ChIJxR1IH9wz3zsRll9lD68XVLc","Bharat Petroleum, Petrol Pump -Vaibhav Petroleum","Natwade","21.3839111","74.9580934"
"ChIJRV7cPyvN2DsRuP-EmiIs-z4","Hindustan Petroleum Corporation Limited","Gut No 21/4, A/P, NH 3, Agra - Mumbai Highway, Shirpur, Sule","21.4048548","74.9687423"
"ChIJ856j-BbN2DsRZJ4_kNmqHIA","Hindustan Petroleum Corporation Limited","Ground Floor, NH 52, Sule","21.406066","74.9695124"
"ChIJO5_GZ88t3zsRJuyoP9V_co0","Sadashiv petroleum","9W3X+8W9, Dahivad","21.353159","74.9496143"
"ChIJPU6Uvawp3zsRx8vE9FRD1h8","IndianOil","Ground Floor NH 3, Pimprad, Ajande Khurd","21.2032864","74.82860730000002"
"ChIJOZWjpcgp3zsRX6DpDk5bVa0","Bharat Petroleum, Petrol Pump -Raghuwanshi Petroleum","VARSHI, DHULE","21.23489439999999","74.8384897"
"ChIJg99Dxrkp3zsRqd4EZynqE2g","IndianOil","Survey No 300, Hissa No 2, Babhulwadi","21.233352","74.836893"
"ChIJwY6SWAAp3zsR4Y_Pmwp2JHo","Tathyasaheb Petroleum (Nayara Energy)","7R4V+WPJ, Dabhashi","21.2573446","74.8442799"
"ChIJQ1o4mAYp3zsR6Ey5nqFza3Y","IndianOil","Gut No 80/3, Sindkheda","21.224135","74.83538399999999"
"ChIJl0Oyd1TX3jsRAF5Euorje4s","AHMY SONGIR Bharat Petroleum Corporation","Songir","21.0703161","74.7862131"
"ChIJQWu_yUTR3jsRwnrf8puHTng","Bharat Petroleum, Petrol Pump -R.R.Petroleum","Sarwad","21.036068","74.785223"
"ChIJ8dbNznfR3jsRg37R6JGOz0E","Shree Shyam Petroleum (Nayara Energy)","Road, Deobhane","21.0276308","74.7927636"
"ChIJc4052MHZ3jsRqObC5-rAv-E","IndianOil","Gut No 53/2, Gorane","21.087713","74.76097899999999"
"ChIJJYhhVmbXwjsR1sLCfJQwHzk","IndianOil","Survey No 37, Plot No 6, Road, Kshire Colony, Bhokar","20.9180666","74.76836829999999"
"ChIJveVKS4nF3jsRkNUPHHUuDSM","IndianOil","Ground Floor, Deopur, Dhule","20.910058","74.7746576"
"ChIJfW2UMvHF3jsRzTzix0tL-qA","Hindustan Petroleum Corporation Limited","Survey No 3288/A, Sabir Nagar, near Shivaji Statue, 635, 1st Lane, Dhule","20.8951305","74.7745322"
"ChIJYRVlJrXP3jsRJMNq5tyLtrM","Hindustan Petroleum Corporation Limited","Ground Floor, Drivershan Road, Deopur, Dhule","20.9308285","74.7852869"
"ChIJk54nXADF3jsRa4itcShhcOA","Go Gas Auto LPG Pump Deopur","Nafees Mansion, Agra Road, Sharda Nagar, Bhoi Society, Dhule","20.9277992","74.7768482"
"ChIJb0-D-R3F3jsRYNpG6m46zE4","A one servo petroleum","12, Shrirang Colony, Deopur, Dhule","20.92779449999999","74.77641559999999"
"ChIJNUyjx7LF3jsRuf50PmeNros","Hindustan Petroleum Corporation Limited","No 30/4/1, Survey, Gondur Airport Road, Deopur, Walwadi","20.925891","74.7679161"
"ChIJtykZAbDF3jsRrr8GymryWfI","Hindustan Petroleum Corporation Limited","B/1, Plot no, Gat No 27/2/A, 1 ,27/2, 2, Deopur, Dhule","20.916189","74.7765103"
"ChIJKa5QO4vF3jsRz8GK7ilxY7U","Hindustan Petroleum Corporation Limited","Plot No 37 & 38, Deopur, Dhule","20.913361","74.78054100000001"
"ChIJ-b8o1p_F3jsR5YDKxxDJKBs","IndianOil","Survey No 137, 5/6/7, Babhulvadi, Walwadi","20.92501799999999","74.759613"
"ChIJVQb7ZY7F3jsR6YdooR61euk","Ashish Petroleum","NH 03, Nagaon","20.9561183","74.779918"
"ChIJsSzcsVjF3jsRYDJ5WJVVNdQ","IndianOil","Gut No 312/B Dhule, Chaini Road, Nagaon","20.956352","74.779736"
"ChIJ-THJkoTF3jsRdVM_2A8N7Og","Riya Bharat Petroleum","WQ56+WJQ, Jai Santoshi Mata Colony, Dhule","20.9098263","74.7616199"
"ChIJ4V_p9vrP3jsR8nPKEPLYohM","IndianOil","Survey No 4665, Plot No 2/3, Chaini Road, Dhule","20.902745","74.78392199999999"
"ChIJMaaZh17P3jsRhT4iuptdaQI","Zyada Gas Auto LPG Pump","Dongre Maharaj Nagar, Parola Road, Dhule","20.9024498","74.7883317"
"ChIJAbx6WNjP3jsRbxLt_M59O5A","Badgujar Petroleum HP","opposite Datta Factory, Plot no. 18/3 1 & 2, opposite Datta Factory, near cotton market, Parola Road, Dhule","20.9016373","74.7922092"
"ChIJW57GpnvF3jsRnqaub2kmtZI","Hindustan Petroleum Corporation Limited","GAT NO 36/2, Gondur Airport Road, Bhokar","20.9333438","74.7453946"
"ChIJCWhdH0vP3jsR42jwfExjwzo","B P petrol pump","VQXP+JCQ, Pawan Nagar, Dhule","20.8990927","74.78611579999999"
"ChIJQ9aJPvfF3jsRJ1MwBJ4W3a8","IndianOil","santoshimata chauk, Near Gulmohor government rest House, Dhule","20.900405","74.7686626"
"ChIJN8UNiP7P3jsRePD_8GYj2NE","HP Petrol Pump","Nagaon Hpcl Outlet NH-3, Aurangabad","20.9683894","74.7848374"
"ChIJAznLmo7I3jsR6VyXcJWZ0SI","IndianOil & Aditya Auto Service","Gad-Utar, Dhule, NH-211, Solapur Dhule Road, Dhule, Dhule","20.84344","74.79744699999999"
"ChIJbX04bSrJ3jsRRzr75Y5hyHs","Bharat Petroleum","29/2/2, Dhule - Chalisgaon Road, Highway, Pimpri","20.8596852","74.78751"
"ChIJ3QGnIyvJ3jsRDGUwPheL9dc","IndianOil","Gut No 51, 1 Saindane, Saunda, Dhule","20.8628924","74.82026119999999"
"ChIJ6Z2c8YbH3jsRz7geyoWnOwc","IndianOil","Gut No 26, Tikhi","20.814513","74.7779905"
"ChIJnR-BpD3G3jsRZ4awJFrvUTs","IndianOil","Ground Floor, Agra - Mumbai Highway, Borvihir, Awadhan","20.853765","74.765434"
"ChIJnaIlnT3G3jsRITFwD8jANOg","Bharat Petroleum, Petrol Pump -Bp-Avdhan (Dhule)","AWDHAN COCO, NH3, Dhule","20.85506329999999","74.7658529"
"ChIJsxPnjm3P3jsRF79tvtANysU","Dhruv Auto Services","NH 3, Agra - Mumbai Highway, MIDC Avdhan, Dhule","20.8529151","74.7641696"
"ChIJvYz5sBfG3jsRsll0ApErhE0","Hindustan Petroleum Corporation Limited","Ground Floor, NH 3, Agra - Mumbai Highway, MIDC Avdhan, Dhule","20.857861","74.766481"
"ChIJZybnfNzH3jsRUyA493tpV3A","Hindustan Petroleum Corporation Limited","Ground Floor, NH 3, Agra - Mumbai Highway, Laling","20.8423624","74.7598546"
"ChIJIwFJOBjH3jsRFyohIqSR4yI","IndianOil","Ground Floor, Mumbai Agra Highway NH 3, MIDC Avdhan, Borvihir","20.838271","74.756497"
"ChIJwRVENirJ3jsRXDGDgsw0s7I","Hindustan Petroleum Corporation Limited","Plot No 21 & 22, No 24/1, 26 to 28 & 39, NH 52, Agra - Mumbai Highway, Mohadi Upnagar, Dhule","20.8754524","74.78173749999999"
"ChIJU1G0V5TJ3jsR6WjUj2qLk7U","IndianOil","Gut No 35, Plot No, 13 & 14, Mohadi Road, Arvi","20.876893","74.782394"
"ChIJcY8umOLH3jsReTUFALL68Ns","RR petrolium sarwad","RQM4+V4R, Agra - Mumbai Highway, MIDC Avdhan, Dhule","20.83486","74.75494669999999"
"ChIJQ9czOwDH3jsRmyzyQ2KBonA","Hindustan Petroleum Corporation Limited","Gat No, MIDC, TT/01, Laling","20.8482622","74.752816"
"ChIJN5nColLP3jsRjn6YLI_zTwE","IndianOil","Ground Floor, NH no, 3, Vadjai Rd Crossing, Parola Road, Dhule","20.8826912","74.7914472"
"ChIJgc0wVM3H3jsR6bpuWFVHlEM","SHRI BALAJI TRUCK TERMENUS PVT.LTD","MIDC Avdhan, Tikhi","20.8481648","74.7525299"
"ChIJNT0yy2iy3jsR49n8YFb74tE","IndianOil","Gut No 493, 2A, Beldarwadi, Dahiwad","20.6304291","74.9075215"
"ChIJVV2YbIWz3jsRzk4Dw7cHvMY","S.V.R Petroleum Essar Dealer","gat no.361/B.Dahiwad.Tal N H 211, Dhule - Chalisgaon Road, Dahiwad","20.6248917","74.9037689"
"ChIJ6_-bO2Sz3jsRzb60DRFh0Ow","Hindustan Petroleum Corporation Limited","Gut No 335, near Chinchgavhan, 2/P, Dhule - Chalisgaon Road, Dahiwad","20.614167","74.911913"
"ChIJsxNo8OOt3jsRKnMeawUQiH4","Bharat Petroleum (BPCL)","JW58+PJ4, National Highway 52, Dahiwad","20.6092646","74.9165913"
"ChIJY4uiW1qt3jsRLhx14TdVMNE","SHRIRAM PETROLEUM","GAT NO 321, Dhule - Chalisgaon Road, Mehunbare","20.5618456","74.9528754"
"ChIJx7lKwP6t3jsRYtSQdaBgHU4","Nayara Petroleum- VIRAM","GXH7+QMJ, Dasegaon Bk","20.5294606","74.9641421"
"ChIJu3PeegCt3jsRLUalwPSHZE0","Farming","NH 52, Mehunbare","20.5826611","74.9356889"
"ChIJB3gTRgCt3jsRLDITkBSmRmI","Sunil Chabhulal Gadhari","HWMP+457, Khadke Sim","20.5827776","74.9354213"
"ChIJA4QqwqWt3jsRoCJXYQ3m7EY","Mahajan Brothers","Mehunbare, Chalisgaon","20.5868664","74.9334828"
"ChIJKxgv_Gat3jsRlEeoqDy-Ts4","IndianOil","Gut No 259, H N 3/1/B, Khadkisim, Chalisgaon","20.5874313","74.9320297"
"ChIJm39jFzqt3jsRaCqVspgjBec","SS PETROLEUM","Khadaki seem, NH-211, Khadaki Seem","20.5856786","74.9267229"
"ChIJE4FvQx9V2TsRKe0F2xQlzYQ","Bharat Petroleum (BPCL)","Chalisgaon, Jalgaon, NH-211, Solapur Dhule Road, Jalgaon, Jalgaon","20.476393","74.991868"
"ChIJX4ruHA5V2TsRecNhC_eu17M","Bharat Petroleum (BPCL)","near RLY STN, CHALISGAON, near RLY STN, JALGAON","20.4653726","75.00294339999999"
"ChIJyagP9wtV2TsRmNtHfa78gZ8","Hindustan Petroleum Corporation Limited","FP No 290, Plot No 35 & 36, Bhadgaon Road, Chalisgaon","20.4664779","75.0104169"
"ChIJeZrb0f5V2TsRMe60ZpFW7UI","Hindustan Petroleum Corporation Limited","Gat No 3, 2/2A, Khadki","20.440715","74.971651"
"ChIJLzT9ok9V2TsRQruzDHc3px0","GAS ONE LPG PUMP REFILL","FX9H+RJX, Maharashtra State Highway 19, Old Airport Area, Chalisgaon","20.4696075","74.9791232"
"ChIJz5ITkBVV2TsR8n2RRFZzJ8w","Bharat Petroleum (BPCL)","FX9M+46, Chalisgaon","20.4681349","74.9828844"
"ChIJB3J4fMOr3jsRxSAAO7IW_P8","SAINATH BHARAT PETROLEUM.","CXM4+5HQ, Khadaki Bk.","20.4329541","74.9564743"
"ChIJy8wBmSpV2TsRjS4-7HdM2GM","Shiv petroleum indian oil Cng","Gut No 172, 2 & 40, Maharashtra State Highway 19, Bilakhed, JJ Anna Nagar, Chalisgaon","20.4707111","74.9784244"
"ChIJs1-YiqFV2TsRnWiZtumwD_0","Bajaj Petroleum, Petrol Pump","JJ Anna Nagar, Chalisgaon","20.46873069999999","74.9966669"
"ChIJ62XlkHJV2TsRB5z3K5OUoeM","IndianOil","Plot No 77 & 78, Chalisgaon","20.4569329","75.00357079999999"
"ChIJ48mdDCEA3DsRvOLTG1YgL1Y","MAYARA","India","20.42588779999999","74.940961"
"ChIJQV5LOqEB3DsR6fxZkqSf0sE","BHAVSAR PETROLEUM (NAYARA ENERGY Ltd.)","Maharashtra State Highway 25, near hirapur railway station, taluka, Hirapur","20.4256626","74.9410126"
"ChIJcyjYcUNV2TsR985Y8MES9Uo","Samrat Petroleum(Nayara)","Derabardi Industrial Area, Chalisgaon","20.4846973","74.98657039999999"
"ChIJJTtPDQlV2TsRmYTbfWMIXGY","Bharat Petroleum","India","20.4667904","75.0107956"
"ChIJXUYsDQlV2TsRzv3PRu4Alec","Jai shankar Petrol Pump","opp. Ghate Complex, SH 19, Bhadgaon Road, Chalisgaon","20.4667905","75.0108853"
"ChIJm2VGZqBV2TsRRnwkit1l4jE","IndianOil","Plot No 294/1, Shastri Nagar, Kharjai","20.4622132","75.0156554"
"ChIJuVY8c8VU2TsRH1QLEAReKr8","IndianOil","Gut No 209/2/1 Kargaon, Chalisgaon","20.493683","74.9805871"
"ChIJGXjmD2f-2zsR72mkyqivDQo","Bharat Petroleum Petrol Pump","Ranjangaon, Jalgaon, NH-211, Solapur Dhule Road, Jalgaon, Jalgaon","20.4005927","75.04053400000001"
"ChIJbSOPpi9V2TsRvkp5yQSCa1g","SHREE SADGURU KRUPA PETROLEUM","National Highway 211, Chalisgaon","20.3718256","75.0504291"
"ChIJBSqKuLr_2zsRGFJ7zveGk1E","Hindustan Petroleum Corporation Limited","GAT No 424/P, NH 211, Dhule Solapur National Hwy, Ranjangaon","20.3949734","75.04346269999999"
"ChIJg7wjd4_-2zsRWbaJfK1gYWM","MS DESHMUKH PETROLEUM","Chalisgoan, Nh-211, Dhule - Solapur Highway, Ranjangaon","20.3947999","75.0429545"
"ChIJM2b1kGP_2zsRWhiD19oNTwI","Nayara-Malhar Petroleum","Ranjangaon","20.4142015","75.0366839"
"ChIJ5ZEioIz72zsRIxT6veaUFLI","Satdive Petroleum Nayara Energy","74M2+P9, Telwadi","20.2843333","75.1009934"
"ChIJ_0denY372zsR0mGbo5hmgtc","Kashi Ghushneshwar Petroleum - NAYARA","ANDHANA Fata, Kannad","20.2752091","75.115968"
"ChIJEeM39o762zsRbIWxzDxU0_g","NAYARA","India","20.2750283","75.1165012"
"ChIJCf5Q3D3y2zsRr5XmI_wNDLc","Yash Petroleum Cng Pump","Verul, Aurangabad, SH-22, Dhule Daulatabad Highway, Aurangabad, Maharashtra State Highway 22, Aurangabad","20.150812","75.129511"
"ChIJ2fF-bgDz2zsRsOQx3FPVl2c","CNG gas ASHA petroleum","4469+MF, Alapur","20.111675","75.1187483"
"ChIJQ2oSHwDz2zsRSrUXxqj7iiY","CNG gas ASHA BHARAT PETROLEUM","NH 52, Dhule - Solapur Highway, Galleborgaon","20.1113948","75.1187755"
"ChIJU-Ggecz53jsRgrTPWLcEjO8","IndianOil","Gut No 40 Part Hatnur, Kannad, Upla","20.154319","75.1290454"
"ChIJNbbZEOby2zsRxfkPjGq4O14","Hindustan Petroleum Corporation Limited","Gut No 17, 1 Aurangabad, Dhule - Solapur Highway, Kannad, Galleborgaon","20.101822","75.118618"
"ChIJNSbtxC-S2zsRGfBDCJBNLUs","IndianOil","Aurangabad, Gut No 187/2A, Mhasawad, Sulibhanjan, Nandurbar, Shahada, Gadana","19.9978481","75.1914178"
"ChIJGfsb09GN2zsR_Su4dEbmUKA","Hindustan Petroleum Corporation Limited","near Kasabkheda, Gut No 24 Khuldabad, Mambapur, near Kasabkheda, Fata, Kasabkheda","20.009821","75.14121399999999"
"ChIJ37M81H2N2zsRlpGRKO87M1c","IndianOil","Ground Floor, Verul","20.036315","75.1519565"
"ChIJg9w2pq6N2zsR9CwnzIW_Ngw","Ellora Petroleum and Multiservices","National Highway 52, Malkapur","20.0021367","75.131793"
"ChIJLXLD1MKN2zsRw49Prv79YjI","Hindustan Petroleum Corporation Limited","Gut No 39, Khultabad, Malkapur","19.9933727","75.1286063"
"ChIJK56V5JGN2zsRTkPenoC_ixM","CNG Pump, Chandora","Khuldabad, Nh52, Dhule - Solapur Highway, Kasabkheda","19.9908711","75.1279976"
"ChIJf2AE_NyN2zsRU8r6z5CP40A","Bharat Petroleum, Petrol Pump -Paardeshwar Petroleum CNG pump","Mategaon - Kasabkheda Road","19.9908334","75.1280353"
"ChIJBQHR2GST2zsRdZVV1NZ5s_U","Rudra Naral Center","Shop No 1, Maruti mandir, Khuldabad","20.0107139","75.1965056"
"ChIJDZ6RLK6Q2zsR6X6w_QiVtpQ","Bharat Petroleum Corporation Ltd","W65Q+QPC, National HIghway 211, Shernapur","19.9094391","75.2392808"
"ChIJLV_VrveQ2zsRgr6VfBTAIWE","Bharat Petroleum, CNG Petrol Pump -Harsh Petroleum","MALIWADA, Chhatrapati Sambhajinagar","19.9277067","75.2039185"
"ChIJwcqinVeQ2zsRyMBB9osZOBA","Hindustan Petroleum Corporation Limited","Survey No 12, P NH 52, beside Trishul Hotel, Dhule - Solapur Highway, Aurangabad","19.930503","75.198301"
"ChIJOZ1fhJSR2zsRzCZYJTy3_yQ","Hindustan Petroleum Corporation Limited","Gut No 108, NH 52, Dhule - Solapur Highway, Fatiyabad","19.937079","75.187731"
"ChIJc5_2bQmR2zsRUcKt5jzlOI4","IndianOil","Gut No 96, Sharnapur, Maliwada","19.9285456","75.22165199999999"
"ChIJpfUY20qR2zsRvuUqvBA8c3Y","IndianOil","Gut No 96 Maliwada, Shernapur","19.91972","75.21989400000001"
"ChIJXZpayUGR2zsRNi9Q-IUbgPw","Renukamata Petroleum","Gut no 96, opp. jain internationalschool, Aurangabad - Nashik Highway, Maliwada","19.9195226","75.2198023"
"ChIJRzjMYRuR2zsRaKvu-UolnC0","Nayara - Aegis Autogas - Sai Petroleum","Gut No.102 (P - Village - Fatiyabad, Tal, Gangapur, Chhatrapati Sambhajinagar","19.93853469999999","75.18388949999999"
"ChIJE-GqTQCR2zsRXA6cEwelSog","PATIL FUEL STATION","Fatiyabad Maliwada, Dhule - Solapur Highway, Daulatabad","19.9404945","75.1804442"
"ChIJQcVaObCQ2zsRheVYjQ6c1Wo","Hindustan Petroleum Corporation Limited","Gat No 97/1, NH 52, near T Point, Road, Daulatabad Road, Shernapur","19.9109428","75.2381946"
"ChIJU6BmLLCQ2zsR6weeNlr-ypI","IndianOil","Ground Floor, NH 211, Shernapur","19.909986","75.23885299999999"
"ChIJe3sspfGR2zsRImEZdVFR5LU","IndianOil","gut No, 56/part, Shernapur","19.8981261","75.2292738"
"ChIJH8_eV32a2zsR4dfvoTquApw","Bharat Petroleum, Tulja Mata Petroleum CNG PUMP","Karodi Road, Waluj, Chhatrapati Sambhajinagar","19.8841348","75.20141009999999"
"ChIJRxq3tHSR2zsRZQJOeBpQoJQ","Hindustan Diesel","V5VF+727, Nagpur - Aurangabad - Mumbai Highway, Khojewadi","19.8931525","75.1725464"
"ChIJ3RzbdS6R2zsROqo2bmgMdzk","P S Petroleum ESSAR","X526+PPJ, Jambhala","19.9518455","75.16176930000002"
"ChIJ951YH_SY2zsRIQC64xP7Tz4","IndianOil","Ground Floor, Beed Bypass Road, Chhatrapati Sambhajinagar","19.853647","75.31240799999999"
"ChIJ2SJbyH2i2zsRbS1ynEzQySY","IndianOil","Gut No 57/4, Plot No 11 & 12, Garkheda, Chhatrapati Sambhajinagar","19.8027269","75.3419694"
"ChIJB8J-lHOZ2zsR9KP3523Gx2k","Arihant CNG Petroleum","SH-60, Ahemadnagar Newasa Highway, Walunj, Chhatrapati Sambhajinagar","19.847205","75.26706399999999"
"ChIJeXDqcR-Z2zsRTRNm4mXjMLQ","PAVAL GAS SERVICE","India","19.8338919","75.29100079999999"
"ChIJt9FMUR6Z2zsR0lM8OZUA7Dc","Bharat Petroleum","India","19.8363033","75.2920195"
"ChIJN2HVqx-Z2zsRLapdixf5waE","Jai Balaji Petrol & CNG","A-8, Paithan Road, Kanchanwadi, Chhatrapati Sambhajinagar","19.836291","75.2919754"
"ChIJRYV1QQCZ2zsRQUg4CLHIziw","Hindustan Petroleum Corporation Limited","Ground Floor, Kanchanwadi, Chhatrapati Sambhajinagar","19.8364368","75.2918148"
"ChIJV2o-nQWZ2zsRYZLI0lAgD5I","Anand Petrol Pump","Nakshtra Wadi MBR, Chhatrapati Sambhajinagar","19.8152397","75.2887045"
"ChIJ8wYuW5yZ2zsRIxqALDpPHaY","Deolai road","V825+434, Satara Parisar, Chhatrapati Sambhajinagar","19.8502643","75.3076904"
"ChIJQSgU-bKZ2zsRUkXjjs3dWig","Hindustan Petroleum Corporation Limited","Gut No 303, SRPF Camp Road, Satara, Chhatrapati Sambhajinagar","19.828675","75.331997"
"ChIJuYJwoB2Z2zsRDpz9lWDaeJo","Go Gas Auto LPG Filling Station","V837+87F, National Highway 52, Satara Parisar, Chhatrapati Sambhajinagar","19.8533157","75.3131756"
"ChIJh51peuuj2zsRuvfSgeYsTLg","Shivdatt Petrol Pump","NH 211, Beed Bypass Road, Zalta, Chhatrapati Sambhajinagar","19.8520744","75.31976399999999"
"ChIJ08cYVGyf2zsRCVB7n4BZ3hg","Parason Petroleum CNG","opposite Maruti Fertilizer Company, Gut No 58, Georai Tanda, opposite Maruti Fertilizer Company, Paithan Road, Chhatrapati Sambhajinagar","19.7971434","75.2900287"
"ChIJ0xdzm4WY2zsRbAYKVE4mnMQ","Essay Petroleum LPG","India","19.8511634","75.3304374"
"ChIJf1ct8tSZ2zsR4IhebmbqWXA","Sarjeet Singh Jabinda Petroleum","32, PWD Colony, Disha Nagari, Chhatrapati Sambhajinagar","19.8511503","75.3310281"
"ChIJC2o7cu2u2zsROfaTb2TIx80","IndianOil","Gut No 291 Gadejalgaon, near Railway Station, Chhatrapati Sambhajinagar","19.860726","75.31112399999999"
"ChIJ0Yn1almY2zsRhA4Q49dwOCA","Taranga Sales And Services (Petrol Pumps-Indian Oil)","V866+W5H, Bhanudas Sabhahgrah Railway Station Road, Chhatrapati Sambhajinagar","19.86229999999999","75.31049999999999"
"ChIJGXD4Z4OY2zsRFfT48ZS8XcI","Hindustan Petroleum Corporation Limited","Gut No 22, near Hotel MH20, Beed Bypass Road, Shahnoorwadi, Chhatrapati Sambhajinagar","19.84976529999999","75.3361295"
"ChIJu2ZdwJWZ2zsRpYPmKC2oERQ","IndianOil","Cts No 19312, Railway Station, Deogiri College Road, Chhatrapati Sambhajinagar","19.8630944","75.3150244"
"ChIJLZ54kaKZ2zsRliBBgY_cCCQ","AUTO LPG","R7XC+W75, CIDCO Waluj Mahanagar 2, Waluj, Chhatrapati Sambhajinagar","19.84976229999999","75.2707397"
"ChIJ4_kXMH-k2zsRraerrq-438Y","Hindustan Petroleum Corporation Limited","Gut No 41/1, Jalna - Aurangabad Road, Sundarwadi","19.8631054","75.4366111"
"ChIJj-vNuAM9xzsRi7MwfpTp2Mo","IndianOil","Gut no, 125 Cambridge, Cidco Colony, Zalta","19.8399163","75.41826619999999"
"ChIJF-CqdIil2zsRk2lKiLxVgeo","BHARAT PETROLEUM BPCL SR PETROLEUM CNG AVAILABLE","Beed road zalta, Chhatrapati Sambhajinagar","19.8351754","75.43591169999999"
"ChIJrSX-DACl2zsRXjz7HIknmSg","RK_CNG_pump_bidbaypas","RCPP+459, Zalta","19.8352717","75.435935"
"ChIJn-d98wKj2zsRbNZtlX6icHY","Bharat Petroleum, Petrol Pump -Saraswati Fuel Home","ZALTA , DIST AURANGABAD, Chhatrapati Sambhajinagar","19.8502472","75.4289254"
"ChIJ6_rfYw-k2zsRlWNiDizKQes","Hindustan Petroleum Corporation Limited","Gut No 252 & 34, Aurangabad, NH 52, Beed Hwy, Fata, Zalta","19.83406759999999","75.4420993"
"ChIJtdlRXNaj2zsRSysSOWT2eng","Go Gas Lpg gas station","VC89+27W, Aurangabad - Nagpur Road, Shri Krishna Colony, Chilkalthana, Chhatrapati Sambhajinagar","19.8651099","75.4182058"
"ChIJ_Rj16Yyj2zsRmGk5FKnIAWs","Hindustan Petroleum Corporation Limited","Ground Floor, Jalna Road, Chilkalthana, Chhatrapati Sambhajinagar","19.8659005","75.4165426"
"ChIJcyBY40-j2zsRNNXbQQzhANM","TRANSWELL AUTOMALL PRIVATE LIMITED, Essay Petroleum Autogas station","beside Gayatri Lawns, Gut No 407, beside Gayatri Lawns, Chilkalthana, Chhatrapati Sambhajinagar","19.8660669","75.4158285"
"ChIJ5xbTsjyj2zsR5y51a9LBR78","Bharat Petroleum CNG & Petrol Pump , VINOD PETROLEUM (ADHOC)","Jalna Road, Chilkalthana, Chhatrapati Sambhajinagar","19.8653624","75.4210981"
"ChIJhzu0Y0Si2zsRaGAc_mQtabQ","IndianOil","Gut No 141, NH 211, Beed Bypass Road, Balapur, Chhatrapati Sambhajinagar","19.8480083","75.3713405"
"ChIJJWpReXaj2zsRb_1-VRXcREM","APEX ENTERPRISES","Main Road, Hina Nagar Road, Chhatrapati Sambhajinagar","19.8692173","75.4173238"
"ChIJ4U3vBACj2zsR4ASCA6JkLlQ","HINA NAGAR CHIKALTHANA AURANGABAD","VC9C+F7M, Hina Nagar Road, Chilkalthana, Chhatrapati Sambhajinagar","19.8687117","75.42067530000001"
"ChIJywUV5GkH2zsRcWjDEUgDP2E","Bharat Petroleum, Petrol Pump -Harbhagwan Harbhajanlal","SHAHAGADH, AURANGABAD-BEE, JALNA","19.7137128","75.5359087"
"ChIJkfZRB4QH2zsRWZRBdQo1LSA","Piwal Patil Petroleum","At Post, Bypass, NH-52, Adul","19.7191924","75.5492034"
"ChIJBx0qC-Gn2zsRzN57_0jx_ZU","Bharat Petroleum, Petrol Pump -Mukund Petroleum","Pimpalgaon Pandhari","19.7402483","75.51387989999999"
"ChIJZVrY52wH2zsRMiTeqbDLq1I","Abhijeet petroleum CNG pump Rajapur Dist chatrapati sambhajinagar","PH88+XPG, National Highway 52, Rajapur","19.7177177","75.5674276"
"ChIJCcaheACn2zsRVVvAbpfBsTg","IndianOil","Gut No, 159 & 160, Pimpalgaon Pandhari","19.7520175","75.5058779"
"ChIJx5hWaFWn2zsR0uqptZUbWHI","Hindustan Petroleum Corporation Limited","Gut No 115, Kadrabad","19.7453876","75.49328609999999"
"ChIJF-QK26qn2zsRq4Wf7qbh6KQ","Hindustan Petroleum Corporation Limited","Gut No 115, Kadrabad","19.7453876","75.49328609999999"
"ChIJsVq4F0Id2zsR0EzCHH7Rx84","Pure Petroleum,Murma","GJWJ+9J9, Murma","19.545907","75.6315978"
"ChIJwzBOQNAd2zsRjic5ogRlbdw","Hindustan Petroleum Corporation Limited","Gut No 105/1, Paithan, Murma","19.5410035","75.6346042"
"ChIJJUr4iacd2zsRvIAYs4jUxVY","IndianOil","Gut No 62, Dongaon","19.5373911","75.64333549999999"
"ChIJq6qqqlkD2zsRMnuZ-nAITwg","Chavare Petroleum Pachod","HJFF+3F8, NH 211, Pachod","19.5726598","75.6237184"
"ChIJ_UKxIAAd2zsR0Sp0YPLjeR0","Ganga Petroleum","GJPX+F2, Tq, Ambad, Dongaon","19.5361875","75.64756249999999"
"ChIJuRVkIlwD2zsRA4Q4zVFBQNI","Chaware petrol and Cng","15, Pachod","19.5802474","75.6267336"
"ChIJt3w41UIF2zsROrhQjyzL_pA","IndianOil","Gut No 220 Pachod, Changatpuri, Paithan","19.5733187","75.6061957"
"ChIJk0Z_nLsE2zsRcouuNahjiZY","Bhumare Petroleum Pachod","HJF4+C9X, Paithan Road pachod, Pachod Bk.","19.5736249","75.6059841"
"ChIJ1VHISgAd2zsR3KU8y5EH9oY","INDIAN OIL ⛽","GMJ4+346, Dongaon","19.5301663","75.6552699"
"ChIJmTHGi9Xh2jsRUlqPXPQclS0","Hindustan Petroleum Corporation Limited","Gat No 202, Antarwali Sarathi","19.4299749","75.7141195"
"ChIJ689m3V4f2zsROIETgROkWGY","Tirupati Petrolium","National Highway 52, Wadigodri","19.4327349","75.7135164"
"ChIJ_afy9Njh2jsROiLHzbI8KXI","IndianOil","Ground Floor, Wadigodri, Ambad,Debhegaon, Near, Jalna-Beed Road, Aurangabad","19.440812","75.715485"
"ChIJyRDJbf0f2zsRRH80xcnVV8w","IndianOil","Ambika Market, Survey No 132/1 Gaheninath Nagar, Ambad, Jalna","19.407557","75.711441"
"ChIJS8zpSuTh2jsRbsr0aVdyrjM","Shantanu Petroleum","FP4F+V2J, Wari Godri - Ghungarde Hadgaon Road, Soundalgaon Kh.","19.457211","75.72251709999999"
"ChIJFXJydrof2zsR8CMiGP-l61A","Hindustan Petroleum Corporation Limited","Gat No 58, Shahgadh","19.387805","75.709347"
"ChIJl5UWZu3Z2jsRDI9BmYYoUBI","BHARAT PETROLEUM maa santoshi","Georai Bypass Road, Georai","19.25785119999999","75.7429141"
"ChIJ25alQELZ2jsRayAkyYIa0c8","Hindustan Petroleum Corporation Limited","opposite Dattraj Hotel, Plot No 331P NH 52, Beed Aurangabad Road, opposite Dattraj Hotel, Georai Bypass Road, Beed","19.2627901","75.74086700000001"
"ChIJWwnjtg7Z2jsRvUtNX-7OFJY","IndianOil","near Gevrai, Gut No 286 Part, near Gevrai, National Highway, Georai","19.2553373","75.74322169999999"
"ChIJCZTSIUzZ2jsRKfnQxFFNnTE","Ioc pamp cash","7P4V+4CQ, Georai Bypass Road, Georai","19.2553364","75.74361789999999"
"ChIJA7zdjyPZ2jsRFeoJBrCGMMY","KHARAT INDANE GRAMIN VITARAK","7P8X+97M, Kolher Road, Sanjay Nagar, Georai","19.2659669","75.74818069999999"
"ChIJPRYJPvvY2jsRlTVY7Gs0Oc8","HP GAS","India","19.2532362","75.752792"
"ChIJrRcaVrbZ2jsR-A-zbyZwxTQ","IndianOil","Gut No 548, Aherwahegaon, Georai","19.2701645","75.7377923"
"ChIJY4314PjY2jsRb_P3tf2KEvM","IndianOil","Gut No, 216C, Aher, Georai","19.2444458","75.7531812"
"ChIJjQQfAAvZ2jsRai-HtZUUXyM","ZAM ZAM CNG STATION & PETROL PUMP (INDIAN OIL)","6QV3+P72, 216C, Georai Bypass Road, Aher, Georai","19.2443125","75.7531875"
"ChIJp_sJn7fY2jsRX6Cc7ZQZ_fY","RAJVEER PETROL PUMP","7PHM+5VM, Georai Rural","19.2779634","75.73467819999999"
"ChIJFU8OIlTY2jsRKg3loe2rvN4","Hindustan Petroleum Corporation Limited","NH 52, Plot No 221, Jalna-Beed Road, Georai","19.2389101","75.7552101"
"ChIJq1oDrErf2jsRg9OaSZK9VeY","ESSAR Oil Petrol Pump","Georai, Bid, NH-211, Solapur Aurangabad Highway, Beed, Beed","19.288566","75.73674299999999"
"ChIJy8Ph6H3Z2jsR5YNdGOczhWo","Jayesh Petroleum","6QH4+J6, Vadgaon Dhok","19.2283638","75.7554605"
"ChIJjbzEM0zY2jsRT71htoG2v2o","Blast Petroleum","India","19.2283866","75.7555651"
"ChIJ72AefAPV2jsRJI65wP5kK1A","Bharat Petroleum","Namalgaon Phata, Bid, NH-211, Solapur Aurangabad Highway, Beed, Beed","19.04819","75.754882"
"ChIJQUqPP07V2jsRxFxsLseKFys","Hindustan Petroleum Corporation Limited","near Sunrise Hotel, Plot No 38, Beed Aurangabad Road NH 52, Pendgaon, near Sunrise Hotel, Aurangabad - Solapur Highway, Ghosapuri","19.0691609","75.7516302"
"ChIJQxG_TSfV2jsR6yiSV4ijjMA","Hindustan Petroleum Corporation Limited","Plot No 1 NH 52, Aurangabad - Solapur Highway, Pendgaon","19.087121","75.748947"
"ChIJ2RxWEqnV2jsRBH53_H7tmlw","IndianOil","Survey No 166, Ghosapuri","19.0627624","75.7530008"
"ChIJA-VaqxvV2jsRzTC8GrXECZA","BHARAT PETROLEUM’S -SOHAM PETROLEUM .","Pendgaon","19.0949375","75.7480625"
"ChIJjeYihs_V2jsRfT3MuYjfWbo","Bharat Petroleum, Petrol Pump -Shree Gajanan Auto Services","GHOSAPURI, BEED-JALNA RD, Beed","19.0540025","75.7531363"
"ChIJX-O9drvV2jsR3qO26sLJ8mY","IndianOil","Gut No 188, Kurla","19.0869472","75.7943902"
"ChIJRZtx5wArxTsR2gmLysxK5Zo","Nayara Energy Petrol Pump","law Collage Road, Beed","18.96752","75.764701"
"ChIJVwxrO9cqxTsRZP218nKGsmI","NATIONAL AGENCIES Petrol Pump","Bharat Petroleum Corp. Ltd, National Highway 211, Jalna Road, Beed","19.002876","75.755957"
"ChIJ9wKuyN0qxTsRDelUbyJM-_U","Bharat Petroleum, Farooq Agencies, Beed","Shivaji Chowk, Bid, NH-211, Solapur Aurangabad Highway, Beed, Beed","18.989699","75.75347699999999"
"ChIJX16SjuMqxTsRfSSGoS7EHj4","IndianOil","Survey No 164, Adgaon, Beed","18.979962","75.755073"
"ChIJyW6kpf8rxTsRbNcZbv2dd6M","Hindustan Petroleum Corporation Limited","Bobade Solapur, Plot No 105/P NH 52, Aurangabad Road, Beed","18.9972202","75.7914974"
"ChIJJzTbJpYrxTsRvdjluwoQSb8","Hindustan Petroleum Corporation Limited","near Aurangabad Solapur Road, Gut No 102/P NH 52, Taraf Bobde, near Aurangabad Solapur Road, Beed Bypass Road, Beed","19.002171","75.78994399999999"
"ChIJ2Qfi1LorxTsR06vF1MU5N4U","Bharat Petroleum, Petrol Pump -Varadvinayak Petroleum","KHOD BEED WADWANI ROAD, Beed","18.977928","75.798034"
"ChIJSxYTSYIsxTsR8uq3WUyp6v0","Hindustan Petroleum Corporation Limited","Plot No 14, National Highway 361F, A/P, Khod, Pangarbawdi, Beed","18.977506","75.800922"
"ChIJ3dm5vw3V2jsRmlEN7xb8_6c","Hindustan Petroleum Corporation Limited","Plot No 33/1, Kurla Road, Beed","19.017391","75.775471"
"ChIJz0395xwrxTsRe3pMirkqGzY","HINA PETROL PUMP","Bharat Petroleum, Barshi Naka, 19, Chok, Mominpura, Bid Rural","18.97818299999999","75.76403599999999"
"ChIJ9SavK4zV2jsRCzIVBaMnMrs","Rajlaxmi petrol pump","Solapur -Aurangabad highway, bypass, Beed","19.0209118","75.78034459999999"
"ChIJE1wLZNMrxTsRqvuoAbFOazw","IndianOil","Gut No 20, Barshi Naka, Balgujar, Adgaon, Beed","18.9779647","75.762913"
"ChIJh3xQ7DQrxTsRaIpmlw04aOI","Saad Imported Sunglasses","Saad Imported Sunglases, Driving School Street, Bir, Beed","18.9811889","75.7600253"
"ChIJCw6RFaYrxTsRURkSSFqJeMk","IndianOil","Gut No 36, A/1, Pingle, Adgaon","18.9613495","75.77319399999999"
"ChIJhWNlu-MqxTsRGCplTLgPOEw","Hindustan Petroleum Corporation Limited","Plot No 38/A, Driving School Street, Beed","18.9798531","75.7564532"
"ChIJ8ZBfO9cqxTsRgXSCuKTUieg","Hindustan Petroleum Corporation Limited","Ground Floor, Beed Aurangabad, opposite Hotel Shantai, Road, Jalna-Beed Road, Beed","19.001361","75.755551"
"ChIJE7wmcQArxTsRUYfTACThJp0","Farooq Agencies, Beed","Beed","18.990088","75.7531324"
"ChIJkSn_StwqxTsRXqAKzyfy-n4","Hindustan Petroleum Corporation Limited","Plot No 1085/B, Chatrapati Shivaji Maharaj Chowk, Beed","18.9905065","75.7530124"
"ChIJs09-XB0rxTsR45vnvCoxOXU","TULJAI PETROLEUM SERVICES","Shop No 1, Jalna-Beed Road, Beed","19.0075121","75.7558636"
"ChIJOaCiq-YrxTsRvXOaBuXu7uk","Kanifnath Gas Service Center","Shop No, near Ksk College, 3, Dhanora Road, Beed","18.985181","75.7507851"
"ChIJLb6VUJHfxDsRMJ5JFg74yW4","घाडगे पाटील फार्म हाऊस","NH 52 AT. LONKHAS TQ. WASHI DIST, Pargaon","18.664347","75.697093"
"ChIJHbhyuajfxDsRbYgZ3FgQl8o","Bharat Petroleum, Petrol Pump -Tangde Rajesh Sopanrao","DHOTRA, CHAUSALA, BEED","18.72538339999999","75.6962942"
"ChIJB024r0zfxDsR0WXPbyagk_s","Hindustan Petroleum Corporation Limited","near Chausala, Plot No 132/P, Manjarsumbha Road, Chousala","18.7271447","75.6968468"
"ChIJmfQH_uHfxDsRoDoRfVODsRo","CNG Pump chausala","National Highway 52, Dhotra","18.7275798","75.6979279"
"ChIJ61h1GADZxDsROL3NnRKiF9o","BHUSHAN PETRO CARD XTRAPOWER CARD IOCL","132, Dhotra","18.727788","75.697287"
"ChIJ8S2VTt7hxDsR6gOVLzq6Yk4","Vishwaraj Bharat Petroleum Pump","HP96+76R, National Highway 52, Izora","18.56823739999999","75.71052739999999"
"ChIJGw42RiIfxTsR0j0kqnLgZDI","IndianOil","NH 211, Washi","18.5530337","75.73668119999999"
"ChIJuW8TzpkFxTsRQyAi7o079ro","Shri Siddhivinayak Petroleum","Shop No 12, Osmanabad","18.3920013","75.8851956"
"ChIJKbQvRL8FxTsR8CKFnur41dU","Bharat Petroleum, Petrol Pump -Shri Siddhivinayak Petroleum","YERMALA NH211, OSMANABAD","18.3891155","75.8851693"
"ChIJQUoK3mkFxTsRuKyeuoaAADQ","Bharat Petroleum, Petrol Pump -Rumane Petroleum","YERMALA TO BARSHI WITHIN 6, OSMANABAD","18.3824927","75.8666417"
"ChIJc1xWBPvCDjkRdqY4_qwMInc","IndianOil","Gat No 116/127/B/2 Osmanabad, Kalamb, Yermala","18.37798519999999","75.8630084"
"ChIJKxJ89OUExTsRzXNwK6CWD7c","HP","India","18.4301319","75.84211119999999"
"ChIJlagWUb8FxTsRugqZo5W5w7Q","Hindustan Petroleum Corporation Limited","Gut No 573 P, NH 52, Aurangabad - Solapur Highway, Washi, Terkheda","18.4302639","75.8421619"
"ChIJvURgz7oJxTsRZpBmcVyYp_o","Hindustan Petroleum Corporation Limited","Ground Floor, Swarajya Corner, Yedashi","18.317701","75.959981"
"ChIJsdOJKQAJxTsRgGSAgaajOJU","Hindustan Petroleum Corporation Limited","Gat No 325P, NH 63, Barshi - Latur Highway, Yedashi","18.327526","75.97036299999999"
"ChIJ0wS5jXAJxTsRng0wNjFJuv8","Bharat Petroleum, Petrol Pump -Mahalaxmi Highway Services","YEDSHI, Dharashiv","18.3096884","75.98583579999999"
"ChIJiTLqHwAJxTsRDMpGTbAwvDY","Petrol pump near","NH 52, Wadgaon","18.332999","75.94131"
"ChIJTSAm5NcJxTsRJFECz00B0Qg","Hindustan Petroleum Corporation Limited","Gat No 435, P NH 52, Beed - Solapur Road, Solapur","18.342444","75.941889"
"ChIJjwgeup2hxTsRm9_3T4RF5Z4","IndianOil","Ground Floor, Road, M.I.D.C., Alni","18.2121837","76.041034"
"ChIJ_YQSrFWhxTsRP3JnwijbJ7g","Shivratna CNG Station Shingoli","solapur - Chhatrapati Sambhajinagar road, NH - 51, Shingoli","18.2359968","76.0387209"
"ChIJWdsnRfChxTsR7414J-q4jis","IndianOil","Gat No 367(P, Shingoli","18.247979","76.0327966"
"ChIJG_2g6gmhxTsRaAwAvRIvrRs","Bharat Petroleum, Petrol Pump -Samruddhi Petroleum","MIDC,OSMANABAD, Dharashiv","18.227063","76.03783270000001"
"ChIJ50WYMcihxTsRcg1iiDYkpbk","Hindustan Petroleum Corporation Limited","Gat No 340, NH 52, Solapur Aurangabad Road, Shingoli","18.2629648","76.0257644"
"ChIJX9AdvkihxTsREdivoer0mR4","IndianOil","Gat No 168/2, NH 211, Alni","18.2152569","76.044439"
"ChIJ4e-BRwChxTsRVuvluVg7S0I","tulja bhavani petrol pump","63P8+RF9, Upla","18.235968","76.066295"
"ChIJZUwm9o-hxTsRBzxt_tSaRbo","Hindustan Petroleum Corporation Limited","GUT No 187/3, NH 211, Osmanabad Bypass Road, Tuljai Nagar, Dharashiv","18.2063194","76.0515909"
"ChIJAXE4hEahxTsRB7A2YnpALHo","Bharat Petroleum,CNG Pump -Shri Ram Highway Services","nr. VARUDA CHOWK, Osmanabad Bypass Road, Dharashiv","18.2055956","76.05171480000001"
"ChIJixbE-yahxTsRFMH0mEzmqCc","IndianOil","Gat No 252, Alni","18.2751101","76.0133201"
"ChIJoyXtk4GhxTsRDL5wzZQI31I","IndianOil","Office, Survey No 120 Yedshi, near DIC Road, Road, Alni","18.2017003","76.04095"
"ChIJI3ThGMmhxTsRCOS-i1bZRrE","Hindustan Petroleum Corporation Limited","Gat No 252, Alni","18.27543099999999","76.012798"
"ChIJ2a2tPgChxTsRYoLw1hgQKH8","Bharat Petrol Pump","Basweshar Chowk, Beed - Solapur Road, Kusumtai Patil Nagar, Police Line, Dharashiv","18.1981673","76.04178859999999"
"ChIJM2QF05O9xTsRSI7-19HutrA","TULJAI PETROLEUM","Near, Bavi","18.0849481","76.08535309999999"
"ChIJ9w5t0Va9xTsRQqHUxnjKNAo","IndianOil","Ground Floor, Wadgaon, Alani, Osmanabad","18.0984646","76.07986939999999"
"ChIJEfnaaQCjxTsRzMq-FgErR3Q","Baba petrol pump indian oil","435G+WPR, Tuljapur road, Dharashiv","18.1098553","76.0767546"
"ChIJIeCWIQCjxTsRqSqEnI2cwpY","Shivaji suryawanshi highway services","437G+V3, Wadgoan","18.1147317","76.0752133"
"ChIJj_r4O4i9xTsRuXrdMUYNUBk","Bharat Petroleum,Anjali Petroleum","Aurangabad - Solapur Highway, Dharashiv","18.0475205","76.0845451"
"ChIJq_hjKEy_xTsRug7TIHDn00M","IndianOil","Gat No 260 Sangvimardi, Tuljapur","17.950143","76.02686109999999"
"ChIJPyJfbWTHxTsRsHjvwsJSgf8","Suvarna Petroleum","VXVJ+XG4, Sangvi Kati","17.894897","75.98133430000001"
"ChIJt-EpVADHxTsRfK2UXDmzhBU","Hindustan Petroleum Corporation Limited","Gat No 123P, NH 52, Solapur - Tuljapur Road, Tamalwadi","17.861853","75.968391"
"ChIJBT60JfnFxTsRJx5OKc0YbXY","Bharat Petroleum, Petrol Pump -Satguru Petroleum","S.NO. 404, KASEGAON, 405, Solapur","17.8120364","75.9642302"
"ChIJnez7ksXFxTsRm9BYh7Hh1a8","Bharat Petroleum, Petrol Pump -Shri Rajaram Petroleum","211, HN Apte Path, Solapur Bazar, Narayan Peth, Pune","17.8117363","75.9639529"
"ChIJX4KhoTnExTsRz2g308GHN8k","Satguru CNG Bharat Petroleum","India","17.8011922","75.96057739999999"
"ChIJjdzEfD_HxTsRgr-VSp9qm2g","Jijai Petrol pump","VXGG+RJJ, National Highway 52, Deokurli","17.8780469","75.97629979999999"
"ChIJAy4EXnjaxTsRQFR04Yq-7QU","IndianOil","41, Railway Line, Dufferin Chowk, Solapur","17.668024","75.901268"
"ChIJZ9R6PnTaxTsRvk_W1TqxOeI","Petrol Pump","Modi Khana, Navi Peth, Solapur","17.6586381","75.904091"
"ChIJDT0G63_QxTsRc9KrkjgQ5sU","Hindustan Petroleum Corporation Limited","Survey No 8444D, Plot No 4B, Murarji Peth, Solapur","17.6785583","75.8986299"
"ChIJzXIvoIjaxTsRVqZb5KOks1M","BHARAT PETROLEUM","MWJ6+RQV, Mangalwar Peth, Solapur","17.6821107","75.9119292"
"ChIJm82FHV7axTsRYwSuhZruTE4","Essar Petrol Pump","36, Solapur - Akkalkot Road, Gandhi Nagar, Rangraj Nagar, Solapur","17.6736127","75.923069"
"ChIJR3avIX_QxTsRrwqOrMrr89w","Sagar Auto Gas-AEGIS","MVJW+JPC, National HIghway 211, Mahesh Nagar, Solapur","17.6815684","75.8967705"
"ChIJg-LkvvrRxTsRxBHGWBAmxCs","Zyada gas Auto Lpg Pump","Bhaishree Petroleum AUTO LPG GAS PUMP, near MURARJI PETH, Murarji Peth, Solapur","17.6825414","75.8951677"
"ChIJf7Ed8kLRxTsRvB-4nNUa0E4","Hindustan Petroleum Corporation Limited","No 4, TP Scheme, CTS No 8927/B1, Budhavar Peth, Solapur","17.6868516","75.89918999999999"
"ChIJK9zGIX_QxTsRrUAQdRa1BaY","Hindustan Petroleum Corporation Limited","Ground Floor, near ST Stand, Chhatrapati Shivaji Maharaj Chowk, Solapur","17.6811656","75.8971948"
"ChIJmRyJdBLRxTsRB1W70D6xUk8","Bharat Petroleum, Petrol Pump -Shah Hansraj Jeevan","Sadik Mechanics, Old Employment Chowk, Kumta Naka, Solapur","17.6800487","75.8979133"
"ChIJpRSfl3_QxTsRGsRKKUQIAik","Shivaji Petrol Pump - Hindustan Petroleum (HP)","3, Chhatrapati Shivaji Maharaj Chowk, OLd Police Line, Murarji Peth, Solapur","17.6785645","75.89863509999999"
"ChIJg-EZBeXbxTsR9UIdJyMLb2k","Akshaya Valuers & Consultants","Akshaya Valuers & Consultants, 1st Floor, Sun Plaza 145","17.6750776","75.90059959999999"
"ChIJSTxJiYjaxTsRO1w0eTW3PoY","Hindustan Petroleum Corporation Limited","Survey No 8945, near Chatla Saree Center, Plot No 169/A, Jodbhavi Peth, Solapur","17.6810638","75.91268529999999"
"ChIJsyTJnILQxTsRjMJZVNmQVLQ","Naval And Son (Petrol Pump)","45-A Railway Lines, Station Road Besides St. Joseph High School, Solapur","17.6673706","75.8995446"
"ChIJTZKwqWLaxTsRx71WRTygN58","Chadchankar Petrol Pump","MWH6+3Q5, Ganesh Peth, Shaniwar Peth, Solapur","17.6776317","75.9119888"
"ChIJg3NfAwDbxTsRLJSmngNGN9A","Bhawani Petroleum","Maddi Vasti, near Juna Tuljapur Naka, 2/82, Bhavani Peth, Solapur","17.692501","75.912912"
"ChIJxb1tUMvbxTsRh7_KpD05PlY","Sakahi puc centre","Bhavani petrol pump Ruppa bhavani mandir, old, tuljapur naka, Solapur","17.671706","75.9087247"
"ChIJl7BybADRxTsRZEdiKTxPaDE","Snehal more","MV8X+2FV, Railway lines, Solapur","17.6651108","75.89866119999999"
"ChIJC50PJVvbxTsRD3fbQspDyZU","Hindustan Petroleum Corporation Limited","Gut No 52/3, Part B, NH 52, Beed - Solapur Road, Solapur","17.6969833","75.9142667"
"ChIJaWzH5LfbxTsRoQOlgHza178","HP Patil Petroleum & CNG","10/43, Bhavani Peth, Solapur","17.6873533","75.917991"
"ChIJ076o4JLXxTsR8iq1EQpl_G0","BPCL Petrol Pump","National Highway 52","17.5616172","75.885669"
"ChIJjcGFXTnXxTsRU-62OHacRrE","Mauli Sales And Services","Mauli Sales And Sevices, Bharat Petrol Pump, VijayPura Highway, Solapur","17.5616044","75.88580209999999"
"ChIJaXTZ1pl7xjsRTDd1zjtIqXY","ಶ್ರೀ ಧಾನೇಶ್ವರಿ ಪೆಟ್ರೋಲಿಯಂ","ರಾಷ್ಟ್ರೀಯ ಹೆದ್ದಾರಿ 52 ಬಿಜಾಪುರ ಸೋಲಾಪುರ ರಸ್ತೆ DHULAKHED","17.3844228","75.8440861"
"ChIJJQ_Y3057xjsRWT2aOZFu788","IndianOil","Sindagi, Ground Floor, Solapur Road NH13, Dhulkhed, Bijapur,Bhairungi","17.3858631","75.8438678"
