{
  "from": "Sangrur",
  "to": "Ankola",
  "count": 938,
  "pumps": [
    {
      "place_id": "ChIJuWC0xgtREDkRPC4Akteh03Y",
      "name": "Hindustan Petroleum Corporation Limited",
      "lat": 30.24164009999999,
      "lng": 75.84837610000001,
      "address": "Ground Floor, near Patiala Gate, Haripura Colony, Sangrur",
      "open_now": true
    },
    {
      "place_id": "ChIJwdCvNg1REDkR-ojr0dfHW5g",
      "name": "IndianOil",
      "lat": 30.236452,
      "lng": 75.84352899999999,
      "address": "Ground Floor, Ranbir College, near Ranbir College, Road, Sangrur",
      "open_now": true
    },
    {
      "place_id": "ChIJ86w64FJQEDkRa1b0agf65QY",
      "name": "IndianOil",
      "lat": 30.262467,
      "lng": 75.862127,
      "address": "near Nankiana Sahib, Ground Floor Balial Bhattiwal Kalan Rd, near Nankiana Sahib, Gurudwara, Badrukhan",
      "open_now": true
    },
    {
      "place_id": "ChIJ3dZP6w1REDkRsgL_TlpLwqI",
      "name": "Hindustan",
      "lat": 30.2130011,
      "lng": 75.86274449999999,
      "address": "Jind Road, Mehalan Road, Sangrur Depot",
      "open_now": true
    },
    {
      "place_id": "ChIJA_jKWrJWEDkRZWnUGrvwC4Y",
      "name": "IndianOil",
      "lat": 30.2221463,
      "lng": 75.803258,
      "address": "Ground Floor, Sangrur Longowal Rd, Ubhawal",
      "open_now": true
    },
    {
      "place_id": "ChIJz9rkxpFREDkRKRK-hU2Sd9Y",
      "name": "Petrol pump",
      "lat": 30.2511366,
      "lng": 75.8433156,
      "address": "36A, Guru Nanak Colony, Mubarik Mehal Colony, Sangrur",
      "open_now": false
    },
    {
      "place_id": "ChIJ8QnmpBlREDkRkSkXFFXGCi8",
      "name": "IndianOil",
      "lat": 30.248514,
      "lng": 75.833902,
      "address": "Ground Floor, NH 64, Sangrur Barnala Road, Badrukhan",
      "open_now": true
    },
    {
      "place_id": "ChIJyTunjBNREDkRLslA0mHG1PU",
      "name": "Grewal Filling Station",
      "lat": 30.23946870000001,
      "lng": 75.8363432,
      "address": "6RQP+QGP, NH-71, Gobind Pura Colony, Sangrur",
      "open_now": true
    },
    {
      "place_id": "ChIJgW1DMwBREDkRbeuPf4Q-qFg",
      "name": "Government Owned Petrol Pump",
      "lat": 30.2382126,
      "lng": 75.8386301,
      "address": "6RQQ+7FJ, Sangrur",
      "open_now": null
    },
    {
      "place_id": "ChIJOdh7AZhREDkR6VyNr0Bs3q0",
      "name": "IndianOil",
      "lat": 30.23804339999999,
      "lng": 75.83866530000002,
      "address": "6RQQ+6CQ, Haripura Colony, Partap Nagar, Sangrur",
      "open_now": true
    },
    {
      "place_id": "ChIJx-3MRnlREDkRKb-9lWsRRIw",
      "name": "Bharat Petroleum, Petrol Pump -Pal Service Station",
      "lat": 30.2506191,
      "lng": 75.83385299999999,
      "address": "SANGRUR ON GAUSHALA ROAD, Sangrur",
      "open_now": true
    },
    {
      "place_id": "ChIJmfhC37ZREDkRizVJu9iHC1c",
      "name": "IndianOil",
      "lat": 30.237123,
      "lng": 75.83949299999999,
      "address": "near Truck Union, Ground Floor Jind Road, NH 64,Badrukhan, near Truck Union, Sangrur",
      "open_now": true
    },
    {
      "place_id": "ChIJERJ8tjJREDkRX9hIUJUr2EE",
      "name": "CNG Pump",
      "lat": 30.2365085,
      "lng": 75.8434752,
      "address": "5421, College Road, Hargobindpura Colony, Haripura Colony, Partap Nagar, Maan Colony, Sangrur",
      "open_now": null
    },
    {
      "place_id": "ChIJS7FJ2xJREDkR0n07ma7zfSA",
      "name": "Janta Service Station",
      "lat": 30.236609,
      "lng": 75.8395638,
      "address": "Maan Colony, Sangrur",
      "open_now": true
    },
    {
      "place_id": "ChIJWwHH4hRREDkR_TWUdVxybs4",
      "name": "IndianOil",
      "lat": 30.2369902,
      "lng": 75.8331601,
      "address": "Gobind Pura Colony, Sangrur",
      "open_now": true
    },
    {
      "place_id": "ChIJ3-Jy0yVREDkRrR8PND7-FM0",
      "name": "IndianOil",
      "lat": 30.254147,
      "lng": 75.851959,
      "address": "Ground Floor, Nabha Gate Road, Kishanpura, Badrukhan",
      "open_now": true
    },
    {
      "place_id": "ChIJU9UjDQpREDkRgW14C3ROfYs",
      "name": "National fire services and motors parts",
      "lat": 30.2337002,
      "lng": 75.8425475,
      "address": "6RMV+F2M, Sant nagar mehlan road, Maan Colony, Sangrur",
      "open_now": true
    },
    {
      "place_id": "ChIJb9B8MQBREDkRjl7wAXszYTE",
      "name": "Ujala Fuels",
      "lat": 30.2493056,
      "lng": 75.8242679,
      "address": "6RXF+PPC, near Police Line & Distirct Jail, Barnala Road, Sangrur",
      "open_now": true
    },
    {
      "place_id": "ChIJU2J8kKpREDkRnSHoWMpHgQE",
      "name": "Bharat Petroleum, Petrol Pump -Dhillon Petro Centre",
      "lat": 30.2577596,
      "lng": 75.85417799999999,
      "address": "near DHURI BYEPASS, SANGRUR, near DHURI BYEPASS, Sangrur",
      "open_now": true
    },
    {
      "place_id": "ChIJhVeDbr5REDkRnqq4BZ3Ak8M",
      "name": "Hindustan Petroleum Corporation Limited",
      "lat": 30.2284234,
      "lng": 75.8484564,
      "address": "Ground Floor, Infront of Sibia Hospital, Patran Road, Sangrur",
      "open_now": true
    },
    {
      "place_id": "ChIJG7n4t-eyETkRky2VnmbhZ00",
      "name": "TRHR PETROL PUMP",
      "lat": 30.1085168,
      "lng": 75.9359826,
      "address": "4W5P+C95, Sullar Gharat",
      "open_now": true
    },
    {
      "place_id": "ChIJof_IQQqzETkR9SvivSZaDls",
      "name": "IndianOil",
      "lat": 30.1083876,
      "lng": 75.9361059,
      "address": "Ground Floor, NH 71, Jind Road, Sulargarahat, Gujran",
      "open_now": true
    },
    {
      "place_id": "ChIJ97-hM4ezETkRy4_m-R2du_A",
      "name": "IndianOil",
      "lat": 30.114864,
      "lng": 75.929771,
      "address": "Ground Floor, Patran Sangrur Road, Mauran",
      "open_now": true
    },
    {
      "place_id": "ChIJDadiGQCzETkRYRBt6wc9gO4",
      "name": "Tilak Ram HANS Raj",
      "lat": 30.1056311,
      "lng": 75.93886049999999,
      "address": "4W4Q+7G5, Sullar Gharat",
      "open_now": null
    },
    {
      "place_id": "ChIJKSpx5uKyETkRNhXZE1mlmOk",
      "name": "Hindustan Petroleum Corporation Limited",
      "lat": 30.101871,
      "lng": 75.944101,
      "address": "Ground Floor, NH 71, Sangrur Patran Road, Dhandoli Khurd",
      "open_now": true
    },
    {
      "place_id": "ChIJB52TmjyzETkRNPpBDauQaWE",
      "name": "Bharat Petroleum, Petrol Pump -Bansal Filling Station",
      "lat": 30.11804639999999,
      "lng": 75.9600091,
      "address": "GUJRAN ON DIRBA ROAD, SANGRUR",
      "open_now": true
    },
    {
      "place_id": "ChIJ09AXvDqzETkRrrzj12zYhKc",
      "name": "IndianOil",
      "lat": 30.121864,
      "lng": 75.967779,
      "address": "Ground Floor, Sularghrat, Samana Road, Gujaran",
      "open_now": true
    },
    {
      "place_id": "ChIJhxqXQJezETkR3jfGaiMg368",
      "name": "Reliance Petroleum",
      "lat": 30.0860658,
      "lng": 75.9629204,
      "address": "Ground Floor, Sangrur Road, Toor Banjara",
      "open_now": true
    },
    {
      "place_id": "ChIJAdgFwV5NEDkRw3L2utAKdYk",
      "name": "Jai Shiv Shankar Filling Station",
      "lat": 30.14172069999999,
      "lng": 75.90953499999999,
      "address": "NH71, Sangrur",
      "open_now": true
    },
    {
      "place_id": "ChIJx0i8TABNEDkR4OF660GEExQ",
      "name": "IndianOil Pump Mann Filling Station",
      "lat": 30.143172,
      "lng": 75.90925399999999,
      "address": "4WR5+RP2",
      "open_now": null
    },
    {
      "place_id": "ChIJVYSooem2ETkRaMtL5mxoTrI",
      "name": "Hindustan Petroleum Corporation Limited",
      "lat": 30.0217852,
      "lng": 76.0188727,
      "address": "Ground Floor, NH 71, Khetla",
      "open_now": true
    },
    {
      "place_id": "ChIJi1qwECG3ETkRNQJ-avvMFc4",
      "name": "SHIV SHIVA SHAKTI FUELS",
      "lat": 30.0410406,
      "lng": 76.0118092,
      "address": "NAYARA PETROLEUM National Highway 52, Patran Road, Dirba",
      "open_now": true
    },
    {
      "place_id": "ChIJ5S-zu5q3ETkRoha-VZVds5E",
      "name": "IndianOil",
      "lat": 30.051567,
      "lng": 76.00722499999999,
      "address": "Ground Floor Patran, Sangrur Rd, Dirba",
      "open_now": true
    },
    {
      "place_id": "ChIJl5SGUEu3ETkRQeqpV0V5u-E",
      "name": "Dugal Bus Service",
      "lat": 29.9933956,
      "lng": 76.028674,
      "address": "NH-52, Sangrur-Delhi Road, Vill, Dugal Kalan",
      "open_now": null
    },
    {
      "place_id": "ChIJIahOi7u1ETkRdA2G8zYa86w",
      "name": "IndianOil",
      "lat": 30.0584815,
      "lng": 76.0225081,
      "address": "near Amritsar Bus Stand, Ground Floor Sunam, near Amritsar Bus Stand, Khadial",
      "open_now": true
    },
    {
      "place_id": "ChIJ_wb0t_yzETkR6QmWB5qu398",
      "name": "Hindustan Petroleum Corporation Limited",
      "lat": 30.051861,
      "lng": 75.981861,
      "address": "Ground Floor, Dirba",
      "open_now": true
    },
    {
      "place_id": "ChIJH60HzTGxETkRMJeH9hcvhuE",
      "name": "IndianOil",
      "lat": 30.035648,
      "lng": 75.971789,
      "address": "Ground Floor Kamper Dirba Kauhrian, Rd, Mubarakpur",
      "open_now": true
    },
    {
      "place_id": "ChIJJTCSWFSzETkRShgob2HCf-g",
      "name": "Pump",
      "lat": 30.0607891,
      "lng": 75.9877824,
      "address": "3X6Q+623, Lehra Road, Dirba",
      "open_now": true
    },
    {
      "place_id": "ChIJRfjwAYDHETkR0t-zwb5QTKE",
      "name": "Hindustan Petroleum Corporation Limited",
      "lat": 29.9229165,
      "lng": 76.08553839999999,
      "address": "Ground Floor, NH 71, Khanauri Road, Duttal",
      "open_now": true
    },
    {
      "place_id": "ChIJg0xwvPO3ETkR9URIRUsarFo",
      "name": "Hindustan Petroleum Corporation Limited",
      "lat": 29.97343829999999,
      "lng": 76.0662539,
      "address": "Ground Floor, Nial",
      "open_now": true
    },
    {
      "place_id": "ChIJIUmTCoC5ETkRptuy0bczAgE",
      "name": "IndianOil",
      "lat": 29.93778499999999,
      "lng": 76.068873,
      "address": "Ground Floor NH 71, Narwana, Road, Patran - Narwana Road, Arno",
      "open_now": true
    },
    {
      "place_id": "ChIJcYAi9n7HETkRrqlFMHbLvUs",
      "name": "IndianOil",
      "lat": 29.9191674,
      "lng": 76.0885047,
      "address": "Ground Floor Duttal, NH 71, Narwana Road, Arno",
      "open_now": true
    },
    {
      "place_id": "ChIJCXwBO8-5ETkRoN4fq1_bwq8",
      "name": "HP petrol pump patran",
      "lat": 29.9345529,
      "lng": 76.05182409999999,
      "address": "W3M2+RPG, Jakhal Road",
      "open_now": null
    },
    {
      "place_id": "ChIJK_1lm1e4ETkRs6BFTyABWDM",
      "name": "IndianOil",
      "lat": 29.93018289999999,
      "lng": 76.05117190000001,
      "address": "Ground Floor Patran, Road, Hamcheri, Moonak",
      "open_now": true
    },
    {
      "place_id": "ChIJD6IYsHnHETkR1Hri75APfM4",
      "name": "IndianOil",
      "lat": 29.913701,
      "lng": 76.095339,
      "address": "Ground Floor NH 52 patra delhi Road Shutrana, Arno",
      "open_now": true
    },
    {
      "place_id": "ChIJ5fniMBy5ETkRAzNhL_UXP1I",
      "name": "Kailash Filling Station Bharat Petroleum",
      "lat": 29.9281763,
      "lng": 76.050421,
      "address": "SH 10, Jakhal Road, Patran",
      "open_now": true
    },
    {
      "place_id": "ChIJ-eFS36q5ETkRRn4ZcrWi9Do",
      "name": "Hindustan Petroleum Corporation Limited",
      "lat": 29.9545493,
      "lng": 76.0681338,
      "address": "Ground Floor, Niall Bypass Road, Nial",
      "open_now": true
    },
    {
      "place_id": "ChIJJRKrUHLHETkRdhZGNxeeO0Q",
      "name": "Hindustan Petroleum Corporation Limited",
      "lat": 29.91556419999999,
      "lng": 76.10542,
      "address": "Ground Floor, Patran - Narwana Road, Shutrana",
      "open_now": true
    },
    {
      "place_id": "ChIJ3bC4fwDHETkRQ6bZa5-PIOk",
      "name": "ਪੈਟਰੋਲ ਪੰਪ ਪਿੰਡ ਦੁਗਾਲ ਕਾਲੇਕੇ ਸਰਦਾਰ",
      "lat": 29.90446189999999,
      "lng": 76.09821649999999,
      "address": "NH-52, Sangrur-Delhi RoadVillDugal, kaleke Kalan",
      "open_now": null
    },
    {
      "place_id": "ChIJA0h22DfHETkR_oCqBRIOOV4",
      "name": "IndianOil",
      "lat": 29.961367,
      "lng": 76.08870499999999,
      "address": "Ground Floor Nial Banwala Road, Patran, Arno",
      "open_now": true
    },
    {
      "place_id": "ChIJqyoMp2q5ETkR8wqouNuidH4",
      "name": "Essar filing station",
      "lat": 29.9105294,
      "lng": 76.0481944,
      "address": "Jakhal Road, Hamjheri",
      "open_now": true
    },
    {
      "place_id": "ChIJazfQMwDHETkR_lrjU1jRzBE",
      "name": "aggarwal energy station",
      "lat": 29.9031535,
      "lng": 76.0992613,
      "address": "W33X+7P6, Shutrana",
      "open_now": null
    },
    {
      "place_id": "ChIJ8ezLRbXHETkRuNEPk9mjt-w",
      "name": "Shutrana, Patran",
      "lat": 29.902832,
      "lng": 76.099347,
      "address": "W33X+JJ8, Shutrana",
      "open_now": true
    },
    {
      "place_id": "ChIJIQZiOAC5ETkRwdaX57W63J0",
      "name": "Nayara CNG Pump",
      "lat": 29.957085,
      "lng": 76.05234,
      "address": "X342+RWP, Patran",
      "open_now": null
    },
    {
      "place_id": "ChIJX6o1p8m5ETkRKBcjfVpprlg",
      "name": "IndianOil",
      "lat": 29.965155,
      "lng": 76.06701199999999,
      "address": "Ground Floor Bypass Road, Patranpatran, Nial, Arno",
      "open_now": true
    },
    {
      "place_id": "ChIJx4CUE963ETkRfDH0qgIhqts",
      "name": "IndianOil",
      "lat": 29.9627514,
      "lng": 76.05638549999999,
      "address": "Ground Floor Patran Patiala Road, State Highway 10, Arno",
      "open_now": true
    },
    {
      "place_id": "ChIJhTHmeVq3ETkR1yQZzLFjoIA",
      "name": "Hindustan Petroleum Corporation Limited",
      "lat": 29.9652947,
      "lng": 76.0524369,
      "address": "Ground Floor, Sangrur Road, Patran",
      "open_now": true
    },
    {
      "place_id": "ChIJ9-PDRVvAETkRizycwW2FKbg",
      "name": "IndianOil",
      "lat": 29.83075869999999,
      "lng": 76.1126995,
      "address": "Ground Floor, NH 71, Jind Road, Khanauri Mandi, Mandvi",
      "open_now": true
    },
    {
      "place_id": "ChIJ0SntCwDBETkReLieyY0A3iE",
      "name": "Jio BP",
      "lat": 29.85601579999999,
      "lng": 76.1077623,
      "address": "V445+C4, Saidewala Alias Naiwala",
      "open_now": null
    },
    {
      "place_id": "ChIJoYBxNgDBETkR9cQd8s4v9sM",
      "name": "Garg Filling Station",
      "lat": 29.83213899999999,
      "lng": 76.1235099,
      "address": "NH 152A",
      "open_now": null
    },
    {
      "place_id": "ChIJhWMeg1zAETkR4tm084nfghs",
      "name": "Rohtash Auto Service Bharat Petroleum",
      "lat": 29.826043,
      "lng": 76.114408,
      "address": "Patiala, NH-71, Sangrur Road, Khanouri, Khanouri",
      "open_now": true
    },
    {
      "place_id": "ChIJcWQTOvvBETkRdw5EITQD6F0",
      "name": "IndianOil",
      "lat": 29.828201,
      "lng": 76.095101,
      "address": "Ground Floor, Moonak, Kaithal - Khanauri Road, Banarsi, Mandvi",
      "open_now": true
    },
    {
      "place_id": "ChIJ0wUkTy7BETkR6lUzoE_2RcA",
      "name": "Indian oil",
      "lat": 29.8073423,
      "lng": 76.121695,
      "address": "R44C+WMP, Patran - Narwana Road",
      "open_now": null
    },
    {
      "place_id": "ChIJGVbfzjDAETkReBQIgxPAZ44",
      "name": "Hindustan Petroleum Corporation Limited",
      "lat": 29.807221,
      "lng": 76.12210569999999,
      "address": "Ground Floor, Dhabi Gujran",
      "open_now": true
    },
    {
      "place_id": "ChIJ1SGpGADBETkRv3n5FYnJF4c",
      "name": "Prince Petro care",
      "lat": 29.7986398,
      "lng": 76.10445059999999,
      "address": "Q4X3+FQ4, Padarth Khera",
      "open_now": null
    },
    {
      "place_id": "ChIJ33VnxUrpETkRBcH6OAt6iMs",
      "name": "IndianOil",
      "lat": 29.73478919999999,
      "lng": 76.20166929999999,
      "address": "Ground Floor, Kurar",
      "open_now": true
    },
    {
      "place_id": "ChIJlTcvwBHpETkR9w0uJaldQ08",
      "name": "Om Filling Station",
      "lat": 29.7317608,
      "lng": 76.212403,
      "address": "Kurar",
      "open_now": null
    },
    {
      "place_id": "ChIJ_dUyRD3pETkRtak1STFfWaU",
      "name": "Bharat Petroleum",
      "lat": 29.731047,
      "lng": 76.2122406,
      "address": "India",
      "open_now": null
    },
    {
      "place_id": "ChIJDdA_kXXpETkRgFvJ4LA_4a8",
      "name": "Bharat Petroleum Petrol Pump , R.K. FILLING STATION",
      "lat": 29.78444799999999,
      "lng": 76.181575,
      "address": "VILLAGE, Dhanauri",
      "open_now": true
    },
    {
      "place_id": "ChIJQbDn8B7qETkREscKzZZw4KA",
      "name": "Hindustan Petroleum Corporation Limited",
      "lat": 29.797781,
      "lng": 76.19290199999999,
      "address": "Ground Floor, Kaithal Road, Dhanauri",
      "open_now": true
    },
    {
      "place_id": "ChIJOYaOeCfoETkRsZsiRAKrvAs",
      "name": "Ashutosh Filling Station",
      "lat": 29.8025246,
      "lng": 76.23928710000001,
      "address": "R63Q+2P3, Mahal Kheri",
      "open_now": true
    },
    {
      "place_id": "ChIJVRPxTD38ETkRSWobjlWyjvI",
      "name": "IndianOil",
      "lat": 29.557549,
      "lng": 76.387723,
      "address": "Ground Floor Kaithal Road, Kithana, Rajound",
      "open_now": true
    },
    {
      "place_id": "ChIJmdrJDz38ETkRdqaGuf1qwqg",
      "name": "Hindustan Petroleum Corporation Limited",
      "lat": 29.559601,
      "lng": 76.38890099999999,
      "address": "Ground Floor, Jind - Kaithal Road, Kaithal",
      "open_now": true
    },
    {
      "place_id": "ChIJsQkbtD38ETkR4xCdI4GACcU",
      "name": "JAGLAN FILLING STATION KITHANA",
      "lat": 29.5615596,
      "lng": 76.38904959999999,
      "address": "11, State Highway 11A, Kithana",
      "open_now": null
    },
    {
      "place_id": "ChIJ8dsqhJ_-ETkRehJClw3wCP4",
      "name": "IndianOil",
      "lat": 29.543658,
      "lng": 76.38708,
      "address": "Ground Floor Kithana, Jind Road, Rajound",
      "open_now": true
    },
    {
      "place_id": "ChIJ_0E0PUr7ETkRIORFl2qayJI",
      "name": "IndianOil",
      "lat": 29.571992,
      "lng": 76.322347,
      "address": "Ground Floor Kithana Kalayat, Link Road, Kuchrana Kalan",
      "open_now": true
    },
    {
      "place_id": "ChIJ0XDvlCv5DTkRWX4NkPLSreQ",
      "name": "Reliance Petroleum",
      "lat": 29.3718739,
      "lng": 76.5068975,
      "address": "near 16 Km Milestone, Khewat No 263, Khatoni No 493 Sh 14, Safidon, Pillu Khera, near 16 Km Milestone, Jind",
      "open_now": true
    },
    {
      "place_id": "ChIJFdD_Z8n4DTkRbhyLD-fTjG0",
      "name": "IndianOil",
      "lat": 29.367169,
      "lng": 76.483747,
      "address": "Ground Floor, Kalwan, Jamni",
      "open_now": true
    },
    {
      "place_id": "ChIJDU-rarT5DTkRqxKTF78PRHM",
      "name": "JAI DURGA PETRO CARE BHARAT PETROLEUM",
      "lat": 29.3595587,
      "lng": 76.4841848,
      "address": "9F5M+RMF, Shaheed Sourabh Garg Road, Pilu Khera",
      "open_now": true
    },
    {
      "place_id": "ChIJr1SePk35DTkR5cedLjn1xmw",
      "name": "Hindustan Petroleum Corporation Limited",
      "lat": 29.3778166,
      "lng": 76.53546659999999,
      "address": "Ground Floor Rajana Khurd, Near, Budha Khera",
      "open_now": true
    },
    {
      "place_id": "ChIJ5bG2qbH4DTkRULPx--z0DGo",
      "name": "IndianOil",
      "lat": 29.3642703,
      "lng": 76.47068279999999,
      "address": "Ground Floor, Kalwa",
      "open_now": true
    },
    {
      "place_id": "ChIJV2AHihv5DTkR5r_DSZ5ULhk",
      "name": "IndianOil",
      "lat": 29.346027,
      "lng": 76.508376,
      "address": "Ground Floor, Link Road, Pillu Khera",
      "open_now": true
    },
    {
      "place_id": "ChIJMZ8ZmqkAEjkRFDp2ReN3ov0",
      "name": "Essar Oil Petrol Pump",
      "lat": 29.3772996,
      "lng": 76.4540492,
      "address": "Alewa Road, Dhatrath Village",
      "open_now": null
    },
    {
      "place_id": "ChIJhbzeuxKTDTkRLTC1kDMVud0",
      "name": "Nishant Auto Fuels (निशांत ऑटो फ्यूल्स)",
      "lat": 29.0778157,
      "lng": 76.6837073,
      "address": "Gohana-Rohtak Road, NH709, Gohana",
      "open_now": true
    },
    {
      "place_id": "ChIJWRWco-KSDTkRHS1CbVqEKC8",
      "name": "IndianOil",
      "lat": 29.087392,
      "lng": 76.68696,
      "address": "Ground Floor Bhainswan Khurd, NH-71A, Ahulana",
      "open_now": true
    },
    {
      "place_id": "ChIJwQRcZFGSDTkR5c5BfkxSea4",
      "name": "Bharat Petroleum, Petrol Pump -Shiv Ganga Fuels",
      "lat": 29.0668984,
      "lng": 76.680945,
      "address": "VILLAGE PUTHI GOHANAROHTAK, SONEPAT",
      "open_now": true
    },
    {
      "place_id": "ChIJARNDieCSDTkR8uMphzHlqcs",
      "name": "पवन मिष्ठान भण्डार",
      "lat": 29.09652930000001,
      "lng": 76.6842963,
      "address": "India",
      "open_now": null
    },
    {
      "place_id": "ChIJr-sjCiaTDTkR-gWoKKsTmJ4",
      "name": "SHRI RAM FILLING STATION",
      "lat": 29.0598798,
      "lng": 76.6788033,
      "address": "NH-709, Rukhi Pana",
      "open_now": true
    },
    {
      "place_id": "ChIJMdxPX4yTDTkRDIy8sN48Ws4",
      "name": "Hindustan Petroleum Corporation Limited",
      "lat": 29.059733,
      "lng": 76.6787586,
      "address": "NH 709, Rohtak - Panipat Road, Gohana",
      "open_now": null
    },
    {
      "place_id": "ChIJFVsQFQeTDTkRy-4jLgwEex8",
      "name": "HP CNG, PETROL PUMP",
      "lat": 29.1027374,
      "lng": 76.69472379999999,
      "address": "SURYA PARTY GARDEN, Gohana-Rohtak Road, Gohana",
      "open_now": true
    },
    {
      "place_id": "ChIJA1Vz8yOTDTkRTQ4ryORyuZc",
      "name": "Hindustan Petroleum Corporation Limited",
      "lat": 29.103841,
      "lng": 76.694531,
      "address": "Ground Floor, NH 709, Rohtak - Panipat Road, Mahra",
      "open_now": true
    },
    {
      "place_id": "ChIJiXodQdqTDTkRxrrrF7NL874",
      "name": "Bharat Petroleum, Petrol Pump -Chodhary Tekram Gramin Fuel Station",
      "lat": 29.0455524,
      "lng": 76.6750106,
      "address": "VILL BHAISWAL, CH TEKRAM G, SONEPAT",
      "open_now": true
    },
    {
      "place_id": "ChIJUYhu10vtDTkRhyz-d0cK1cw",
      "name": "IndianOil",
      "lat": 29.1112233,
      "lng": 76.69617989999999,
      "address": "Ground Floor, Gohana-Rohtak Road, Gohana",
      "open_now": true
    },
    {
      "place_id": "ChIJTdYhEk3tDTkRSDRCmRvLZ_Y",
      "name": "IndianOil",
      "lat": 29.119464,
      "lng": 76.654793,
      "address": "Ground Floor SH 16A, Gohana, Sonipat,Ahulana, Gohana",
      "open_now": true
    },
    {
      "place_id": "ChIJH_ptC1KTDTkR_aC8mXGjbOo",
      "name": "Reliance petrol pump",
      "lat": 29.11792329999999,
      "lng": 76.6996083,
      "address": "4M9X+5R9, Gohana mor, Gohana",
      "open_now": null
    },
    {
      "place_id": "ChIJx_Pt3oWYDTkRIpxOQV1tB_0",
      "name": "Hindustan Petroleum Corporation Limited",
      "lat": 28.898741,
      "lng": 76.82336300000001,
      "address": "Ground Floor, opp. Lord Krishna International School, SH 18, Rohtak - Sonipat Road, Humayunpur",
      "open_now": true
    },
    {
      "place_id": "ChIJ5fVGDPuYDTkRplHchgjrq9E",
      "name": "Nayara Petrol Pump",
      "lat": 28.8930991,
      "lng": 76.7872838,
      "address": "VQVP+6WM, Rohtak - Sonipat Road, Kansala",
      "open_now": true
    },
    {
      "place_id": "ChIJBSCzCACZDTkRccdNOLZlmeY",
      "name": "Baba Haridas Filling Station Petrol Pump",
      "lat": 28.89528,
      "lng": 76.802139,
      "address": "VRW2+9JP, Humayunpur",
      "open_now": true
    },
    {
      "place_id": "ChIJLxma1-2jDTkREusUfRI3gto",
      "name": "Tirupati balaji filling station",
      "lat": 28.9012381,
      "lng": 76.8394977,
      "address": "WR2Q+FQX, Rohtak - Sonipat Road, Sisana",
      "open_now": true
    },
    {
      "place_id": "ChIJ17r9tl6gDTkRcRGKzf8NmaA",
      "name": "IndianOil",
      "lat": 28.80115799999999,
      "lng": 76.867708,
      "address": "Ground Floor Nilothi, Bahadurgarh, Soldha",
      "open_now": true
    },
    {
      "place_id": "ChIJtS87NSihDTkRPOmyPPJoACs",
      "name": "BIJENDER DAHIYA FILLING STATION",
      "lat": 28.8008196,
      "lng": 76.8672915,
      "address": "RV29+935",
      "open_now": null
    },
    {
      "place_id": "ChIJiQzjCOINDTkRGizX1NYU060",
      "name": "Hindustan Petroleum Corporation Limited",
      "lat": 28.665756,
      "lng": 76.842445,
      "address": "Ground Floor Jhajjar, SH 22, Jhajjar - Bahadurgarh Road, Bahadurgarh",
      "open_now": true
    },
    {
      "place_id": "ChIJLc_T5pJ0DTkRC9l6zQean1s",
      "name": "Hindustan Petroleum Corporation Limited",
      "lat": 28.695211,
      "lng": 76.793911,
      "address": "Ground Floor, Beri Bahadurgarh Road, Mattan",
      "open_now": true
    },
    {
      "place_id": "ChIJQ1FWeQALDTkRf1naZKkeZM4",
      "name": "Indian Oil Vinayak Filling Station",
      "lat": 28.6882123,
      "lng": 76.8687726,
      "address": "MVQ9+7H6, Major District Road 122, Delhi",
      "open_now": true
    },
    {
      "place_id": "ChIJRyuA98sNDTkRQPbK7n9bx7E",
      "name": "Hindustan Petroleum Corporation Limited",
      "lat": 28.669628,
      "lng": 76.86656099999999,
      "address": "Ground Floor, near Lohchab Mahindra, SH 18, Jhajjar - Bahadurgarh Road, Delhi",
      "open_now": true
    },
    {
      "place_id": "ChIJfdsYo8xFGjkRAafjWRgXGCw",
      "name": "IndianOil",
      "lat": 28.650486,
      "lng": 76.849194,
      "address": "Khatoni No 231, Mustil No 22/4/2 Desalpur, Soldha, Bahadurgarh",
      "open_now": true
    },
    {
      "place_id": "ChIJVRfY0sASDTkRO62LRD5UnGE",
      "name": "IndianOil",
      "lat": 28.561979,
      "lng": 76.843147,
      "address": "Lock No 367, Dhansa Border, New Delhi",
      "open_now": true
    },
    {
      "place_id": "ChIJBUIEXc0SDTkRRZW1wpqYu3c",
      "name": "IndianOil",
      "lat": 28.550435,
      "lng": 76.826171,
      "address": "Ground Floor Daryapur Badli, Road, Chandu",
      "open_now": true
    },
    {
      "place_id": "ChIJL4XyckxtDTkRXAXHmKoxiEk",
      "name": "Hindustan Petroleum Corporation Limited",
      "lat": 28.563347,
      "lng": 76.839765,
      "address": "Ground Floor, near Metropolis Met City, Dhansa Road, Daryapur",
      "open_now": true
    },
    {
      "place_id": "ChIJcwd9b5JtDTkRy0Cl8XpD1U0",
      "name": "Hindustan Petroleum Corporation Limited",
      "lat": 28.562236,
      "lng": 76.809654,
      "address": "Ground Floor, Jhajjar Bypass, Badli",
      "open_now": true
    },
    {
      "place_id": "ChIJL-1aP7QSDTkReqXaDveO7Jo",
      "name": "Nirmal Oil Centre",
      "lat": 28.56694719999999,
      "lng": 76.8303279,
      "address": "Near Dariyapur Mod, Badli",
      "open_now": true
    },
    {
      "place_id": "ChIJa-qQLm0TDTkRYC4-U7HR6XE",
      "name": "SUNIIL DAHIYA DODO IGL CNG STATION DHANSA BORDER",
      "lat": 28.5620305,
      "lng": 76.845705,
      "address": "धंसा बॉर्डर, ईसापुर, दिल्ली",
      "open_now": true
    },
    {
      "place_id": "ChIJZ05UoDZtDTkR6M_r6tUn8E4",
      "name": "Hindustan Petroleum Corporation Limited",
      "lat": 28.570071,
      "lng": 76.82179599999999,
      "address": "Ground Floor, Badli Road, Badli",
      "open_now": true
    },
    {
      "place_id": "ChIJKxYGjh5tDTkRJn46W29JUkE",
      "name": "Reliance Site- Jogindra Engineering Works",
      "lat": 28.5637911,
      "lng": 76.8036238,
      "address": "HR73+GC9, Badli",
      "open_now": true
    },
    {
      "place_id": "ChIJ5ewqeQBtDTkRNApvecC7OLc",
      "name": "SK PUC CENTRE",
      "lat": 28.5693279,
      "lng": 76.8096383,
      "address": "HR8J+Q4Q, Major District Road 123, Ladpur",
      "open_now": null
    },
    {
      "place_id": "ChIJU7nDGWptDTkR47OrDJ1ux1U",
      "name": "Bharat Petroleum",
      "lat": 28.5652157,
      "lng": 76.8017062,
      "address": "87L, Jhajjar Bypass, Badli",
      "open_now": null
    },
    {
      "place_id": "ChIJJ5Mf0wQTDTkRzTaiQeUMl9M",
      "name": "Radhey Krishna filling station",
      "lat": 28.5204018,
      "lng": 76.8574209,
      "address": "GVC4+5X7, AIIMS Road, Badsa",
      "open_now": null
    },
    {
      "place_id": "ChIJAfcoKRMTDTkRLwqRSWaPCYI",
      "name": "Hindustan Petroleum Corporation Limited",
      "lat": 28.520224,
      "lng": 76.857523,
      "address": "Ground Floor, near AIIMS Road, Badsa",
      "open_now": true
    },
    {
      "place_id": "ChIJwaNbtkRtDTkRJt92D7LmGPs",
      "name": "uchalchinacort",
      "lat": 28.5719371,
      "lng": 76.8099556,
      "address": "HRC5+QXG",
      "open_now": null
    },
    {
      "place_id": "ChIJxU1jELNtDTkRIgyle-spxCc",
      "name": "Shri Ram Fuels",
      "lat": 28.5796765,
      "lng": 76.81770879999999,
      "address": "HRH9+V3G, Badli",
      "open_now": true
    },
    {
      "place_id": "ChIJQQnbWTkTDTkRahSfEmQTgl0",
      "name": "IndianOil",
      "lat": 28.514847,
      "lng": 76.863242,
      "address": "Ground Floor Mdr 136, Badsha, Badli",
      "open_now": true
    },
    {
      "place_id": "ChIJc9vUccxtDTkRp_6UpfkyBF0",
      "name": "Bharat Petroleum Petrol Pump , JUG LAL FILLING STATION",
      "lat": 28.5099923,
      "lng": 76.7919494,
      "address": "VPO. SONDHIBADLI-YAKUBPUR ROAD",
      "open_now": true
    },
    {
      "place_id": "ChIJIRwjtc8_DTkR96uUJ0N7Jss",
      "name": "NAYARA petrol pump",
      "lat": 28.39261,
      "lng": 76.8633701,
      "address": "9VV7+28X, vill jhundsarai, Khawaspur",
      "open_now": true
    },
    {
      "place_id": "ChIJiRQg6PoVDTkRQTi--P0D8qI",
      "name": "H.P. Petrol Pump jupiter",
      "lat": 28.4201174,
      "lng": 76.9087493,
      "address": "CWC5+2FX, SH-15A, Sector 95B, Gurugram",
      "open_now": null
    },
    {
      "place_id": "ChIJUWhbX00_DTkRQCWJjHP9K58",
      "name": "Hindustan Petroleum Corporation Limited",
      "lat": 28.40465,
      "lng": 76.88090009999999,
      "address": "Ground Floor, NH 352/W, near KM 9, Farrukh, Pataudi Road, Jhunsarai, Gurugram",
      "open_now": true
    },
    {
      "place_id": "ChIJb510dOgVDTkRoo4Q3B5anDQ",
      "name": "Bharat Petroleum, Petrol Pump -Devashish Fuels & Lubricants",
      "lat": 28.43235499999999,
      "lng": 76.8738214,
      "address": "KHENTAWAS,GURGAON, Gurugram",
      "open_now": true
    },
    {
      "place_id": "ChIJ88KyQJgVDTkROXl3lKSoZHI",
      "name": "Hindustan Petroleum Corporation Limited",
      "lat": 28.4286943,
      "lng": 76.882453,
      "address": "Ground Floor, Road, Khentawas, Wazirpur, Farukh Nagar",
      "open_now": true
    },
    {
      "place_id": "ChIJY59Q7JU_DTkRvO8WTDN1lyA",
      "name": "IndianOil",
      "lat": 28.3922425,
      "lng": 76.8619599,
      "address": "Adani Logistics Park, Khawaspur",
      "open_now": true
    },
    {
      "place_id": "ChIJs0t_DNE_DTkRyCvvD_yd4XE",
      "name": "Hindustan Petroleum Corporation Limited",
      "lat": 28.401623,
      "lng": 76.891959,
      "address": "Ground Floor IMT, Pataudi Road, Bhangrola, Gurugram",
      "open_now": true
    },
    {
      "place_id": "ChIJf9vjDvEVDTkR8zzDfwiAdmM",
      "name": "Haryana City Gas CNG Station",
      "lat": 28.4140649,
      "lng": 76.8973936,
      "address": "Pataudi Road, Village Dhorka, Sector 98, Gurugram",
      "open_now": true
    },
    {
      "place_id": "ChIJlfhclfkVDTkR85xTGtUkleY",
      "name": "IndianOil",
      "lat": 28.41403799999999,
      "lng": 76.897562,
      "address": "Ground Floor NH 352W, Pataudi Road, Dhorka, Dhankot, Gurugram",
      "open_now": true
    },
    {
      "place_id": "ChIJn7K3iek_DTkRnpV9ezy4SZ4",
      "name": "BPCL Om Shanti Petrol Pump",
      "lat": 28.3980501,
      "lng": 76.8924261,
      "address": "Connecting Rd pataudi Rd, to, Sector 8, Bhangrola, Imt Manesar",
      "open_now": true
    },
    {
      "place_id": "ChIJP4HMFD0VDTkRJ5AgBqCXm3c",
      "name": "Haryana City Gas CNG Station",
      "lat": 28.4249451,
      "lng": 76.8955503,
      "address": "Farukh Nagar - Wazirpur Road, Dhanawas, Sector H7, Gurugram",
      "open_now": true
    },
    {
      "place_id": "ChIJB_WUjecVDTkRynjSjx6UutY",
      "name": "Navuday fuels",
      "lat": 28.4149491,
      "lng": 76.8987382,
      "address": "CV7X+XFH, Pataudi Road, Gurugram",
      "open_now": null
    },
    {
      "place_id": "ChIJeySa4VAVDTkRMMbFoLDjVqg",
      "name": "BHARAT PETROLEUM PETROL PUMP",
      "lat": 28.4143264,
      "lng": 76.8989593,
      "address": "BPCL PUMP, near Wazirpur, to, Pataudi Road, Mod, Sector 95, Dhorka",
      "open_now": true
    },
    {
      "place_id": "ChIJhTAUWQAVDTkR8DSCdCyYBhk",
      "name": "Rao sahab office",
      "lat": 28.4143087,
      "lng": 76.8990364,
      "address": "CV7X+PJF, Gurugram",
      "open_now": null
    },
    {
      "place_id": "ChIJVXa46-wVDTkR3Vj8iZpkxUs",
      "name": "Hindustan Petroleum Corporation Limited",
      "lat": 28.424632,
      "lng": 76.898111,
      "address": "Ground Floor, near Railway Crossing, Farukh Nagar - Wazirpur Road, Dhanawas, Wazirpur, Gurugram",
      "open_now": true
    },
    {
      "place_id": "ChIJn1vO1Ic_DTkRB4Bn2BLpMWw",
      "name": "Hindustan Petroleum Corporation Limited",
      "lat": 28.39237,
      "lng": 76.89231099999999,
      "address": "Kila No 7/1, 7/2/1, Manesar, Gurugram",
      "open_now": true
    },
    {
      "place_id": "ChIJbzz4ZAAVDTkRayRNRVMoEK0",
      "name": "Jai Mata Fuels",
      "lat": 28.409427,
      "lng": 76.901798,
      "address": "CW52+QF2, Dhorka",
      "open_now": null
    },
    {
      "place_id": "ChIJI8L2uYMVDTkRucSH1W4xuO8",
      "name": "Pollutin Center",
      "lat": 28.4155858,
      "lng": 76.9026071,
      "address": "Dhorka",
      "open_now": null
    },
    {
      "place_id": "ChIJ_5XEWwAVDTkRAQoRfZLqqk0",
      "name": "Shiv ganga CNG",
      "lat": 28.4100779,
      "lng": 76.9052387,
      "address": "Ground Floor, Sector 92, Dhorka",
      "open_now": null
    },
    {
      "place_id": "ChIJtdGfOGs_DTkRq2qPWGCDBSs",
      "name": "Hindustan Petroleum Corporation Limited",
      "lat": 28.41011529999999,
      "lng": 76.9053017,
      "address": "Ground Floor, Sector 92, Dhorka",
      "open_now": true
    },
    {
      "place_id": "ChIJH2DEsSg5DTkRdk5Zd979Sao",
      "name": "Hindustan Petroleum Corporation Limited",
      "lat": 28.304501,
      "lng": 76.877461,
      "address": "Ground Floor, Delhi - Jaipur Expressway, Binola",
      "open_now": true
    },
    {
      "place_id": "ChIJF6o_0t04DTkR2PHKq26AhBw",
      "name": "B.P Bilaspur Bharat Petroleum (COCO)",
      "lat": 28.2937855,
      "lng": 76.8655607,
      "address": "Bilaspur Khurd, Gurugram NH-8, Delhi - Jaipur Expressway, Gurugram",
      "open_now": true
    },
    {
      "place_id": "ChIJyXpPcks5DTkR7paLFrLKun8",
      "name": "IndianOil",
      "lat": 28.274408,
      "lng": 76.89249699999999,
      "address": "Ground Floor, Bilaspur, Tauru Road, Dhani Chitarsain, Patherheri",
      "open_now": true
    },
    {
      "place_id": "ChIJMzNksyA6DTkRQabPT42otPY",
      "name": "JAURASIYA FUELS (hpcl) retail outlet,petrol pump",
      "lat": 28.2560153,
      "lng": 76.9192564,
      "address": "village-fatehpur,teh.-tauru,distt.-nuh, 132, Major District Road 132",
      "open_now": true
    },
    {
      "place_id": "ChIJobImOzE7DTkRPePa0MKjCM8",
      "name": "Hindustan Petroleum Corporation Limited",
      "lat": 28.2559047,
      "lng": 76.91922919999999,
      "address": "Ground Floor, Bilaspur Road, Tauru",
      "open_now": true
    },
    {
      "place_id": "ChIJP-7EUXg7DTkROsOQvH5F7oY",
      "name": "Hindustan Petroleum Corporation Limited",
      "lat": 28.2524266,
      "lng": 76.9228629,
      "address": "Ground Floor, Bilaspur Road, Tauru",
      "open_now": true
    },
    {
      "place_id": "ChIJrxm_VPI5DTkRd6eTrqc-fVk",
      "name": "IndianOil",
      "lat": 28.2500088,
      "lng": 76.9098073,
      "address": "Ground Floor Fatehpur, Tavru, Baghanki",
      "open_now": true
    },
    {
      "place_id": "ChIJlcMJqxk6DTkRl3ymvSo3tVg",
      "name": "Jp filling station",
      "lat": 28.248105,
      "lng": 76.927095,
      "address": "Major District Road 132, Jhamuwas",
      "open_now": true
    },
    {
      "place_id": "ChIJy9sD6E47DTkR1tRtVzIoyAU",
      "name": "IndianOil",
      "lat": 28.2797329,
      "lng": 76.9521528,
      "address": "Panchgaon To Mohammadpur, Bissar Akbarpur",
      "open_now": true
    },
    {
      "place_id": "ChIJHUpg5Zw7DTkRdTYNgUq_iQc",
      "name": "Eisha Filling Station",
      "lat": 28.2795675,
      "lng": 76.95260379999999,
      "address": "near Sunday Resort, Panchgaon Mahammadpur Road, Bissar Akbarpur",
      "open_now": true
    },
    {
      "place_id": "ChIJl5zxBR05DTkRWKHVfzgKhOg",
      "name": "Hindustan Petroleum Corporation Limited",
      "lat": 28.2830303,
      "lng": 76.8741936,
      "address": "Ground Floor, Bilaspur, Tauru Road, Patherheri",
      "open_now": true
    },
    {
      "place_id": "ChIJofDjwxA6DTkRpynwInedVBE",
      "name": "IndianOil",
      "lat": 28.24469999999999,
      "lng": 76.931557,
      "address": "Bilaspur, Gurgaon MDR-132, Bilaspur Road, Gurgaon",
      "open_now": true
    },
    {
      "place_id": "ChIJcau5l9E5DTkR1J60dJQ2NbM",
      "name": "Hindustan Petroleum Corporation Limited",
      "lat": 28.2831456,
      "lng": 76.8714559,
      "address": "Ground Floor Tauru, Bilaspur Road, Bilaspur Kalan",
      "open_now": true
    },
    {
      "place_id": "ChIJn2dQqmI5DTkRj0-alihwv-g",
      "name": "IndianOil",
      "lat": 28.2845781,
      "lng": 76.8700576,
      "address": "Mustakil No 45, Bilaspur Tavru Rd Killa No 23/2, Pathreri, Dhani, Chitter Sain",
      "open_now": true
    },
    {
      "place_id": "ChIJ7fpfpxA5DTkR3KWfNzt36NU",
      "name": "Velvex AdBlue (DEF) Filling Station",
      "lat": 28.3092905,
      "lng": 76.8836123,
      "address": "8V5M+PC9, Binola",
      "open_now": null
    },
    {
      "place_id": "ChIJP6lPO5A5DTkRJynQYl2VQas",
      "name": "IndianOil",
      "lat": 28.3080307,
      "lng": 76.881959,
      "address": "NH 8, Manesar, Binola",
      "open_now": true
    },
    {
      "place_id": "ChIJgdKDqoo5DTkRliGks-DpHyw",
      "name": "IGL CNG Station",
      "lat": 28.3080365,
      "lng": 76.8819596,
      "address": "8V5J+6Q8, Service Road, Panchgaon",
      "open_now": null
    },
    {
      "place_id": "ChIJMZARcsA5DTkR6LAjTvDBFss",
      "name": "Kamla Petro Mart ️",
      "lat": 28.2847593,
      "lng": 76.86805989999999,
      "address": "Bilaspur Khurd",
      "open_now": true
    },
    {
      "place_id": "ChIJ77MqHS45DTkRsmBFg_n8Xe0",
      "name": "Hindustan Petroleum Corporation Limited",
      "lat": 28.30939009999999,
      "lng": 76.8833301,
      "address": "Ground Floor, Delhi - Jaipur Expressway, Binola",
      "open_now": true
    },
    {
      "place_id": "ChIJ2-MGpK05DTkR95hShiPY13Q",
      "name": "Metro Filling Station ( Indian Oil)",
      "lat": 28.308167,
      "lng": 76.88168,
      "address": "57.5 KMS, NH-48, old NH-8, Vill, Binola",
      "open_now": true
    },
    {
      "place_id": "ChIJw3gTuBwwDTkRk_ovhCYKVaQ",
      "name": "Hindustan Petroleum Corporation Limited",
      "lat": 28.2236752,
      "lng": 77.0059881,
      "address": "Ground Floor, Sohna Tauru Road NH 919, Tauru, Maindla",
      "open_now": true
    },
    {
      "place_id": "ChIJtdfNvAIwDTkRAm231hscJgw",
      "name": "IndianOil",
      "lat": 28.226027,
      "lng": 77.009524,
      "address": "Ground Floor Tavru Road, Mendla, Sohna, Baghanki",
      "open_now": true
    },
    {
      "place_id": "ChIJ42pXMlwxDTkREAExXl4DkUk",
      "name": "KMP Fuels Bharat Petroleum",
      "lat": 28.2225023,
      "lng": 77.00180999999999,
      "address": "Killa no. 21, village dhulawat tehsil tauru, Gurugram",
      "open_now": null
    },
    {
      "place_id": "ChIJFw9NAAAvDTkRIxuLF8FElW0",
      "name": "Puc center",
      "lat": 28.23710599999999,
      "lng": 77.044265,
      "address": "behind Shams Petrol Pump, 1, Sohna, Sehsaula",
      "open_now": null
    },
    {
      "place_id": "ChIJ_aRSTPcvDTkRxs6J9tmT5yQ",
      "name": "Shams Petrol Pump",
      "lat": 28.23709969999999,
      "lng": 77.04438379999999,
      "address": "Sohna, Sahsola, Tauru Road, Tauru",
      "open_now": null
    },
    {
      "place_id": "ChIJywTqDwAvDTkR7ClJVgRIjYk",
      "name": "S D Chahaliya",
      "lat": 28.1793803,
      "lng": 77.0431354,
      "address": "52HV+Q72, Gajarpur",
      "open_now": null
    },
    {
      "place_id": "ChIJY6XByBDNujsRlKnXldyZhqY",
      "name": "IndianOil",
      "lat": 28.22743809999999,
      "lng": 77.0655677,
      "address": "Sohna Alwar Road, SH 13, Sohna",
      "open_now": true
    },
    {
      "place_id": "ChIJnQs_ehAvDTkRZc27gJJDuMA",
      "name": "IndianOil",
      "lat": 28.2302723,
      "lng": 77.0666431,
      "address": "Ground Floor Sohna Alwar Road, National Highway 248A, Sohna",
      "open_now": true
    },
    {
      "place_id": "ChIJq6qqusorDTkRkd8ww5INwDs",
      "name": "IndianOil",
      "lat": 28.13337599999999,
      "lng": 77.156795,
      "address": "Ground Floor Mindkola, Nuh Rd, Chhainsa, Palwal",
      "open_now": true
    },
    {
      "place_id": "ChIJEb9Ns0kqDTkRciLxy89vuvw",
      "name": "Prasad filling station Petrol Pump",
      "lat": 28.1334348,
      "lng": 77.15712789999999,
      "address": "45M4+9VC, Palwal",
      "open_now": null
    },
    {
      "place_id": "ChIJu70XD3crDTkRaFJ2iTL2Y4I",
      "name": "IndianOil",
      "lat": 28.15191,
      "lng": 77.121895,
      "address": "Ground Floor, Sohna Mindkola Road Gangoli, Nuh, Bhirawati",
      "open_now": true
    },
    {
      "place_id": "ChIJ8yjfiVkpDTkRP0i4yXc3h5k",
      "name": "IndianOil",
      "lat": 28.1600967,
      "lng": 77.115999,
      "address": "Ground Floor, Nuh, Sohna-Mandkola Road, Kherli Dausa",
      "open_now": true
    },
    {
      "place_id": "ChIJgbpyYpArDTkR2rGQv7HazvY",
      "name": "SAHEED RAMPAL FILL. STATION",
      "lat": 28.1325688,
      "lng": 77.1586172,
      "address": "45M5+2CH, Major District Road 132, Nuh",
      "open_now": null
    },
    {
      "place_id": "ChIJO8Z5bI8rDTkRyeuquC8rDt4",
      "name": "Hindustan Petroleum Corporation Limited",
      "lat": 28.13276979999999,
      "lng": 77.1644774,
      "address": "Ground Floor, Mandkola",
      "open_now": true
    },
    {
      "place_id": "ChIJF-cG5X0rDTkRpmm9P0VXgPA",
      "name": "Bharat Petroleum, Petrol Pump -Shaheed Rampal Filling Station",
      "lat": 28.1325957,
      "lng": 77.16684529999999,
      "address": "MINDKOLA,PALWAL NUH RD,MEW, PALWAL",
      "open_now": true
    },
    {
      "place_id": "ChIJVbdlPgDVcjkRpTLAanrkHmY",
      "name": "IndianOil",
      "lat": 28.0354477,
      "lng": 77.1208023,
      "address": "Ground Floor, NHAI Rest Area, Delhi - Mumbai Expressway, Tajpur",
      "open_now": true
    },
    {
      "place_id": "ChIJn-TvJ3LVcjkRNgWXR273_5U",
      "name": "Rest Area & Facility",
      "lat": 28.0353458,
      "lng": 77.1209644,
      "address": "24PC+49, Tajpur",
      "open_now": null
    },
    {
      "place_id": "ChIJVbHFslDVcjkRdtYyZebqvYo",
      "name": "IndianOil",
      "lat": 28.0356006,
      "lng": 77.11937329999999,
      "address": "Ground Floor, NHAI Rest Area, Delhi - Mumbai Expressway, Tajpur",
      "open_now": true
    },
    {
      "place_id": "ChIJhfpDoh4rDTkRniSIMR9eCcU",
      "name": "Bharat Petroleum Petrol Pump , A M FUEL STATION",
      "lat": 28.07746999999999,
      "lng": 77.102544,
      "address": "NH 248A, KM STONE 40-50, LHS,GURGAON ALWAR ROAD, VILLAGE MARODA",
      "open_now": null
    },
    {
      "place_id": "ChIJ5VcrOgArDTkR-rCeY2emHBs",
      "name": "BPCL Mahadev Filling Station Chhainsa",
      "lat": 28.0750874,
      "lng": 77.166742,
      "address": "Hathin, Hathin Nuh Rd, Chhainsa",
      "open_now": true
    },
    {
      "place_id": "ChIJNcS08_rVcjkRXSsXBOTg18A",
      "name": "Essar Petrol Pump",
      "lat": 28.0325001,
      "lng": 77.1138064,
      "address": "24M7+2G3, Nuh Hodal Road, Jaisinghpur",
      "open_now": true
    },
    {
      "place_id": "ChIJCyOsQADVcjkRj8q6jCjhOoI",
      "name": "Hindustan Petroleum Corporation Limited",
      "lat": 28.0342526,
      "lng": 77.1090718,
      "address": "MDR No 132, Nuh Hodal Road, Tajpur",
      "open_now": true
    },
    {
      "place_id": "ChIJ22suHQDVcjkRK076Cdl0YuM",
      "name": "PRA GAS",
      "lat": 28.027545,
      "lng": 77.1231233,
      "address": "Usman Market, near Bay, 112, Nuh Hodal Road, Village, Chilavli, Nuh",
      "open_now": null
    },
    {
      "place_id": "ChIJ-TS9ZQDVcjkR4aSvO2vHPmQ",
      "name": "M/s PRA GAS, CNG Station",
      "lat": 28.0272833,
      "lng": 77.1232164,
      "address": "24GF+W78, Jaisinghpur",
      "open_now": null
    },
    {
      "place_id": "ChIJMd_I4n3TcjkRX18tv_6Q1Io",
      "name": "IndianOil",
      "lat": 28.042713,
      "lng": 77.094773,
      "address": "MU No 173, Khata No 1833, 1820, Nuh Hodal Road, Ujina",
      "open_now": true
    },
    {
      "place_id": "ChIJUWDO8kXTcjkR1LtpDSWqvT0",
      "name": "ESSAR Petrol Pump, Ujina",
      "lat": 28.0474831,
      "lng": 77.08663709999999,
      "address": "Ujina",
      "open_now": true
    },
    {
      "place_id": "ChIJQ7co_9jTcjkRIUELmM6C2WI",
      "name": "Bharat Petroleum, Petrol Pump -Vimal Filling Station",
      "lat": 28.0477684,
      "lng": 77.0855579,
      "address": "UJHINA,NUH HODAL RD,MEWAT, MEWAT",
      "open_now": null
    },
    {
      "place_id": "ChIJE9vrCQDFcjkRIFK17IrskZs",
      "name": "CNG filling spoton DMIC",
      "lat": 27.7913747,
      "lng": 77.0101838,
      "address": "Q2R5+GW2, Baghola",
      "open_now": null
    },
    {
      "place_id": "ChIJEaIcPADFcjkRPVrEx23a6aE",
      "name": "Dev bp fuels",
      "lat": 27.8474817,
      "lng": 77.00511329999999,
      "address": "R2W3+JXH, Sakras",
      "open_now": null
    },
    {
      "place_id": "ChIJddS7NADFcjkRNHQOhwjgUlw",
      "name": "Indian Oil Petrol Pump",
      "lat": 27.7912075,
      "lng": 77.0097493,
      "address": "Q2R5+FQJ, Baghola",
      "open_now": null
    },
    {
      "place_id": "ChIJmeDYKQDFcjkRxEQRnY1uZrI",
      "name": "Chishti and Warsi Tayre workshop",
      "lat": 27.7909171,
      "lng": 77.01031139999999,
      "address": "IndianOil, rest area 63, Delhi - Mumbai Expressway, Baghola",
      "open_now": true
    },
    {
      "place_id": "ChIJU9tUtGfFcjkR7O-NVtvHKz4",
      "name": "IndianOil",
      "lat": 27.7909171,
      "lng": 77.01031139999999,
      "address": "63/140, Delhi - Mumbai Expressway, Gurugram",
      "open_now": true
    },
    {
      "place_id": "ChIJORRGldbbcjkR8A3-qMJw32o",
      "name": "Sarif Indian Oil",
      "lat": 27.83959339999999,
      "lng": 77.06747510000001,
      "address": "Sarif Indian Oil, Tigaon",
      "open_now": null
    },
    {
      "place_id": "ChIJF4XU9qTbcjkRlPz1-_6PL5o",
      "name": "IndianOil",
      "lat": 27.8364795,
      "lng": 77.0693757,
      "address": "Ground Floor, Bari Kothi Punhana Road Ghatwasan, Luhinga kalan",
      "open_now": true
    },
    {
      "place_id": "ChIJcds1Z47pcjkRXb1XBRt1rdQ",
      "name": "Karan Singh kirana stor and restorent",
      "lat": 27.6294865,
      "lng": 76.94151649999999,
      "address": "JWHR+QJR, Rasgan",
      "open_now": null
    },
    {
      "place_id": "ChIJTQpGNQDrcjkRfcVS4Ucc5WM",
      "name": "Rohit petrol filling station ⛽",
      "lat": 27.6118065,
      "lng": 76.9169374,
      "address": "JW68+PQF, Bakayanka",
      "open_now": null
    },
    {
      "place_id": "ChIJZzpBr2HpcjkR-TTCYM2Sl2k",
      "name": "जिया ई-मित्र",
      "lat": 27.6591428,
      "lng": 76.9433468,
      "address": "MW5V+M85, Golki",
      "open_now": null
    },
    {
      "place_id": "ChIJVT3WUwDtcjkR9OJRCTUqWQM",
      "name": "JAMVAAY ENTERPRISES DEF FILLING PUMP (ADD BLUE)",
      "lat": 27.485842,
      "lng": 76.8429846,
      "address": "FRPV+85Q, Delhi - Mumbai Expressway, BADODAMEV, Seetal",
      "open_now": true
    },
    {
      "place_id": "ChIJowQoANLtcjkRrHPzqCGs4_c",
      "name": "Shree Pilot Filling Station",
      "lat": 27.4857513,
      "lng": 76.84077309999999,
      "address": "Sheetal, Barodameo",
      "open_now": true
    },
    {
      "place_id": "ChIJG8HvfQDtcjkRCC8WkrjJpUg",
      "name": "Petrol pump",
      "lat": 27.502402,
      "lng": 76.85961739999999,
      "address": "GV25+XX3, Bhayari",
      "open_now": null
    },
    {
      "place_id": "ChIJYRPnGoPycjkR8aJ2dvv89XQ",
      "name": "IndianOil",
      "lat": 27.4820067,
      "lng": 76.8626127,
      "address": "Ground Floor, SH 14, Barodameo",
      "open_now": true
    },
    {
      "place_id": "ChIJ81kJIADtcjkR8z2AZ7qG3qQ",
      "name": "HP Petrol pump",
      "lat": 27.50145719999999,
      "lng": 76.8609592,
      "address": "GV26+99, Bhayari",
      "open_now": null
    },
    {
      "place_id": "ChIJh9gG1CvzcjkR74Ol5b6fmSs",
      "name": "IndianOil",
      "lat": 27.4792871,
      "lng": 76.8787155,
      "address": "Ground Floor, Bharatpur Road, Barodameo",
      "open_now": true
    },
    {
      "place_id": "ChIJ0R9ZmLyScjkRk2FRZcG8oQE",
      "name": "IndianOil",
      "lat": 27.4935519,
      "lng": 76.8081895,
      "address": "Ground Floor, Bharatpur Road, Ramgarh, Adarsh Colony, Jugrawar",
      "open_now": true
    },
    {
      "place_id": "ChIJsbOROcCLcjkRaWxn6gIv-jg",
      "name": "IGNITE ENERGY STATION",
      "lat": 27.3641679,
      "lng": 76.8216591,
      "address": "ON SH-44, TEHSIL- LAXMANGARH, Maujpur",
      "open_now": true
    },
    {
      "place_id": "ChIJvw7JTk2LcjkRpbOZmNp_zS8",
      "name": "Bharat Petroleum, Petrol Pump -Parasnath Filling Station",
      "lat": 27.3628089,
      "lng": 76.7964969,
      "address": "MAUJPUR ALWAR, Alwar",
      "open_now": true
    },
    {
      "place_id": "ChIJOxD-k8mLcjkRyefR8Vprhy8",
      "name": "Ashok emitra",
      "lat": 27.3813464,
      "lng": 76.7677704,
      "address": "9QJ9+G4J, Berla",
      "open_now": null
    },
    {
      "place_id": "ChIJPVBSu26LcjkRdLbnIqjElqE",
      "name": "IndianOil",
      "lat": 27.3627291,
      "lng": 76.78072519999999,
      "address": "Ground Floor, Laxmangarh Malakhera Road, Chimravali Sikh, Bedar, Alwar",
      "open_now": true
    },
    {
      "place_id": "ChIJu2oW8ABxcjkRWQ1LL70P_ws",
      "name": "Bharat Petroleum, Petrol Pump -Harsh Kisan Service Center",
      "lat": 27.0881684,
      "lng": 76.63438119999999,
      "address": "KESHOPURA DAUSA, DAUSA",
      "open_now": null
    },
    {
      "place_id": "ChIJex-M2HlxcjkRU3nL1pxD0Ho",
      "name": "Nayara Filling Station",
      "lat": 27.0606318,
      "lng": 76.63286169999999,
      "address": "3J6M+745, Kishanpura",
      "open_now": true
    },
    {
      "place_id": "ChIJa2zpey1ucjkRi7UEBtQM7u8",
      "name": "अभि ई-मित्र & स्टेशनरी",
      "lat": 27.04740259999999,
      "lng": 76.65238649999999,
      "address": "India",
      "open_now": null
    },
    {
      "place_id": "ChIJrVdRJgBlcjkRXhRooGZ6RI8",
      "name": "HP Petrol pump",
      "lat": 27.11826789999999,
      "lng": 76.6635639,
      "address": "Petrol pump at, Delhi - Mumbai Expressway",
      "open_now": null
    },
    {
      "place_id": "ChIJMWE2y2hxcjkRUJkLAZ5PIl8",
      "name": "Sitaram Bharat Ges Agency",
      "lat": 27.0590293,
      "lng": 76.61586750000001,
      "address": "Shop,No.02, near by Chote Lal Sabji Wale Ke Pass, Badiyal Road, Nandera",
      "open_now": null
    },
    {
      "place_id": "ChIJK8aiKeR0cjkRYxZfecP4aFE",
      "name": "Hindustan Petroleum Corporation Limited",
      "lat": 26.92689499999999,
      "lng": 76.510434,
      "address": "Ground Floor, NH 11, Sikrai, Reta",
      "open_now": true
    },
    {
      "place_id": "ChIJX4fAMAB1cjkRlfMiZjJfyJ0",
      "name": "Petrol and CNG pump",
      "lat": 26.9613941,
      "lng": 76.496933,
      "address": "XF6W+HQ3, Delhi - Mumbai Expressway, Dhigariya Tappa Koleshwar",
      "open_now": null
    },
    {
      "place_id": "ChIJ95qdawB1cjkR8GVme2TfUzc",
      "name": "HP CNG Pump",
      "lat": 26.9615232,
      "lng": 76.4978258,
      "address": "XF6W+HQ3, Delhi - Mumbai Expressway, Dhigariya Tappa Koleshwar",
      "open_now": null
    },
    {
      "place_id": "ChIJkVN54BJ1cjkRAfnKILK8Iv8",
      "name": "India Oil Petrol Pump",
      "lat": 26.9630947,
      "lng": 76.4969991,
      "address": "XF7W+6QQ, Unnamed Road, Dhigariya Tappa Koleshwar",
      "open_now": null
    },
    {
      "place_id": "ChIJwUaVBFp1cjkRs9Z3YkW7yew",
      "name": "IndianOil",
      "lat": 26.9611925,
      "lng": 76.5002019,
      "address": "Ground Floor, Delhi - Mumbai Expressway, Km 172, Dhanawar",
      "open_now": true
    },
    {
      "place_id": "ChIJtcnHXst1cjkR-15U40Ly1Y0",
      "name": "IndianOil",
      "lat": 26.9634398,
      "lng": 76.49941869999999,
      "address": "Delhi - Mumbai Expressway, Km 172, Dhanawar",
      "open_now": true
    },
    {
      "place_id": "ChIJPa7mAhN1cjkR7rg45HjccC8",
      "name": "IndianOil",
      "lat": 26.921551,
      "lng": 76.493616,
      "address": "Ground Floor, NH 11, Sikrai, Reta",
      "open_now": true
    },
    {
      "place_id": "ChIJ0Tf5de91cjkRIW0AjZENEwA",
      "name": "Essar petrol pump",
      "lat": 26.9345607,
      "lng": 76.52974379999999,
      "address": "WGMH+RVH, National Highway 21, Dolika Bas",
      "open_now": true
    },
    {
      "place_id": "ChIJ42EOgBF1cjkRUFmRuAPsytM",
      "name": "Bharat Petroleum, Petrol Pump -Arihant Petroleum (Nrl)",
      "lat": 26.9190384,
      "lng": 76.4755546,
      "address": "KALAKHO DAUSA, Dausa",
      "open_now": true
    },
    {
      "place_id": "ChIJZdqCDiv0bTkRMAhDh4pHs2w",
      "name": "IndianOil",
      "lat": 26.7991456,
      "lng": 76.40815789999999,
      "address": "Major District Road 63, Aluda",
      "open_now": true
    },
    {
      "place_id": "ChIJR55dEQD1bTkRwATjDzgupAo",
      "name": "IndianOil Petrol Pump",
      "lat": 26.80035999999999,
      "lng": 76.375534,
      "address": "Kilometre 199, Delhi - Mumbai Expressway",
      "open_now": true
    },
    {
      "place_id": "ChIJ3STpFQD1bTkRTnl8jtJVZts",
      "name": "IOCL Petrol and CNG Pump",
      "lat": 26.8002915,
      "lng": 76.37729379999999,
      "address": "R92G+2Q6, Aluda",
      "open_now": true
    },
    {
      "place_id": "ChIJcUiNr8jzbTkRyPKtIMkEKMU",
      "name": "Nayara Petrol Pump - bhavadiya Filling Stations",
      "lat": 26.7936091,
      "lng": 76.34119319999999,
      "address": "NH34, Jaykrishnapur, Murshidabad Dhuliyan",
      "open_now": true
    },
    {
      "place_id": "ChIJe5FLxaL1bTkRxaI9Rpl640w",
      "name": "Hindustan Petroleum Corporation Limited",
      "lat": 26.8126362,
      "lng": 76.3827043,
      "address": "Khasra No 681, 1 & 2, Aluda",
      "open_now": true
    },
    {
      "place_id": "ChIJrWqJ_DP3bTkRlHy54CnvNSk",
      "name": "IndianOil",
      "lat": 26.7509283,
      "lng": 76.3957902,
      "address": "Ground Floor, Nangal, Chharera",
      "open_now": true
    },
    {
      "place_id": "ChIJE4xtLqXzbTkRqwzb38IRBRM",
      "name": "Hindustan Petroleum Corporation Limited",
      "lat": 26.817981,
      "lng": 76.336034,
      "address": "Ground Floor, Lavan More, NH 11A, Dausa - Lalsot Road, Badagaon",
      "open_now": true
    },
    {
      "place_id": "ChIJf9V35GL7bTkRMUvadOcBWJo",
      "name": "Hindustan Petroleum Corporation Limited",
      "lat": 26.602681,
      "lng": 76.304008,
      "address": "Ground Floor, SH 24, Didwana",
      "open_now": true
    },
    {
      "place_id": "ChIJAb7Tp8XkbTkRojpUdTEq8cI",
      "name": "Pachwara Filling Station",
      "lat": 26.6272859,
      "lng": 76.2573524,
      "address": "J7G4+WW9, State Highway 24, Ramgarh Pachwara",
      "open_now": true
    },
    {
      "place_id": "ChIJW1b0Rnz8bTkRcW2dAEt31KQ",
      "name": "HP PETROL PUMP - NARDYA FILLING STATION",
      "lat": 26.594398,
      "lng": 76.321227,
      "address": "Village Deedwana SH-24 Tehsil Lalsot, Jaipur",
      "open_now": true
    },
    {
      "place_id": "ChIJf_oxltQRbjkRFTggvTOpKIc",
      "name": "MR. JITENDRA SAINI",
      "lat": 26.2398991,
      "lng": 76.2467533,
      "address": "Jatawti",
      "open_now": null
    },
    {
      "place_id": "ChIJMZxYjUgXbjkRcKI1hLI3xGs",
      "name": "Dev Kirana Store Pvt.Ltd",
      "lat": 26.1873167,
      "lng": 76.1932217,
      "address": "Bonli, Karadi",
      "open_now": null
    },
    {
      "place_id": "ChIJ0RgJz0olbjkRNRdeywA5D3o",
      "name": "IndianOil",
      "lat": 25.9703619,
      "lng": 76.2716769,
      "address": "Ground Floor, Alapur, Sawai Madhopur Road, Kushtala",
      "open_now": true
    },
    {
      "place_id": "ChIJQx-VLgAlbjkRzKZqNdOi8Ls",
      "name": "Kapil Filling Station",
      "lat": 25.9711944,
      "lng": 76.2791944,
      "address": "X7CH+FM, Jaisapura",
      "open_now": true
    },
    {
      "place_id": "ChIJcd1uI68lbjkR343i3AC9Vxs",
      "name": "Bharat Petroleum Petrol Pump , SHARMA FILLING STATION",
      "lat": 25.9589195,
      "lng": 76.2851106,
      "address": "0, KOTA MEGHA HIGHWAY, ROAD, Sawai Madhopur",
      "open_now": true
    },
    {
      "place_id": "ChIJpcarTQAlbjkR-4tXF5rXxqc",
      "name": "Jai balaji kushtala",
      "lat": 25.954165,
      "lng": 76.28390999999999,
      "address": "X73M+MH, Kushtala",
      "open_now": null
    },
    {
      "place_id": "ChIJAZ9jfiIlbjkRQ-dRVxQjr18",
      "name": "IndianOil",
      "lat": 25.9539572,
      "lng": 76.2838723,
      "address": "Ground Floor, SH 1, Kushtala",
      "open_now": true
    },
    {
      "place_id": "ChIJ5e6QlaEzbjkRUC4xP4EIIO0",
      "name": "IndianOil",
      "lat": 25.765801,
      "lng": 76.184401,
      "address": "Ground Floor, Lalsot Kota Mega Highway Indergarh, Lalpura, Antarda",
      "open_now": true
    },
    {
      "place_id": "ChIJI2rOyNozbjkR3UY1LgyuOSs",
      "name": "Hindustan Petroleum Corporation Limited",
      "lat": 25.761705,
      "lng": 76.18190299999999,
      "address": "Ground Floor, Indergarh",
      "open_now": true
    },
    {
      "place_id": "ChIJoVgWClXJbzkRcRgu8MyBABY",
      "name": "HP PETROL PUMP - MAHARAJA MOOL SINGH FILLING STATI",
      "lat": 25.6602717,
      "lng": 76.1755943,
      "address": "Khasra No, 152 & 153, Lakher Khatgarh Road, Lakheri",
      "open_now": true
    },
    {
      "place_id": "ChIJ-d_9-1XJbzkRi5X01oF8mJw",
      "name": "HP",
      "lat": 25.6608851,
      "lng": 76.1729624,
      "address": "M56F+954, Rajasthan State Highway 29, Lakheri",
      "open_now": null
    },
    {
      "place_id": "ChIJfXrLLYXFbzkRA1yD9EfIVco",
      "name": "Hindustan Petroleum Corporation Limited",
      "lat": 25.561214,
      "lng": 76.21529799999999,
      "address": "Khasra No 66, SH 33, Laban",
      "open_now": true
    },
    {
      "place_id": "ChIJ11VM8v3PbzkRQa1bn5ry284",
      "name": "IndianOil",
      "lat": 25.5783846,
      "lng": 76.23152429999999,
      "address": "Ground Floor, Amli, Badakhera",
      "open_now": true
    },
    {
      "place_id": "ChIJxwtK3O3FbzkR0KYKm4Wptg8",
      "name": "SHREE KAMAL ENTERPRISES FILLING STATION (BPCL)",
      "lat": 25.5298295,
      "lng": 76.2062749,
      "address": "Lalsot - Kota Mega Highway, Laban",
      "open_now": true
    },
    {
      "place_id": "ChIJiTWAcHbFbzkRaY7DRoa3DIA",
      "name": "Two bonds Fuel Station Petrolpump",
      "lat": 25.52778239999999,
      "lng": 76.2032152,
      "address": "Lalsot - Kota Mega Highway, Laban",
      "open_now": null
    },
    {
      "place_id": "ChIJ5RZUc3XFbzkR-ePaYp4q0y4",
      "name": "IndianOil",
      "lat": 25.527577,
      "lng": 76.2027347,
      "address": "Khasra No 1402/1384, Near Lagan, Kota Khurd",
      "open_now": true
    },
    {
      "place_id": "ChIJyUpX-AnCbzkRu1yfI1TvjFU",
      "name": "IndianOil",
      "lat": 25.3855436,
      "lng": 76.1956207,
      "address": "Near, 8 line, Mandawara",
      "open_now": true
    },
    {
      "place_id": "ChIJH7SrmQfsbzkRH6CppP4nl9g",
      "name": "Hindustan Petroleum Corporation Limited",
      "lat": 25.2883332,
      "lng": 76.1691231,
      "address": "Khasra No, 490 & 490/1 SH 70, Sultanpur",
      "open_now": true
    },
    {
      "place_id": "ChIJG9SHOwDtbzkRRvknOU6wpmY",
      "name": "Uttam petroleum corporation",
      "lat": 25.2830079,
      "lng": 76.1609838,
      "address": "75M6+695, Sultanpur",
      "open_now": true
    },
    {
      "place_id": "ChIJUZeaJgnsbzkRfZaXyeGlTqs",
      "name": "IndianOil",
      "lat": 25.284301,
      "lng": 76.163701,
      "address": "Ground Floor, Kota Road, Sultanpur",
      "open_now": true
    },
    {
      "place_id": "ChIJDw-8qt6KbzkRqcNM2JBvVHE",
      "name": "Bharat Petroleum Corporation Limited Kurar",
      "lat": 25.04199,
      "lng": 76.068129,
      "address": "Deoli, Kota, SH-51, Kota Road, Kota, Kota",
      "open_now": true
    },
    {
      "place_id": "ChIJI5-ZXaKLbzkRI6TdgvPOnjw",
      "name": "Nayara Petrol Pump - Malav Filling Station",
      "lat": 25.0588485,
      "lng": 76.0415366,
      "address": "Vill- Balapur, Tehsil-Ladpur, Dist, Kota",
      "open_now": true
    },
    {
      "place_id": "ChIJp4bt-UWLbzkR3pafJKZX7AI",
      "name": "BHARAT PETROLEUM PUMP- KALPTARU FILLING STATION",
      "lat": 25.049216,
      "lng": 76.05444539999999,
      "address": "Kurar Near arandkhera, village, Kota",
      "open_now": true
    },
    {
      "place_id": "ChIJ4dnlouxjZTkRHPUtQ1WNonw",
      "name": "UMA Filling station Nayara RRO",
      "lat": 24.9288876,
      "lng": 75.9496484,
      "address": "WWHX+HV2, Major District Road 7",
      "open_now": null
    },
    {
      "place_id": "ChIJZTCuzuljZTkRIy-IOdth8Lk",
      "name": "BPCL Mandana Bharat petroleum",
      "lat": 24.937122,
      "lng": 75.9494663,
      "address": "WWPX+VR, Mandana",
      "open_now": true
    },
    {
      "place_id": "ChIJkZV8IT9jZTkRc62NyImP6J0",
      "name": "Govindam Enterprises BPCL Filling Station",
      "lat": 24.9389002,
      "lng": 75.94930149999999,
      "address": "National Highway 52, Mandana",
      "open_now": true
    },
    {
      "place_id": "ChIJ2aRRVYxjZTkRbT9DZZmBr7s",
      "name": "IndianOil",
      "lat": 24.9418303,
      "lng": 75.9516634,
      "address": "Ground Floor, Ladpura, Mandana",
      "open_now": true
    },
    {
      "place_id": "ChIJEWhaFPliZTkRi5gatzdx_c0",
      "name": "Gawalera Filling Station",
      "lat": 24.9502883,
      "lng": 75.9421818,
      "address": "NH 12, Kota",
      "open_now": null
    },
    {
      "place_id": "ChIJmWO5fPFiZTkRY8PjCS_JSJQ",
      "name": "HP PETROL PUMP - HP FUELING CENTER",
      "lat": 24.959551,
      "lng": 75.938281,
      "address": "Ground Floor, Road, Mandana",
      "open_now": true
    },
    {
      "place_id": "ChIJ_dHaGwBnZTkRVgGxJPH26u4",
      "name": "धर",
      "lat": 24.8366211,
      "lng": 76.00230789999999,
      "address": "R2P2+JWV, Kota Road, Dara",
      "open_now": null
    },
    {
      "place_id": "ChIJ5RMPe3JmZTkREYP8O2J-Xl4",
      "name": "Ratan Filling Station-BPCL Petrol Pump",
      "lat": 24.8357496,
      "lng": 76.00400309999999,
      "address": "Darah, Kota, NH-52, Kota Jhalawar Highway, Kota",
      "open_now": true
    },
    {
      "place_id": "ChIJjfmQtg9lZTkRmGTRuidiehs",
      "name": "Mewati Def urea pump",
      "lat": 24.8440268,
      "lng": 75.9882817,
      "address": "Dara",
      "open_now": true
    },
    {
      "place_id": "ChIJg3goTwATZTkRHYPauZEKsKc",
      "name": "Jay Shree Kotri Shyam motors def urea pump",
      "lat": 24.8443796,
      "lng": 75.98812769999999,
      "address": "Nh52, Jhalawar Road, Dobara",
      "open_now": true
    },
    {
      "place_id": "ChIJZWFxWxNmZTkRsw97alyq5T8",
      "name": "Hindustan Petroleum Corporation Limited",
      "lat": 24.8320381,
      "lng": 76.0096039,
      "address": "Khasra No 398, NH 52, Dara",
      "open_now": true
    },
    {
      "place_id": "ChIJe2ViHaxlZTkRGIuT4Y1LjtQ",
      "name": "IndianOil",
      "lat": 24.8496487,
      "lng": 75.9819184,
      "address": "Khasra No, 330/205, Ladpura, Bhanwariya",
      "open_now": true
    },
    {
      "place_id": "ChIJt6qqqtpuZTkRhYp4wGS-Jmw",
      "name": "JAIN BROTHERS FILLING STATION",
      "lat": 24.725772,
      "lng": 75.99525899999999,
      "address": "N.H-12,DHABADEH,Jhalawar highway, DHABADEH",
      "open_now": true
    },
    {
      "place_id": "ChIJG8Eav5luZTkR0AAgZNhth4s",
      "name": "Bharat Petroleum Petrol Pump , MORAK FILLING STATION",
      "lat": 24.72257099999999,
      "lng": 75.965378,
      "address": "RAMGANJMANDI, Kota",
      "open_now": true
    },
    {
      "place_id": "ChIJQYhU8StvZTkRR-cip2Fb_jc",
      "name": "IndianOil",
      "lat": 24.7690573,
      "lng": 75.98681440000001,
      "address": "Ground Floor, NH 12, Modak",
      "open_now": true
    },
    {
      "place_id": "ChIJ5cW0DIVuZTkRwrAACBeyYjQ",
      "name": "IndianOil",
      "lat": 24.7217933,
      "lng": 75.955455,
      "address": "Ground Floor, Ramganj Mandi, Binda Khedi, near Mangalam Cement Factory, Jhalawar",
      "open_now": true
    },
    {
      "place_id": "ChIJaSxc2kxpZTkRRoLqEtXXMP8",
      "name": "Bharat Petroleum, Petrol Pump -Mahakali Highway Services",
      "lat": 24.7306049,
      "lng": 75.9935943,
      "address": "MORAK, JHALAWAR ROAD, KOTA",
      "open_now": true
    },
    {
      "place_id": "ChIJ3XYdYQBvZTkRa-H8c-0yeNY",
      "name": "CNG PUMP- Torrent Gas, Durga Filling station",
      "lat": 24.7691737,
      "lng": 75.9867688,
      "address": "QX9P+MQ6, Kamalpura",
      "open_now": null
    },
    {
      "place_id": "ChIJCdleBf1rZTkRTMpQ_zSF1tM",
      "name": "IndianOil",
      "lat": 24.7142001,
      "lng": 76.002201,
      "address": "Ground Floor, Jhalawar Road, Dhabadeh, Kamalpura",
      "open_now": true
    },
    {
      "place_id": "ChIJwaA6EgBrZTkRGRw7E346Qv8",
      "name": "Ramganj Kota",
      "lat": 24.71437199999999,
      "lng": 76.00273299999999,
      "address": "P273+P3, Hirya Kheri",
      "open_now": null
    },
    {
      "place_id": "ChIJNQ8TWHFvZTkRlUyvnplNP1w",
      "name": "M/S Raamkripa Fs Kamalpura",
      "lat": 24.7719179,
      "lng": 75.986069,
      "address": "NH 52, Kamalpura",
      "open_now": null
    },
    {
      "place_id": "ChIJiWolVEJvZTkR2N8FhUzkLU4",
      "name": "Hindustan Petroleum Corporation Limited",
      "lat": 24.736739,
      "lng": 75.943653,
      "address": "Ground Floor, Ramganj Mandi, SH 9A, Modak",
      "open_now": true
    },
    {
      "place_id": "ChIJL0r0awBtZTkRuNmHs1iApeU",
      "name": "R.K. FILLING STATION",
      "lat": 24.65378,
      "lng": 75.91343,
      "address": "MW37+G97, Ramganj Mandi",
      "open_now": null
    },
    {
      "place_id": "ChIJ26veDABtZTkRVbNumW67OSU",
      "name": "R.K. Filling station Nayara Energy",
      "lat": 24.653364,
      "lng": 75.91373999999999,
      "address": "MW37+8FX, Goyanda Road, Manda",
      "open_now": null
    },
    {
      "place_id": "ChIJxZPaeABtZTkRHHhEb7Pph1g",
      "name": "Indian oil petrol pump",
      "lat": 24.6783203,
      "lng": 75.9333419,
      "address": "MWHM+88, Goondi",
      "open_now": true
    },
    {
      "place_id": "ChIJkZcGVQBtZTkRSocFF099pak",
      "name": "S K fueling station",
      "lat": 24.685973,
      "lng": 75.9337479,
      "address": "MWPM+9FQ, Rajasthan Road, Goondi",
      "open_now": true
    },
    {
      "place_id": "ChIJwbtO1OUNZTkRAtDPhtu9rMc",
      "name": "भारत पेट्रोलियम श्री सांवलिया फिलिंग स्टेशन (पेट्रोल पंप)",
      "lat": 24.5542097,
      "lng": 75.8640906,
      "address": "Unnamed Road, Sandhara",
      "open_now": null
    },
    {
      "place_id": "ChIJSWSpMAqpZTkRYcliYbKvfX8",
      "name": "IndianOil",
      "lat": 24.3366171,
      "lng": 75.6579964,
      "address": "Ground Floor, Bhanpura Road, Bardiya Amra",
      "open_now": true
    },
    {
      "place_id": "ChIJw_1nTX2rZTkRlBII4NzW2qI",
      "name": "Vijay Shree Petroleum - BPCL",
      "lat": 24.3110067,
      "lng": 75.66167879999999,
      "address": "Boliya Road, Garoth",
      "open_now": true
    },
    {
      "place_id": "ChIJb7P3CiepZTkRIWgoiTRrKHs",
      "name": "NAYARA / ESSAR Abhinav Petroleum",
      "lat": 24.3178979,
      "lng": 75.64742679999999,
      "address": "8MC2+HJH, Shamgarh Road, Garoth",
      "open_now": true
    },
    {
      "place_id": "ChIJMbr7rXyrZTkR7KNnpIKfzUs",
      "name": "Shri Krishna Biofuel Station",
      "lat": 24.3015546,
      "lng": 75.6421276,
      "address": "near Garoth cut, Garoth Ujjain Road, near Garoth cut, Delhi - Mumbai Expressway, Garoth",
      "open_now": true
    },
    {
      "place_id": "ChIJs1etniOrZTkRk89jyMMektI",
      "name": "Ayushman Petroleum",
      "lat": 24.2898369,
      "lng": 75.6405201,
      "address": "Express Way, Garoth",
      "open_now": true
    },
    {
      "place_id": "ChIJLTnjBgCpZTkRG3-9dSTcEUI",
      "name": "Fuel station",
      "lat": 24.34620349999999,
      "lng": 75.6794725,
      "address": "8MWH+FQQ, Garot",
      "open_now": true
    },
    {
      "place_id": "ChIJxYHJLACpZTkRZmTflgIaRQI",
      "name": "NAYRA PETROL PUMP ⛽",
      "lat": 24.3476575,
      "lng": 75.6800968,
      "address": "8MXH+2M3, Garoth",
      "open_now": true
    },
    {
      "place_id": "ChIJRxkPLQBVZDkRvXeR4OiYdJM",
      "name": "Entry point ( पेट्रोल पंप गुरुकृपा )",
      "lat": 24.2151519,
      "lng": 75.6551226,
      "address": "DHABLA GURJAR, gurukripa filling essar pump, Dhablagujar Ujjain-garoth rd to shamgarh road Entry point, to, RAILWAY UNDER BRIDGET, Chandkhedi",
      "open_now": true
    },
    {
      "place_id": "ChIJH8isCsxUZDkRxi3Ghwrzs1w",
      "name": "गुरुकृपा पेट्रोल पंप",
      "lat": 24.2133063,
      "lng": 75.649931,
      "address": "Chandkhedi",
      "open_now": null
    },
    {
      "place_id": "ChIJlyoSxLpUZDkR1I-hojRipBM",
      "name": "NAYARA",
      "lat": 24.2025848,
      "lng": 75.6334815,
      "address": "India",
      "open_now": null
    },
    {
      "place_id": "ChIJh__r0pVUZDkROQ1d1LRoXjw",
      "name": "Hindustan Petroleum Corporation Limited",
      "lat": 24.1905701,
      "lng": 75.6388801,
      "address": "Ground Floor, Shamgarh Road, Mandsaur",
      "open_now": true
    },
    {
      "place_id": "ChIJkcjuBltVZDkRmUQsNngYnlY",
      "name": "IndianOil",
      "lat": 24.1938,
      "lng": 75.6307034,
      "address": "Ground Floor Garoth, Shamgarh Road, Aankali, Deewan",
      "open_now": true
    },
    {
      "place_id": "ChIJt-AGJgBVZDkRzphJHJkH-G4",
      "name": "Jai Balaji Petroleum",
      "lat": 24.1819734,
      "lng": 75.6390369,
      "address": "5JJQ+VM8, Suwasra Road, Shamgarh",
      "open_now": null
    },
    {
      "place_id": "ChIJCZdk1nNVZDkRPwHZRucq55g",
      "name": "Hindustan Petroleum Corporation Limited",
      "lat": 24.176735,
      "lng": 75.647311,
      "address": "Ground Floor, Shamgarh",
      "open_now": true
    },
    {
      "place_id": "ChIJ99KzIJdUZDkRxJoqsMFEWcI",
      "name": "Choudhary Filling Station, Bharat Petroleum",
      "lat": 24.1992049,
      "lng": 75.6129875,
      "address": "Shanti kunj ,garoth road,, Shamgarh",
      "open_now": true
    },
    {
      "place_id": "ChIJs2Xt1I33ZDkRXFwltWojLUg",
      "name": "KAVITA FILLING STATION",
      "lat": 23.9510311,
      "lng": 75.7397273,
      "address": "DAG TO CHOUMHLA, ROAD, Jamuniya",
      "open_now": true
    },
    {
      "place_id": "ChIJHyAdJgSHZDkRdaNIrkDlDe4",
      "name": "Bharat Petroleum Petrol Pump , SHIVAM AUTOMOBILES",
      "lat": 23.615968,
      "lng": 75.73150300000002,
      "address": "Indokh Road, M.P",
      "open_now": true
    },
    {
      "place_id": "ChIJAbromLWHZDkRzgKwdAGC6yQ",
      "name": "Hindustan Petroleum Corporation Limited",
      "lat": 23.641506,
      "lng": 75.737516,
      "address": "Ground Floor, Mahidpur, Makla",
      "open_now": true
    },
    {
      "place_id": "ChIJK-ELlP2HZDkRWX_r7w_sUng",
      "name": "Chouhan Kirana Store",
      "lat": 23.6052093,
      "lng": 75.7240351,
      "address": "Jharda",
      "open_now": null
    },
    {
      "place_id": "ChIJ6cHT22aHZDkRNo4sPcFdiHU",
      "name": "Hindustan Petroleum Corporation Limited",
      "lat": 23.5992768,
      "lng": 75.7203553,
      "address": "Ground Floor, Mahidpur, Jharda",
      "open_now": true
    },
    {
      "place_id": "ChIJK2-iW6WHZDkRvbiU5OEUzIw",
      "name": "IndianOil",
      "lat": 23.6001954,
      "lng": 75.7196944,
      "address": "Ph No 26, Survey No 960/4, Mahidpur",
      "open_now": true
    },
    {
      "place_id": "ChIJRUrsE1F_YzkRndWzJmsRFtA",
      "name": "Me Kisan Sewa Kender",
      "lat": 23.3989227,
      "lng": 75.8040008,
      "address": "1, Jagoti",
      "open_now": null
    },
    {
      "place_id": "ChIJz2ke5QB8YzkR6-COPP79YeM",
      "name": "IndianOil",
      "lat": 23.397326,
      "lng": 75.81057600000001,
      "address": "Survey No 1032/3 Part, Ph No 115 Jagoti, Dhablahardu",
      "open_now": true
    },
    {
      "place_id": "ChIJY5NQJLxwYzkRfZoh3lyb6lk",
      "name": "Bharat Petroleum, CNG Petrol Pump -Jay Nakoda Petroleum",
      "lat": 23.28639,
      "lng": 75.8261407,
      "address": "JAITHALTECH ,UJJAIN KOTA R, Ujjain",
      "open_now": true
    },
    {
      "place_id": "ChIJEy3_ss55YzkRKn7Gh1Vy7KM",
      "name": "IndianOil",
      "lat": 23.314103,
      "lng": 75.785507,
      "address": "Ph No 14, Survey No, 2986/5, Dhabla Hardu, Ghatia, Panbihar",
      "open_now": true
    },
    {
      "place_id": "ChIJg9FXqYRxYzkRRSBQfr9Gkwk",
      "name": "Bharat Pump",
      "lat": 23.2824257,
      "lng": 75.8214371,
      "address": "1 Gram Jethal Tek",
      "open_now": null
    },
    {
      "place_id": "ChIJUYzofgBxYzkRAV03_GpeO9w",
      "name": "Hotel Nandi Resort",
      "lat": 23.2859692,
      "lng": 75.82527809999999,
      "address": "7RPG+94J, Ujjain - Agar Road, Jaithal",
      "open_now": null
    },
    {
      "place_id": "ChIJg-QXlr5wYzkRDF07nhImdUU",
      "name": "IndianOil",
      "lat": 23.2848874,
      "lng": 75.8259964,
      "address": "Ph No 42, Survey No 296, 4 300, Dhabla Hardu, Jaithal",
      "open_now": true
    },
    {
      "place_id": "ChIJzxLAGvdxYzkRCCw3-_ZzEOw",
      "name": "Atharva Petroleum",
      "lat": 23.2590625,
      "lng": 75.8174441,
      "address": "ujjain agar, national highway, jhalawad",
      "open_now": true
    },
    {
      "place_id": "ChIJdQsI1gN0YzkR2Ms8Ep1HvZk",
      "name": "Hindustan Petroleum Corporation Limited",
      "lat": 23.2045794,
      "lng": 75.8011155,
      "address": "Ground Floor, Kanipura Road, Ujjain",
      "open_now": true
    },
    {
      "place_id": "ChIJNbqEkXt0YzkRXqzcD4X3cQo",
      "name": "Hindustan Petroleum Corporation Limited",
      "lat": 23.1677962,
      "lng": 75.7993236,
      "address": "No B, 5, Dewas Road, Rishi Nagar, Ujjain",
      "open_now": true
    },
    {
      "place_id": "ChIJQZH5R2l0YzkRwvsvleSKOYE",
      "name": "Hindustan Petroleum Corporation Limited",
      "lat": 23.176051,
      "lng": 75.788791,
      "address": "Ground Floor, Ujjain Dewas Road, Ujjain",
      "open_now": true
    },
    {
      "place_id": "ChIJ8Uuh4OtzYzkRtknJoRkFijM",
      "name": "Hindustan Petroleum Corporation Limited",
      "lat": 23.1921541,
      "lng": 75.82569529999999,
      "address": "Ground Floor, Ujjain - Maksi Road, Pawasa, Ujjain",
      "open_now": true
    },
    {
      "place_id": "ChIJZZ2GkZdzYzkRLXC61HyC2j8",
      "name": "Bharat Petroleum Petrol Pump , MAHAKAL FILLING STATION",
      "lat": 23.1898354,
      "lng": 75.8206194,
      "address": "PAWASAPANWASA, Ujjain - Maksi Road, Ujjain",
      "open_now": true
    },
    {
      "place_id": "ChIJhdOl4elzYzkRNJa0YywUerk",
      "name": "IndianOil",
      "lat": 23.1941428,
      "lng": 75.8299086,
      "address": "Survey No 168/3/1, Ph, 40, Maxi Road, Amodiya",
      "open_now": true
    },
    {
      "place_id": "ChIJDaC62oxzYzkRQzD54OpvMY4",
      "name": "IndianOil",
      "lat": 23.1849917,
      "lng": 75.8150909,
      "address": "Lock No 23009, Maksi Road, Desai Nagar, Ujjain",
      "open_now": true
    },
    {
      "place_id": "ChIJL8GNrIR1YzkRdvIcmUA0VVQ",
      "name": "Krishna Fuels",
      "lat": 23.1943079,
      "lng": 75.8016884,
      "address": "MR- 5 Inner Ring Road , Agar Maksi Bypass, Ujjain",
      "open_now": true
    },
    {
      "place_id": "ChIJvc90J7B1YzkRRYYY7E0KtuA",
      "name": "IndianOil",
      "lat": 23.1949697,
      "lng": 75.8009795,
      "address": "Ground Floor, Inner Ring Road Badnagar Kasba, Nagar, Maksi Road, Amodiya",
      "open_now": true
    },
    {
      "place_id": "ChIJkyGbAC9zYzkRvO9xY-R3wPM",
      "name": "IndianOil",
      "lat": 23.1947623,
      "lng": 75.8479937,
      "address": "Survey No 39/1, near Sanchi Dugdh Sangh, Ph No 51, Shankarpur, Desai Nagar, Ujjain",
      "open_now": true
    },
    {
      "place_id": "ChIJJeiGmyJ1YzkRTOqtCCohU7M",
      "name": "Rukmani Filling Station Bharat Petrol ONLINE CNG Pump",
      "lat": 23.1974983,
      "lng": 75.79458989999999,
      "address": "Ujjain Ring Road, Dhancha Bhavan Colony, Bapna Park Colony, Ujjain",
      "open_now": true
    },
    {
      "place_id": "ChIJjVj2AE51YzkR3qxDDHgsEzY",
      "name": "Gurunanak Fuels",
      "lat": 23.1993679,
      "lng": 75.7933204,
      "address": "near nageshwar dham, Gurunanak Fuels, near nageshwar dham, Kanipura Road, Ujjain",
      "open_now": true
    },
    {
      "place_id": "ChIJicyAQ8l1YzkRT6cg3F4WUSo",
      "name": "Patrol pamp",
      "lat": 23.1993787,
      "lng": 75.7930047,
      "address": "5QXV+Q62, Rajendra Nagar, Ujjain",
      "open_now": null
    },
    {
      "place_id": "ChIJ3f5590F0YzkRAkUVeeFZrPg",
      "name": "Gas Center",
      "lat": 23.1822103,
      "lng": 75.7914782,
      "address": "near MPEB Office, 16/3, Maksi Road, Ujjain",
      "open_now": true
    },
    {
      "place_id": "ChIJXSKj0Bl0YzkRiSAaeztyXgE",
      "name": "FUEL CENTER BPCL PETROL PUMP",
      "lat": 23.1955259,
      "lng": 75.7875105,
      "address": "Ujjain - Agar Road, Ujjain",
      "open_now": true
    },
    {
      "place_id": "ChIJzUwO4x10YzkRsjttTX6r30A",
      "name": "Hindustan Petroleum Corporation Limited",
      "lat": 23.205808,
      "lng": 75.789672,
      "address": "Ground Floor, Ashok Mandi Marg, Agar Road, Ujjain",
      "open_now": true
    },
    {
      "place_id": "ChIJ_3_22C11YzkRtWF1czHnohU",
      "name": "Bharat Petroleum, Petrol Pump -Subham Petroleum",
      "lat": 23.2051297,
      "lng": 75.78928069999999,
      "address": "FREEGANJ,NEAR RAILWAY BRID, Ujjain",
      "open_now": true
    },
    {
      "place_id": "ChIJkZd8O6d2YzkRVxWnyNud4yc",
      "name": "IndianOil",
      "lat": 23.2089167,
      "lng": 75.7904643,
      "address": "Survey No 90/2/1, near Ujjain Factory, Plot 61/1, Ashok Mandi Chouraha, Khilachipur, Ujjain",
      "open_now": true
    },
    {
      "place_id": "ChIJH2Elmm90YzkReYznpkMMtts",
      "name": "IndianOil",
      "lat": 23.1729875,
      "lng": 75.79260459999999,
      "address": "Ground Floor, University Road, Ashok Nagar, Desai Nagar, Ujjain",
      "open_now": true
    },
    {
      "place_id": "ChIJWSz-ju3BZjkRYh9MoqiXUzk",
      "name": "IndianOil",
      "lat": 23.191841,
      "lng": 75.7855438,
      "address": "Ground Floor, Ujjain - Agar Road, Ujjain",
      "open_now": true
    },
    {
      "place_id": "ChIJCeo2GLgTYzkRRzNwZsl1Xro",
      "name": "Hindustan Petroleum Corporation Limited",
      "lat": 23.075172,
      "lng": 75.904484,
      "address": "Ground Floor, Ujjain Dewas Road, Narwar",
      "open_now": true
    },
    {
      "place_id": "ChIJ5aQfUQANYzkRANFZJFMaa8Q",
      "name": "Nayara petrol pump",
      "lat": 23.092163,
      "lng": 75.883426,
      "address": "3VRM+V9, Datana",
      "open_now": true
    },
    {
      "place_id": "ChIJp7tggwATYzkR_Vxdt-6F9M8",
      "name": "Shree Sai Petrol Pump Narwar",
      "lat": 23.0653417,
      "lng": 75.9146583,
      "address": "3W87+4VM, Ujjain Dewas Road, Narwar",
      "open_now": null
    },
    {
      "place_id": "ChIJRc-BDQANYzkRjRD6pMkZC6w",
      "name": "Jio BP Petrol Pump",
      "lat": 23.0968448,
      "lng": 75.8785762,
      "address": "Datana",
      "open_now": true
    },
    {
      "place_id": "ChIJS_q-jk0NYzkRBr54HHDU2bw",
      "name": "Hindustan Petroleum Corporation Limited",
      "lat": 23.100294,
      "lng": 75.872091,
      "address": "Ground Floor, Datana",
      "open_now": true
    },
    {
      "place_id": "ChIJuXPglEASYzkRVMJx0e6vhcY",
      "name": "IndianOil",
      "lat": 23.0576224,
      "lng": 75.9273887,
      "address": "Lock No Ig 1697 Narwar, Ujjain Dewas Road, Bolasa",
      "open_now": true
    },
    {
      "place_id": "ChIJWQFRF0gRYzkRTZqmwO22J3c",
      "name": "Hindustan Petroleum Corporation Limited",
      "lat": 23.015374,
      "lng": 75.982236,
      "address": "Plot 686/1 & 686/2 SH 18, Ujjain Road, Dewas",
      "open_now": true
    },
    {
      "place_id": "ChIJ6cSOQgARYzkRjJqwfDccfWk",
      "name": "Leela फिलिंग station Leela",
      "lat": 23.0161453,
      "lng": 75.9823194,
      "address": "2X8J+MP, Bangar",
      "open_now": null
    },
    {
      "place_id": "ChIJuZMkDt4RYzkR55dYHDrhsgg",
      "name": "Jio BP petrol Pump- Petrol, Diesel, CBG/Bio CNG",
      "lat": 23.0052289,
      "lng": 75.9936541,
      "address": "No. 26, patwari halka, 129/2/2, Singawada",
      "open_now": null
    },
    {
      "place_id": "ChIJiZgN83YRYzkRZsdxLrXDlg4",
      "name": "IndianOil",
      "lat": 22.9619962,
      "lng": 75.9915963,
      "address": "Survey No 65, Chandana",
      "open_now": true
    },
    {
      "place_id": "ChIJfWkFkukdYzkReR4C8B_zU_A",
      "name": "Jio-bp",
      "lat": 22.8417857,
      "lng": 75.9435397,
      "address": "opposite Hpc Bottling Plant, Ground Floor Nh 3, Ab Road, Sanwer, Lasudia Parmar, opposite Hpc Bottling Plant, Indore",
      "open_now": true
    },
    {
      "place_id": "ChIJCwHdTikaYzkRsdyw6ILku5g",
      "name": "Hindustan Petroleum Corporation Limited",
      "lat": 22.905151,
      "lng": 75.987471,
      "address": "Ground Floor, Agra - Mumbai Highway, Kshipra",
      "open_now": true
    },
    {
      "place_id": "ChIJdc6h2_gbYzkR7joLH9hWX74",
      "name": "IndianOil",
      "lat": 22.868214,
      "lng": 75.961978,
      "address": "Ground Floor, A B Road Dakachaya, NH 3, Barlai Jagir",
      "open_now": true
    },
    {
      "place_id": "ChIJW9qGKvYbYzkRJj7KeOuzBgA",
      "name": "Arjun Baroda OSTS",
      "lat": 22.8720513,
      "lng": 75.9645827,
      "address": "Arjun Baroda",
      "open_now": true
    },
    {
      "place_id": "ChIJd59f7pUbYzkRpeTWEM3yj2U",
      "name": "BPCL COCO OUTLET PUMP ARJUN BARODA",
      "lat": 22.8721125,
      "lng": 75.9646192,
      "address": "National Highway 3, Baroda Arjun",
      "open_now": true
    },
    {
      "place_id": "ChIJwcHLCccbYzkRuaoygrsIKpk",
      "name": "Hindustan Petroleum Corporation Limited",
      "lat": 22.882233,
      "lng": 75.9715241,
      "address": "Ground Floor, NH 3, Agra - Mumbai Highway, Arjun Baroda",
      "open_now": true
    },
    {
      "place_id": "ChIJl7C0O3YbYzkRvZ3dUDUXvaQ",
      "name": "SUNIL SERVICE STATION DIESEL PUMP",
      "lat": 22.8505969,
      "lng": 75.94952529999999,
      "address": "N H 3, National Highway 3, Lasudiya Parmar",
      "open_now": true
    },
    {
      "place_id": "ChIJK6iqwjEdYzkRh4nu_0qJtSI",
      "name": "Aavantika Gas Limited CNG Station",
      "lat": 22.8420203,
      "lng": 75.9437829,
      "address": "India",
      "open_now": null
    },
    {
      "place_id": "ChIJH6dZh9xpYjkRv18eSveaN70",
      "name": "SHREE DUTT FUELS CNG PUMP",
      "lat": 22.9005937,
      "lng": 75.97570689999999,
      "address": "A.B. Road, National Highway 3, Bhodal",
      "open_now": true
    },
    {
      "place_id": "ChIJjbIxEgAbYzkRNPJnFknHOfg",
      "name": "Sipara Indore road",
      "lat": 22.8993299,
      "lng": 75.9826075,
      "address": "VXXM+P2Q, Kshipra",
      "open_now": true
    },
    {
      "place_id": "ChIJwYuiA4YcYzkRu5qaBkqs8Wg",
      "name": "IndianOil",
      "lat": 22.836144,
      "lng": 75.940902,
      "address": "KM Stone, Ground Floor NH 3, Raukhedi,Badayala Mata, near No 591/2, Ratlam",
      "open_now": true
    },
    {
      "place_id": "ChIJj3PK7bTiYjkRSplFneFeKQY",
      "name": "PALIWAL FUELS CLUB HPCL STAR",
      "lat": 22.731396,
      "lng": 75.9014541,
      "address": "865/2, Khajrana,Ring Road Circle, Khajrana Road, Indore",
      "open_now": true
    },
    {
      "place_id": "ChIJV8XmgsXiYjkRPSRg7Z5BWvw",
      "name": "The Tasty Treat",
      "lat": 22.7199068,
      "lng": 75.9122379,
      "address": "Prem Bandhan Chopati, near Petrol Pump, Indore",
      "open_now": null
    },
    {
      "place_id": "ChIJX5CPtEz9YjkR6xjBgP_AP98",
      "name": "IndianOil",
      "lat": 22.7341181,
      "lng": 75.8996882,
      "address": "LIG Link Road, Ring Road, LIG Square, Indore",
      "open_now": true
    },
    {
      "place_id": "ChIJW7N1oaoCYzkRLVwYBUzmBQo",
      "name": "Hindustan Petroleum Corporation Limited",
      "lat": 22.7507359,
      "lng": 75.89860840000001,
      "address": "Ground Floor, MR 10 Road, Khajrana, Indore",
      "open_now": true
    },
    {
      "place_id": "ChIJc_AQm1b9YjkR1CrYhZweFPU",
      "name": "Raghunath prasad and co . BPCL petrol pump",
      "lat": 22.7453065,
      "lng": 75.89422940000001,
      "address": "Infront of, Plot no 25 , Sheme no 54, AB Road, Vijay Nagar, Badi Bhamori, Indore",
      "open_now": true
    },
    {
      "place_id": "ChIJaZm6z1X9YjkRwsg4Lrh6KpY",
      "name": "IndianOil",
      "lat": 22.7478152,
      "lng": 75.894913,
      "address": "No 307, AB Road, Vijay Nagar, DDU Nagar, Scheme No 54, Indore",
      "open_now": true
    },
    {
      "place_id": "ChIJMdOViHIdYzkRbH9ksBCyJ44",
      "name": "Essar-Nayara Petrol Pump",
      "lat": 22.7744181,
      "lng": 75.93528169999999,
      "address": "QWFP+Q47, Bypass Rd, Omaxe City 1, Nipania, Indore",
      "open_now": true
    },
    {
      "place_id": "ChIJXzp2wJYbYzkRLBesEKZZDGA",
      "name": "IndianOil",
      "lat": 22.77674,
      "lng": 75.93634709999999,
      "address": "CGO Complex Bypass Road, NH 3, Mayakhedi, Indore",
      "open_now": true
    },
    {
      "place_id": "ChIJzeEsmjf9YjkRgTalXWfX7-4",
      "name": "IndianOil",
      "lat": 22.7238933,
      "lng": 75.88930669999999,
      "address": "New no 14/1, near Palasia, No 1/1, Old Palasia Road, Chauraha, Indore",
      "open_now": true
    },
    {
      "place_id": "ChIJxa1lkWfjYjkRG98uSbVqVq4",
      "name": "Hindustan Petroleum Corporation Limited",
      "lat": 22.736469,
      "lng": 75.930533,
      "address": "Ground Floor, MR 9 Road, Khajrana, Indore",
      "open_now": true
    },
    {
      "place_id": "ChIJSYtqLZriYjkRrB-Bn2ZAsxQ",
      "name": "IndianOil",
      "lat": 22.7444361,
      "lng": 75.92943,
      "address": "Scheme No 159, No, MR10 County Walk Township, Indore",
      "open_now": true
    },
    {
      "place_id": "ChIJJR0hD-viYjkRUY5AFJh5Kyk",
      "name": "Hindustan Petroleum Corporation Limited",
      "lat": 22.72708870000001,
      "lng": 75.92693349999999,
      "address": "Ground Floor, near Bypass Junction, Kanadia Main Road, Indore",
      "open_now": true
    },
    {
      "place_id": "ChIJQx9v2ZrjYjkRdDwfpC9HdAI",
      "name": "Bharat Petroleum, Petrol Pump -Gangotri Developers",
      "lat": 22.7249666,
      "lng": 75.9220293,
      "address": "KANADIA, Kanadia Main Road, Indore",
      "open_now": true
    },
    {
      "place_id": "ChIJVamvQgDjYjkRrh3guNN92Bc",
      "name": "Mahin bhai's house",
      "lat": 22.7296383,
      "lng": 75.9180741,
      "address": "PWH9+V64, Heena Palace, Indore",
      "open_now": null
    },
    {
      "place_id": "ChIJ59g0qPbjYjkRWZo0jO7arfU",
      "name": "Bharat Petroleum, Petrol Pump -Khajrana Petro Needs",
      "lat": 22.7320085,
      "lng": 75.9114285,
      "address": "Khajrana, Indore",
      "open_now": true
    },
    {
      "place_id": "ChIJ1YE7yl8dYzkRJFp-6xdKyAU",
      "name": "IndianOil",
      "lat": 22.7549626,
      "lng": 75.92208769999999,
      "address": "Ground Floor, near Apollo Db City, Nipania, Indore",
      "open_now": true
    },
    {
      "place_id": "ChIJo-hSNu7jYjkRLio7Zlb7RLs",
      "name": "Balkishan Kushwaha",
      "lat": 22.7430511,
      "lng": 75.90963959999999,
      "address": "9, Indore",
      "open_now": null
    },
    {
      "place_id": "ChIJZzo2Q5AdYzkRXO0OMUDvP38",
      "name": "Hindustan Petroleum",
      "lat": 22.7576054,
      "lng": 75.9218446,
      "address": "Hindustan Petroleum, Indore",
      "open_now": null
    },
    {
      "place_id": "ChIJmfgcMQDjYjkRRv0-yYeBSjc",
      "name": "Bhura",
      "lat": 22.7180843,
      "lng": 75.9152201,
      "address": "PW98+63Q, Shiv Shakti Nagar Road, Sarv Suvidha Nagar, Indore",
      "open_now": null
    },
    {
      "place_id": "ChIJ58ETuCsdYzkRrJyrpBiU1uc",
      "name": "IndianOil",
      "lat": 22.7605498,
      "lng": 75.92976519999999,
      "address": "CGO Complex, near Oscian Park, Nipania, Indore",
      "open_now": true
    },
    {
      "place_id": "ChIJe-exWE_7YjkRzJUfaVLyfmw",
      "name": "IndianOil",
      "lat": 22.64004300000001,
      "lng": 75.88798299999999,
      "address": "Ground Floor, Khandwa Road Kelod Kartal, Datoda, Kasturba Nagar, Indore",
      "open_now": true
    },
    {
      "place_id": "ChIJO-f1B8D8YjkRf85XGeNgJH8",
      "name": "Bharat Petroleum, Petrol Pump -H.S. Road Carriers",
      "lat": 22.6785507,
      "lng": 75.8781407,
      "address": "PALDA VILLAGE,NEAR GURUDRA, Indore",
      "open_now": true
    },
    {
      "place_id": "ChIJPW6rn9j7YjkRm_KkD0WL6pc",
      "name": "Reliance Petroleum",
      "lat": 22.6362616,
      "lng": 75.8885961,
      "address": "Ground Floor, near Carmel Convent School, Sh 27, Khandwa Road, Indore",
      "open_now": true
    },
    {
      "place_id": "ChIJaeQy4877YjkRQl5CebBFPPM",
      "name": "Bharat Petroleum, Petrol Pump -International Service Station,Kh Rd",
      "lat": 22.632466,
      "lng": 75.8881814,
      "address": "KAILODKAR TAL,SH27,INDORE, Indore",
      "open_now": true
    },
    {
      "place_id": "ChIJE_EAJrv7YjkRjgfx_TpkZIM",
      "name": "Purwa Gas godown CCTV service electrician service",
      "lat": 22.6294983,
      "lng": 75.87321829999999,
      "address": "JVHF+Q7, Morod",
      "open_now": true
    },
    {
      "place_id": "ChIJV0jzS6_7YjkRGCLchaoaby8",
      "name": "Bharat Petroleum, Petrol Pump ke pss",
      "lat": 22.6371836,
      "lng": 75.8688569,
      "address": "KAILODKARTAL,INDORE BYPASS, Indore",
      "open_now": true
    },
    {
      "place_id": "ChIJf_kuxHv7YjkR_fY6znIvrDY",
      "name": "IndianOil",
      "lat": 22.6200942,
      "lng": 75.8860864,
      "address": "Ground Floor, Khandwa Road, Morod",
      "open_now": true
    },
    {
      "place_id": "ChIJPwwOSCX7YjkRf1TmyNGcBPA",
      "name": "IndianOil",
      "lat": 22.6181901,
      "lng": 75.887468,
      "address": "Ground Floor, Khandwa Road, Morod",
      "open_now": true
    },
    {
      "place_id": "ChIJv3Qp1ez9YjkRvlbaewT2pCs",
      "name": "S.S. Auto Energies",
      "lat": 22.670136,
      "lng": 75.881925,
      "address": "Limbodi, Indore",
      "open_now": true
    },
    {
      "place_id": "ChIJu4xZHe77YjkRYuhT_nyJkw0",
      "name": "Bharat Petroleum, Petrol Pump -Ramsingh & Sons",
      "lat": 22.63938,
      "lng": 75.84980270000001,
      "address": "NIHALPURMUNDI,NH-3 BY-PASS, Indore",
      "open_now": true
    },
    {
      "place_id": "ChIJUfrcEATjYjkR3GEim--_oVM",
      "name": "RK FUELS",
      "lat": 22.6750161,
      "lng": 75.9035335,
      "address": "MWG3+2C3, Dev Guradia Road, Udhyog Nagar, Nayta Mundla, Indore",
      "open_now": true
    },
    {
      "place_id": "ChIJ91PyOiXjYjkRFmbYWYTL60c",
      "name": "Hindustan Petroleum Corporation Limited",
      "lat": 22.675091,
      "lng": 75.90357399999999,
      "address": "Ground Floor, Palda, Rto Road, Udhyog Nagar, Pathar Mundla, Indore",
      "open_now": true
    },
    {
      "place_id": "ChIJ3dcO9iz9YjkRHm1m-YoRSis",
      "name": "Kale Petrolium",
      "lat": 22.6752303,
      "lng": 75.8747209,
      "address": "12 Newmarket, Indira Colony, Indore",
      "open_now": null
    },
    {
      "place_id": "ChIJmSenowf9YjkRfAK0WoILc2o",
      "name": "Petrol Pump",
      "lat": 22.6765662,
      "lng": 75.8747946,
      "address": "in front of GURUDWARA GATE, 44, in front of GURUDWARA GATE, Khandwa Naka, Indore",
      "open_now": null
    },
    {
      "place_id": "ChIJw3qjx6fjYjkRp8tEdwEMj7s",
      "name": "IndianOil",
      "lat": 22.6710891,
      "lng": 75.917621,
      "address": "Ground Floor, Dev Guradia Road, Dosdar, Nayta Mundla, Datoda",
      "open_now": null
    },
    {
      "place_id": "ChIJM6QpRkv9YjkRDUOcqHd8ZV8",
      "name": "Gaurav Petrol Pump",
      "lat": 22.6810238,
      "lng": 75.8969109,
      "address": "Sanjay Gandhi Nager, 6, New RTO Road, Dinesh Nagar, Palda, Indore",
      "open_now": null
    },
    {
      "place_id": "ChIJjdornF_5YjkRz1sFuwQA6tw",
      "name": "IndianOil",
      "lat": 22.628418,
      "lng": 75.80560299999999,
      "address": "CGO Complex, Rau Square, AB Road, Indore",
      "open_now": true
    },
    {
      "place_id": "ChIJbZ7ibWT5YjkRMW8BpE6W-FM",
      "name": "Bharat Petroleum - Granth Petro/CNG Filling Station",
      "lat": 22.6155355,
      "lng": 75.7990192,
      "address": "Pigdambar",
      "open_now": true
    },
    {
      "place_id": "ChIJ9XrC7p75YjkRscQpDjpjNJo",
      "name": "IndianOil",
      "lat": 22.5966889,
      "lng": 75.78744089999999,
      "address": "Ground Floor Umaria, Mhow,Pigdamber, Indore",
      "open_now": true
    },
    {
      "place_id": "ChIJZzedYV_5YjkRj2Bi1HRky8Y",
      "name": "HP Petrol Pump",
      "lat": 22.6296914,
      "lng": 75.80673329999999,
      "address": "Mega City Circle, Rau, Indore",
      "open_now": null
    },
    {
      "place_id": "ChIJvYG-WPf7YjkRvVrjtptkKyo",
      "name": "Bharat Petroleum",
      "lat": 22.6452,
      "lng": 75.8186,
      "address": "Shramik Colony, Rau, Raumhow, Rdindor, NH-3, Agra Bombay Road, Ab Road, Indore",
      "open_now": true
    },
    {
      "place_id": "ChIJ8TzRaJP7YjkRAbIwR6c5NOo",
      "name": "IndianOil",
      "lat": 22.6346429,
      "lng": 75.8318331,
      "address": "Ground Floor, Indore Bypass Road, Pigdamber, Indore",
      "open_now": true
    },
    {
      "place_id": "ChIJOX5oOwD5YjkR_5R_AQL7h0I",
      "name": "Jirati Fuel Station",
      "lat": 22.616329,
      "lng": 75.7985807,
      "address": "JQ8X+GCP, Pigdambar, Indore",
      "open_now": null
    },
    {
      "place_id": "ChIJRTyHvaz5YjkRTeZvRCUURBw",
      "name": "Phoenix Car Fashion",
      "lat": 22.600361,
      "lng": 75.7910682,
      "address": "near DMart, 02, hui hui hui, near DMart, Indore",
      "open_now": null
    },
    {
      "place_id": "ChIJ8aqUZxz5YjkRcKG09RxlCWo",
      "name": "Hp petrol pump",
      "lat": 22.5951877,
      "lng": 75.78621,
      "address": "HQWP+3FG, Mhow - Indore Highway, Harnya Khedi",
      "open_now": true
    },
    {
      "place_id": "ChIJFZURnyH5YjkR5n_knxJx5Mk",
      "name": "Bharat Petroleum, Petrol Pump -M.P.Bombay Fuel Center",
      "lat": 22.6121491,
      "lng": 75.77177309999999,
      "address": "SONVAYE, Indore",
      "open_now": true
    },
    {
      "place_id": "ChIJpR-24xr5YjkRKGxwNonN6OM",
      "name": "IndianOil",
      "lat": 22.6123527,
      "lng": 75.76982590000001,
      "address": "Survey No 193 Paiki, Mhow, Sonway",
      "open_now": true
    },
    {
      "place_id": "ChIJu6YVyIv5YjkRYqXwKvFRiWQ",
      "name": "IndianOil",
      "lat": 22.6322139,
      "lng": 75.7939359,
      "address": "Ground Floor Pigdamber, near Iim Indore Gate, to, Cat Sq Road, Indore",
      "open_now": true
    },
    {
      "place_id": "ChIJq6uwHsP5YjkRsO5Nt2OZ69o",
      "name": "Mehtab fuels",
      "lat": 22.6234691,
      "lng": 75.7731661,
      "address": "315/1, Rau, Sonway",
      "open_now": true
    },
    {
      "place_id": "ChIJIUEYlw35YjkRuljj9c5k0dg",
      "name": "Hindustan Petroleum Corporation Limited",
      "lat": 22.6237584,
      "lng": 75.77317,
      "address": "S No 3151/15/6/1/315/6/2, Rau - Pithampur Road, Pithampur, Indore",
      "open_now": true
    },
    {
      "place_id": "ChIJW9N9HAz5YjkRhwAB0BYKatI",
      "name": "Hindustan Petroleum Corporation Limited",
      "lat": 22.6303307,
      "lng": 75.80697599999999,
      "address": "Ground Floor, AB Road, Rau, Indore",
      "open_now": true
    },
    {
      "place_id": "ChIJFabWfcH7YjkRIugtCGA64Ro",
      "name": "TRIVENDRA KA GHAR",
      "lat": 22.6329859,
      "lng": 75.8104335,
      "address": "JRM6+55V, Rau, Indore",
      "open_now": null
    },
    {
      "place_id": "ChIJ57ELyaL5YjkR26Mo1o4__sY",
      "name": "HP DIESEL , CNG PUMP - GOPIKISHAN CHHOGALAL",
      "lat": 22.5830606,
      "lng": 75.7787498,
      "address": "Rasalpura Mhow Indore, Agra-Bombay Road, Harnya Khedi",
      "open_now": true
    },
    {
      "place_id": "ChIJ95GC8lf5YjkRZCcg1J9W7PA",
      "name": "Nayara petrol pump",
      "lat": 22.6381193,
      "lng": 75.8056845,
      "address": "JRQ4+67V, CAT Road, Rau, Indore",
      "open_now": null
    },
    {
      "place_id": "ChIJuxdHLwD7YjkRN3qvF1s1PXQ",
      "name": "A one petroleum",
      "lat": 22.630871,
      "lng": 75.8181464,
      "address": "Ashok Vatika, 553/2/1, Rau, Indore",
      "open_now": true
    },
    {
      "place_id": "ChIJ-d0UaQD7YjkR5PDeKh2odko",
      "name": "Hindustan Petroleum Corporation Limited",
      "lat": 22.630991,
      "lng": 75.818147,
      "address": "1244/2, 1244/1/2, Survey No 950/2, AB Road, Rau, Indore",
      "open_now": true
    },
    {
      "place_id": "ChIJP1IBzsxXYjkRJpr_PwrcZ6M",
      "name": "Bharat Petroleum Petrol Pump",
      "lat": 22.5923731,
      "lng": 75.6989435,
      "address": "HMRX+WHW, Indrapuri Colony Main Rd, Pithampur Industrial Area, Indore",
      "open_now": true
    },
    {
      "place_id": "ChIJyVFYflRXYjkRvK5xx-190es",
      "name": "IndianOil",
      "lat": 22.5884779,
      "lng": 75.6587998,
      "address": "Survey No 471, 1/1/2 & 471/2/2, Karam, Khandwa",
      "open_now": true
    },
    {
      "place_id": "ChIJW8y157hXYjkRBf1ykVgdia0",
      "name": "Hindustan Petroleum Corporation Limited",
      "lat": 22.580778,
      "lng": 75.65142,
      "address": "Ground Floor, NH 52, Pithampur",
      "open_now": true
    },
    {
      "place_id": "ChIJsTAYnENXYjkRrHbAzLfSWgM",
      "name": "Bharat Petroleum, Petrol Pump -Garg Fuel Centre",
      "lat": 22.6108199,
      "lng": 75.66203399999999,
      "address": "DHANAND,RAU-PITHAMPUR RD,I, INDORE",
      "open_now": true
    },
    {
      "place_id": "ChIJKxHTTFdXYjkRODdgKkQCF00",
      "name": "Reliance Petroleum",
      "lat": 22.6121561,
      "lng": 75.6585666,
      "address": "Plot No 14/01 Akoliya, Maunimach, Rd",
      "open_now": true
    },
    {
      "place_id": "ChIJ9WblCl9WYjkRXxdLZHYfBq8",
      "name": "Hindustan Petroleum Corporation Limited",
      "lat": 22.610151,
      "lng": 75.66894099999999,
      "address": "Ground Floor, near Dak, Pithampur",
      "open_now": true
    },
    {
      "place_id": "ChIJXYtCxLVXYjkRAI986u008Uc",
      "name": "Bharat Petroleum",
      "lat": 22.56499930000001,
      "lng": 75.64930919999999,
      "address": "HJ7X+XPV, Jamanya",
      "open_now": true
    },