{
  "city": "Gorakhpur",
  "state": "Uttar Pradesh",
  "count": 164,
  "center": {
    "lat": 26.7606,
    "lng": 83.3732
  },
  "pumps": [
    {
      "place_id": "ChIJ330rKSpHkTkRMMQT8gF2t1k",
      "name": "Hindustan Petroleum Corporation Limited",
      "address": "Ground Floor, Nausad Kalesar, Rd, Barwar Khurd, Sahjanwa",
      "lat": 26.738066,
      "lng": 83.291089,
      "open_now": true
    },
    {
      "place_id": "ChIJrxjTI1VBkTkRRR6QHPIP9Kc",
      "name": "IndianOil",
      "address": "Birdh Ghat, National Highway 28, Lalpur Tikar",
      "lat": 26.7324353,
      "lng": 83.3395633,
      "open_now": true
    },
    {
      "place_id": "ChIJF5VLB41DkTkRgldwkNlFLvc",
      "name": "IOC Petrol Pump",
      "address": "P9M6+JC2, Rajiv Nagar Colony, Chakara Doim",
      "lat": 26.734018,
      "lng": 83.3610083,
      "open_now": true
    },
    {
      "place_id": "ChIJM27UCC9BkTkRYcNvgqMwnBo",
      "name": "IndianOil",
      "address": "Ground Floor, Block No C Piprauli, Sahjanwa, Jarlahi, Bhiti Belipar",
      "lat": 26.6837129,
      "lng": 83.3188685,
      "open_now": true
    },
    {
      "place_id": "ChIJPd9t439BkTkRedMsm6gVIK4",
      "name": "Hindustan Petroleum Corporation Limited",
      "address": "Ground Floor, Gorakhpur Bypass, Ekala",
      "lat": 26.706415,
      "lng": 83.321651,
      "open_now": true
    },
    {
      "place_id": "ChIJVUkdxMdBkTkRE6E2DQQ-Tj4",
      "name": "IndianOil",
      "address": "near Pani Ki Tanki, Sadar, Varanasi - Gorakhpur Highway, Bagha Gara",
      "lat": 26.711575,
      "lng": 83.32981199999999,
      "open_now": true
    },
    {
      "place_id": "ChIJfVOe1dZAkTkRbWUzXIwQy8g",
      "name": "IndianOil",
      "address": "Ground Floor Khazni, Gorakhpur Road, Piprauli Khurd",
      "lat": 26.723415,
      "lng": 83.28810899999999,
      "open_now": true
    },
    {
      "place_id": "ChIJW_P9c9FBkTkRyYiPc8BWKiM",
      "name": "Kanha fruit company chapiya gorkhpur",
      "address": "P7GW+Q9J, Khajani - Gorakhpur Road, Chhapiya",
      "lat": 26.7269577,
      "lng": 83.295895,
      "open_now": true
    },
    {
      "place_id": "ChIJYywNhJpAkTkRaGoWOr02Utk",
      "name": "Hindustan Petroleum Corporation Limited",
      "address": "Ground Floor,Nausad Khajni Road Jaitpur, Sahjanwa, Nandapar",
      "lat": 26.7010215,
      "lng": 83.2623188,
      "open_now": true
    },
    {
      "place_id": "ChIJS06wVFZBkTkRB5cw3_0QkrI",
      "name": "Hindustan Petroleum Corporation Limited",
      "address": "Ground Floor, Nausad, Gorakhpur",
      "lat": 26.725801,
      "lng": 83.333801,
      "open_now": true
    },
    {
      "place_id": "ChIJUycV4dRHkTkRiR1jQaHrSXQ",
      "name": "Aditya Enterprises",
      "address": "Infront Of Aman Guest House, Sector 5, GIDA, Barwar Khurd",
      "lat": 26.7371506,
      "lng": 83.29402379999999,
      "open_now": null
    },
    {
      "place_id": "ChIJpUE4fXZHkTkRqVykmVpNEUU",
      "name": "Rajbhar tola Koliya mafi",
      "address": "P8Q6+G9C, Gorakhpur",
      "lat": 26.7388238,
      "lng": 83.3108872,
      "open_now": null
    },
    {
      "place_id": "ChIJR329D8pGkTkRdJ7sE461kOU",
      "name": "Kolia Petrol & CNG Pump",
      "address": "P8Q7+9Q8, 28, National Highway, Kolia, Kolia Mafi",
      "lat": 26.7386831,
      "lng": 83.3142507,
      "open_now": null
    },
    {
      "place_id": "ChIJc5_MxztHkTkR2Es6L0v7FM0",
      "name": "Torrent Gas CNG Station",
      "address": "National Highway 28, Kolia, Kolia Mafi",
      "lat": 26.7387019,
      "lng": 83.314228,
      "open_now": true
    },
    {
      "place_id": "ChIJs3WjrqxGkTkR0B3xdS7tfjc",
      "name": "HP PETROL PUMP - GAURAV AUTOMOBILES",
      "address": "Ground Floor, Nausad, Haraiya, NH 28, Lucknow Road, Gorakhpur",
      "lat": 26.734401,
      "lng": 83.33030099999999,
      "open_now": true
    },
    {
      "place_id": "ChIJy1_c6NtBkTkRj0MaEnuOnYc",
      "name": "IndianOil",
      "address": "Ground Floor, Nausarh, Lalpur Tikar",
      "lat": 26.7330744,
      "lng": 83.3335921,
      "open_now": true
    },
    {
      "place_id": "ChIJoaireY5BkTkRjdKcIEQdzxo",
      "name": "IndianOil",
      "address": "Nausarh, National Highway 28, Lalpur Tikar",
      "lat": 26.733558,
      "lng": 83.332956,
      "open_now": true
    },
    {
      "place_id": "ChIJ32QBdzI_kTkRJv3Mj2PDYLQ",
      "name": "Bharat Petroleum, Petrol Pump -Shivam Filling Station",
      "address": "KATGHAR, KHAJANI, GORAKHPU, Gorakhpur",
      "lat": 26.6738414,
      "lng": 83.2491163,
      "open_now": true
    },
    {
      "place_id": "ChIJnU_y1mNDkTkRGw2ENM0HmLE",
      "name": "Torrent Gas CNG station",
      "address": "Kamla Motors & Engineering Works, Plot No. 16, Nausar Chowk PO- Nausar, Belipar, Khajani - Gorakhpur Road, Sadar, Gorakhpur",
      "lat": 26.7325839,
      "lng": 83.3395922,
      "open_now": null
    },
    {
      "place_id": "ChIJ2Zu97ypDkTkRtUSgglgAi6Q",
      "name": "Bharat petrol",
      "address": "P8JR+VJC, opposite BPCl Petrol Pump, Gorakhpur",
      "lat": 26.732731,
      "lng": 83.3413538,
      "open_now": true
    },
    {
      "place_id": "ChIJk5_wZjNHkTkROEy_z2e_KE4",
      "name": "IndianOil",
      "address": "Ground Floor, Sahajanwa, Mahi",
      "lat": 26.7318205,
      "lng": 83.260064,
      "open_now": true
    },
    {
      "place_id": "ChIJaQYiFgA_kTkRdFRtGzo0MVU",
      "name": "HP PETROL PUMP",
      "address": "Satuahhar chauraha, Khajani",
      "lat": 26.6580455,
      "lng": 83.24842780000002,
      "open_now": null
    },
    {
      "place_id": "ChIJM7afYmVDkTkRSFVdpjKu7R4",
      "name": "Bharat Petroleum, Petrol Pump -Sundaram Service Station",
      "address": "Sidhartha Enclave Road, Rail Vihar Colony Phase 3rd, Taramandal, Gorakhpur",
      "lat": 26.7339992,
      "lng": 83.3562437,
      "open_now": null
    },
    {
      "place_id": "ChIJ8VXnxVpHkTkRc_fbI6rnbu4",
      "name": "IndianOil",
      "address": "28, National Highway, Jhungia",
      "lat": 26.7447458,
      "lng": 83.260527,
      "open_now": true
    },
    {
      "place_id": "ChIJhVwQkQZDkTkRqj0P1kJAEzI",
      "name": "Satya General Store",
      "address": "Dk General Store, near Kalabag, Gorakhpur",
      "lat": 26.6608867,
      "lng": 83.3695262,
      "open_now": null
    },
    {
      "place_id": "ChIJ1csWDi9DkTkRC0uy5mTeLEk",
      "name": "Bharat Petroleum, Petrol Pump -Ganga Automobiles",
      "address": "MAHEWAMUSTAKIN,TPT NAGAR,G, Gorakhpur",
      "lat": 26.7341409,
      "lng": 83.36174679999999,
      "open_now": true
    },
    {
      "place_id": "ChIJV3NBwlE_kTkRe42dN58i51s",
      "name": "Hindustan Petroleum Corporation Limited",
      "address": "Ground Floor Sahjanwa, Bhauwapur, Gadar",
      "lat": 26.697391,
      "lng": 83.226044,
      "open_now": true
    },
    {
      "place_id": "ChIJEzAnBwA_kTkRXYDzgrwalaE",
      "name": "Hindustan Petroleum Corporation Limited",
      "address": "Ground Floor, Katghar Bighai Road, Satuabhar",
      "lat": 26.6747326,
      "lng": 83.2276802,
      "open_now": true
    },
    {
      "place_id": "ChIJA7SlbPlHkTkRlks64B0Hhvc",
      "name": "M/S PRAGATISHEEL AUTOMOBILES",
      "address": "P7W4+72P, KALESAR SQUARE, ROAD, Sahjanwa",
      "lat": 26.745703,
      "lng": 83.2550775,
      "open_now": null
    },
    {
      "place_id": "ChIJ0SLldllHkTkR-jFzfj00cGY",
      "name": "Hindustan Petroleum Corporation Limited",
      "address": "Ground Floor Chhapia, NH 28, Kaalesar",
      "lat": 26.7458066,
      "lng": 83.254941,
      "open_now": true
    },
    {
      "place_id": "ChIJG1rvMgBDkTkRRk7Nlijphnw",
      "name": "Indian Oil Petrol Pump",
      "address": "Azad Chowk, Azad Nagar, Gorakhpur",
      "lat": 26.7342608,
      "lng": 83.36485019999999,
      "open_now": true
    },
    {
      "place_id": "ChIJERaz4NZDkTkRSZ6VQ7TGQ1s",
      "name": "IndianOil",
      "address": "NH 28, Old, Transport Nagar, Gorakhpur",
      "lat": 26.7348035,
      "lng": 83.364992,
      "open_now": true
    },
    {
      "place_id": "ChIJ89l2TRBEkTkRyObiKUYhQvg",
      "name": "Laldiggi Petrol Pump",
      "address": "Transport nagar Road, 273005, Gorakhpur",
      "lat": 26.7491661,
      "lng": 83.3494017,
      "open_now": true
    },
    {
      "place_id": "ChIJO-MX5pdFkTkR4MbscGo2FJU",
      "name": "IndianOil",
      "address": "Sadar, Mahewa, Munderi Chak, Domingarh Road, Gorakhpur",
      "lat": 26.749498,
      "lng": 83.34915199999999,
      "open_now": true
    },
    {
      "place_id": "ChIJ7UyKn39EkTkRzuxl_-Lc4zM",
      "name": "Hindustan Petroleum Corporation Limited",
      "address": "Ground Floor, Daudpur, Gorakhpur",
      "lat": 26.738201,
      "lng": 83.376401,
      "open_now": true
    },
    {
      "place_id": "ChIJb6PxhnpDkTkR1JaBV_x6dRM",
      "name": "Sundram service station Bharat Petroleum",
      "address": "near SBI bank, Taramandal road Bharat petrol pump, near SBI bank, Taramandal, Gorakhpur",
      "lat": 26.7258689,
      "lng": 83.3871722,
      "open_now": true
    },
    {
      "place_id": "ChIJW4xy_4dDkTkR_DzEsGaIJO0",
      "name": "IndianOil",
      "address": "H.P. Dubey Road, Betiahata, Gorakhpur",
      "lat": 26.736126,
      "lng": 83.368607,
      "open_now": true
    },
    {
      "place_id": "ChIJQzWkfMNckTkR4FXpJt6E8qw",
      "name": "IndianOil",
      "address": "Deoria Bypass Road, Divya Nagar, Khorabar, Gorakhpur",
      "lat": 26.70638499999999,
      "lng": 83.438081,
      "open_now": true
    },
    {
      "place_id": "ChIJoy5mro9EkTkRERqeojPLQMI",
      "name": "Bharat Petroleum Petrol Pump",
      "address": "Kawwa Bagh Colony, Gorakhpur",
      "lat": 26.7510983,
      "lng": 83.3875358,
      "open_now": true
    },
    {
      "place_id": "ChIJqa4aiatEkTkRmAm-D_gm328",
      "name": "Hindustan Petroleum Corporation Limited",
      "address": "Ground Floor, Gorakhpur - Deoria Highway, Girdharganj, Gorakhpur",
      "lat": 26.7438401,
      "lng": 83.4182101,
      "open_now": true
    },
    {
      "place_id": "ChIJxXBeIl5EkTkRxlDflZqxb1Q",
      "name": "Petrol Pump",
      "address": "Dharmashala Flyover, Bilandpur, Gorakhpur",
      "lat": 26.760494,
      "lng": 83.3750671,
      "open_now": true
    },
    {
      "place_id": "ChIJ23IBG8BDkTkR2p1nIMdFf7U",
      "name": "Hindustan Petroleum Corporation Limited",
      "address": "Ground Floor Lahsari, Mirzapur Road, Sadar, Dangipar",
      "lat": 26.689401,
      "lng": 83.395431,
      "open_now": true
    },
    {
      "place_id": "ChIJM7b_ewBDkTkRLa7j1ALM1gY",
      "name": "Shukla Filling Station",
      "address": "P98P+3F9, Pipara",
      "lat": 26.7151621,
      "lng": 83.38624920000001,
      "open_now": true
    },
    {
      "place_id": "ChIJHdGfZU9DkTkRNp2lCF0MIJk",
      "name": "AARAV YADAV",
      "address": "786, Taramandal, Gorakhpur",
      "lat": 26.7177664,
      "lng": 83.3941286,
      "open_now": false
    },
    {
      "place_id": "ChIJN6wS8zZDkTkROOgIs_79LdA",
      "name": "Hindustan Petroleum Corporation Limited",
      "address": "Gata No 1419/1, Siktaur",
      "lat": 26.701271,
      "lng": 83.409151,
      "open_now": true
    },
    {
      "place_id": "ChIJ6ZISXwBDkTkR2Rb9t4V9a6A",
      "name": "Torrent cng filling pump",
      "address": "PC26+J38, Gaighat Buzurg",
      "lat": 26.7015389,
      "lng": 83.41021549999999,
      "open_now": null
    },
    {
      "place_id": "ChIJm25OtmlDkTkRrc-Dvywg9JI",
      "name": "Hindustan Petroleum Corporation Limited",
      "address": "PC26+P3Q National Highway, 27, Gorakhpur",
      "lat": 26.7018125,
      "lng": 83.41018749999999,
      "open_now": true
    },
    {
      "place_id": "ChIJxx3pXX9DkTkR2I7PAJrE2hA",
      "name": "Hindustan Petroleum Corporation Limited",
      "address": "Ground Floor, Kusumhi Bazar, Mednipur, Gaighat Buzurg",
      "lat": 26.702161,
      "lng": 83.410111,
      "open_now": true
    },
    {
      "place_id": "ChIJP8a12SlDkTkRqh7M5M6iBgQ",
      "name": "Online cng station /Gorakhpur bypass",
      "address": "KMS 270 Gorakhpur Byepass, National Highway 27, Gorakhpur",
      "lat": 26.70193089999999,
      "lng": 83.4104582,
      "open_now": true
    },
    {
      "place_id": "ChIJEZfT3oJDkTkRhLt7dC_6LlQ",
      "name": "Happy happy tent house",
      "address": "P9GH+R5F, Azad Nagar, Gorakhpur",
      "lat": 26.7270783,
      "lng": 83.37805499999999,
      "open_now": null
    },
    {
      "place_id": "ChIJKe_sewBDkTkRxDxsp80Tes4",
      "name": "Indian Oil Petrol pump",
      "address": "P9JC+72Q, Chilmapur Road, Manaspuram, Azad Nagar, Gorakhpur",
      "lat": 26.73073729999999,
      "lng": 83.370215,
      "open_now": true
    },
    {
      "place_id": "ChIJvQ6DBABDkTkRkCT8dDEVE18",
      "name": "J k filling station",
      "address": "454, Azad Nagar, Gorakhpur",
      "lat": 26.7309318,
      "lng": 83.37024,
      "open_now": null
    },
    {
      "place_id": "ChIJpQVQVz9DkTkRNme8HoJt6nA",
      "name": "Aparna pollution center",
      "address": "LIC, indian oil ⛽ pump, Deoria Bypass Road, Taramandal, Gorakhpur",
      "lat": 26.733387,
      "lng": 83.37771,
      "open_now": true
    },
    {
      "place_id": "ChIJC8rjM4BDkTkRY6TNZaULUn8",
      "name": "IndianOil",
      "address": "near LIC Building, Ramgarh Buddha Nagar, Gorakhpur",
      "lat": 26.7339058,
      "lng": 83.3777418,
      "open_now": true
    },
    {
      "place_id": "ChIJA8JRDgBDkTkR7DkCJI9ohL8",
      "name": "Indian Oil Divisional Office",
      "address": "Deoria Bypass Road, Divya Nagar, Gorakhpur",
      "lat": 26.734047,
      "lng": 83.378146,
      "open_now": null
    },
    {
      "place_id": "ChIJVY_-LYBDkTkR_GiNKQx2ysk",
      "name": "Vaishno Petro Shoppe",
      "address": "near LIC, Taramandal Road, near LIC, Deoria Bypass Road, Gorakhpur",
      "lat": 26.7340649,
      "lng": 83.3782894,
      "open_now": null
    },
    {
      "place_id": "ChIJscyuAUlFkTkROaNrP7Ykndc",
      "name": "भारत पेट्रोलियम",
      "address": "P9PF+QC5, Taramandal Road, Mahuesugharpur, Shakti Nagar Colony, Gorakhpur",
      "lat": 26.7368994,
      "lng": 83.373616,
      "open_now": null
    },
    {
      "place_id": "ChIJI3ELRl9pkTkRyKG4p0JwFUk",
      "name": "Hindustan Petroleum Corporation Limited",
      "address": "Gata No, 1235 Bansgaon Road, Mahaveer Chhapra Road, Gorakhpur",
      "lat": 26.6397955,
      "lng": 83.3670649,
      "open_now": true
    },
    {
      "place_id": "ChIJpUfuJf9pkTkRjaVRDXbLVQ4",
      "name": "S&J Group Torrent CNG",
      "address": "J9PG+HRG, National Highway 24, Chandauli Khurd",
      "lat": 26.6370848,
      "lng": 83.37688899999999,
      "open_now": true
    },
    {
      "place_id": "ChIJ6wGxfnpEkTkROJfggMM4d7o",
      "name": "Miranda Bharat Petroleum, Petrol Pump",
      "address": "ST. ANDREWS COLLEGE, Qazipur Khurd, Gorakhpur",
      "lat": 26.7448385,
      "lng": 83.368568,
      "open_now": true
    },
    {
      "place_id": "ChIJKxDrYGVEkTkRslVAglVjxmc",
      "name": "Town Hall PETROL PUMP",
      "address": "P9X9+Q9X, VindyaVasini Nagar, Gorakhpur",
      "lat": 26.7494849,
      "lng": 83.3684907,
      "open_now": null
    },
    {
      "place_id": "ChIJZ3SJuDJokTkRZ7411dxsIio",
      "name": "Kailash manas Petrol Pump",
      "address": "Mehrauli, Mahadeeh",
      "lat": 26.629752,
      "lng": 83.3796869,
      "open_now": true
    },
    {
      "place_id": "ChIJtXqxM2REkTkRKYSrDFDmVHc",
      "name": "Hindustan Petroleum Corporation Limited",
      "address": "Ground Floor, Golghar, Gorakhpur",
      "lat": 26.752901,
      "lng": 83.371101,
      "open_now": true
    },
    {
      "place_id": "ChIJX5jpiqZFkTkRwiH4d-NjjXI",
      "name": "IndianOil",
      "address": "near Khaitan Automobiles, NH 28, Mohaddipur, Gorakhpur",
      "lat": 26.7495781,
      "lng": 83.3990154,
      "open_now": true
    },
    {
      "place_id": "ChIJU_z1gmZEkTkRV3hZTxqB0Js",
      "name": "HP",
      "address": "Golghar Post-golghar Gorakhpur DT UP, Varanasi",
      "lat": 26.7539383,
      "lng": 83.3714823,
      "open_now": true
    },
    {
      "place_id": "ChIJD2gCvi5FkTkReIyxUGpDmT0",
      "name": "Usha Filling Station",
      "address": "Reliance Pump, Gida, Sahjanwa",
      "lat": 26.7538357,
      "lng": 83.378607,
      "open_now": null
    },
    {
      "place_id": "ChIJOZki93ZdkTkRdAe6ZDxBdwc",
      "name": "Hindustan Petroleum Corporation Limited",
      "address": "Ground Floor, near Deoria Bypass Road, Urf, Khorabar, Jangalsikari Urf Khoraba",
      "lat": 26.7094604,
      "lng": 83.4418719,
      "open_now": true
    },
    {
      "place_id": "ChIJV1ZlxbtckTkRDD8bVmPMlIQ",
      "name": "Hindustan Petroleum Corporation Limited",
      "address": "Ground Floor, Gorakhpur - Deoria Highway, Raneedeeh",
      "lat": 26.72252409999999,
      "lng": 83.435756,
      "open_now": true
    },
    {
      "place_id": "ChIJc68NU2tEkTkRbMsbMIrU1Fw",
      "name": "IndianOil",
      "address": "Ground Floor, Nasirabad, near Buxipur Road, Chauraha, Gorakhpur",
      "lat": 26.753747,
      "lng": 83.357618,
      "open_now": true
    },
    {
      "place_id": "ChIJjeIEYwBdkTkRKT3kUH_02jE",
      "name": "ARS Petrol Pump",
      "address": "PC5V+R32, Gorakhpur - Deoria Highway, Divya Nagar, Awas Vikas Colony, Kunraghat, Gorakhpur",
      "lat": 26.7095014,
      "lng": 83.4426259,
      "open_now": null
    },
    {
      "place_id": "ChIJZdmmSQBdkTkRWgI2oJhpbTM",
      "name": "ARS पेट्रोल पंप",
      "address": "Bypass road, NH 28 Terminal, Divya Nagar Vistar, Khorabar, Khorabar Urf Soobabazar",
      "lat": 26.7094924,
      "lng": 83.4427315,
      "open_now": true
    },
    {
      "place_id": "ChIJ_-tWMQBdkTkRzvBMxVtkLZg",
      "name": "Bharat petrol pump",
      "address": "MCXW+JGM, Tal Kandala",
      "lat": 26.6990875,
      "lng": 83.44631129999999,
      "open_now": null
    },
    {
      "place_id": "ChIJqYVQpeVFkTkRBwa-32tnqEo",
      "name": "Bharat Petroleum",
      "address": "PCX5+M28, Mohaddipur, Gorakhpur",
      "lat": 26.7490928,
      "lng": 83.4073149,
      "open_now": null
    },
    {
      "place_id": "ChIJ_WXgzqREkTkR-7ZzA9TNdj4",
      "name": "City Fuel Centre With In & Out Store",
      "address": "PCX4+MXC, opposite RKBK Showroom, Kasia - Gorakhpur Road, Mohaddipur, Gorakhpur",
      "lat": 26.74918989999999,
      "lng": 83.4073998,
      "open_now": null
    },
    {
      "place_id": "ChIJpV_KFlVbkTkR3DOgdYLHx0Y",
      "name": "New Ashoka Filling Station",
      "address": "PCRF+678, Awas Vikas Colony, Rapti Nagar Phase-4, Gorakhpur",
      "lat": 26.7405353,
      "lng": 83.4232023,
      "open_now": true
    },
    {
      "place_id": "ChIJfwFlmSRbkTkRMP2JkFChKmw",
      "name": "IndianOil",
      "address": "Deoria Road, Mahdeva",
      "lat": 26.740313,
      "lng": 83.423523,
      "open_now": true
    },
    {
      "place_id": "ChIJ7YKR2VdckTkReYsSsBco_4w",
      "name": "IndianOil",
      "address": "PF37+9W6, Deoria Road, Jangal Sikri, State Highway 1, Gorakhpur",
      "lat": 26.7033192,
      "lng": 83.4646191,
      "open_now": true
    },
    {
      "place_id": "ChIJq6qqqupdkTkRU_GNL3316oE",
      "name": "Indian Oil Petrol Pump",
      "address": "Gorakhpur",
      "lat": 26.6712014,
      "lng": 83.4856913,
      "open_now": true
    },
    {
      "place_id": "ChIJd-PtZlBnkTkRc735OdVqaQQ",
      "name": "IndianOil",
      "address": "Ground Floor Luxmipur, Haveli, Jhangaha",
      "lat": 26.638887,
      "lng": 83.497528,
      "open_now": true
    },
    {
      "place_id": "ChIJCch9NgldkTkRoy1FS0G2Gls",
      "name": "Bharat Petroleum, Petrol Pump -Kesharwani Travels",
      "address": "JUNGLE SIKARI, KHORABAR,GO, Gorakhpur",
      "lat": 26.7080388,
      "lng": 83.4562998,
      "open_now": true
    },
    {
      "place_id": "ChIJ248_CbRdkTkRxuBVpwKQBPk",
      "name": "Gurudev fuels Mobile dispanser",
      "address": "MFV9+Q8C, indian oil pump madapar fourlane baipass, National Highway 28, Gorakhpur",
      "lat": 26.6944372,
      "lng": 83.4682579,
      "open_now": true
    },
    {
      "place_id": "ChIJOZM9nOtckTkRfjI_NBZ78Qs",
      "name": "Nayara Petrol Pump",
      "address": "Jungal Sikari, Khorabar, Gorakhpur",
      "lat": 26.7131802,
      "lng": 83.4474,
      "open_now": true
    },
    {
      "place_id": "ChIJk2LepjldkTkRm5Vj6N9rTvQ",
      "name": "IndianOil",
      "address": "Ground Floor, SH 1, Ramnagar, Ramnagar Karjaha",
      "lat": 26.6910366,
      "lng": 83.4886926,
      "open_now": true
    },
    {
      "place_id": "ChIJPRMoawBdkTkRD2zQ1zFa-5o",
      "name": "Bharat petrol pump ⛽",
      "address": "PF9X+4J6, Vahrampur",
      "lat": 26.7172896,
      "lng": 83.49912359999999,
      "open_now": null
    },
    {
      "place_id": "ChIJpWXTjfldkTkRXgYTvUAUc94",
      "name": "Hindustan Petroleum Corporation Limited",
      "address": "Ground Floor, Bansapti, Laxmipur, Jhangaha",
      "lat": 26.65370099999999,
      "lng": 83.498111,
      "open_now": true
    },
    {
      "place_id": "ChIJyXhc9x9ckTkRekwuztiBLTk",
      "name": "Gurudev Fuels Plaza",
      "address": "N.H.27, Gorakhpur Bypass, Bhaisaha",
      "lat": 26.7193872,
      "lng": 83.50632399999999,
      "open_now": null
    },
    {
      "place_id": "ChIJM1nz8B9ckTkREWDNb3SO2-k",
      "name": "IndianOil",
      "address": "Ground Floor NH 28, Tamkuhi Rd, Bhaisaha, Near Madapar Km St No 282, Sardarnagar",
      "lat": 26.719641,
      "lng": 83.506373,
      "open_now": true
    },
    {
      "place_id": "ChIJX3AJtj9bkTkRINqtIXmY4TI",
      "name": "IndianOil",
      "address": "Jungle Ramgarh Urf Sarka",
      "lat": 26.7463499,
      "lng": 83.4875885,
      "open_now": true
    },
    {
      "place_id": "ChIJDTGs_8RfkTkRFVev647_aPs",
      "name": "Bharat Petroleum, Petrol Pump -Tirupati Enterprise",
      "address": "GAHIRA, GORAKHPUR, Gorakhpur",
      "lat": 26.674421,
      "lng": 83.5204404,
      "open_now": true
    },
    {
      "place_id": "ChIJ78p-osNHkTkRDFeKDfRMFUs",
      "name": "IndianOil",
      "address": "Ground Floor Sadar, Jagatbela, Near Gorakhnath Mandir, Jangal Kauria",
      "lat": 26.8105973,
      "lng": 83.2759985,
      "open_now": true
    },
    {
      "place_id": "ChIJbb-KWchFkTkRAzklzpdJT3U",
      "name": "Hindustan Petroleum Corporation Limited",
      "address": "Ground Floor, Sonauli Road, Rajendra Nagar, Gorakhpur",
      "lat": 26.792101,
      "lng": 83.355201,
      "open_now": true
    },
    {
      "place_id": "ChIJq2MsA784kTkRDF9sjmte8i4",
      "name": "Reliance Petrol Pump",
      "address": "Gorakhpur Road, GIDA Industrial Area Phase 1, Sahjanwa",
      "lat": 26.7495352,
      "lng": 83.2316719,
      "open_now": true
    },
    {
      "place_id": "ChIJj_vfaMA4kTkRsOBcroH9Qoc",
      "name": "IndianOil",
      "address": "Lock No, 13018, National Highway 28, Sahjanwa",
      "lat": 26.751377,
      "lng": 83.22831099999999,
      "open_now": true
    },
    {
      "place_id": "ChIJXTRmLfBFkTkR_76UhKOFZog",
      "name": "Bharat petrol pump",
      "address": "fornt of bharat petrol pump, Moharipur, Gorakhpur",
      "lat": 26.8180606,
      "lng": 83.3495362,
      "open_now": true
    },
    {
      "place_id": "ChIJaY_AJ_1HkTkR9pFywbRjJFQ",
      "name": "Vegetables wholesaler",
      "address": "Nh29, East, Gorakhpur",
      "lat": 26.79978239999999,
      "lng": 83.29017449999999,
      "open_now": true
    },
    {
      "place_id": "ChIJ_SIUqzNHkTkReVKojFgsYog",
      "name": "HVH & SON'S FILLING STATION",
      "address": "Ground Floor Jungle Kaudia Bypas, Karnjahwa",
      "lat": 26.799871,
      "lng": 83.290481,
      "open_now": true
    },
    {
      "place_id": "ChIJfcJlCABFkTkR4AoyLinmXtY",
      "name": "Awadh Petroleum BPCL",
      "address": "Q8GW+9GQ, Green City Road, Shaheed Abdullah Nagar, Netaji Subas Chandra Bos Nagar Colony, Rajendra Nagar, Gorakhpur",
      "lat": 26.7759622,
      "lng": 83.34635569999999,
      "open_now": null
    },
    {
      "place_id": "ChIJ4yYmwWJFkTkRcT6eSNSBT_I",
      "name": "Khatu Sales Corporation",
      "address": "behind indian oil petrol pump, Durgabadi Road, Gorakhpur",
      "lat": 26.7637607,
      "lng": 83.3513351,
      "open_now": true
    },
    {
      "place_id": "ChIJCTy7JABFkTkRNgmxwbupf3c",
      "name": "Cp family petrol pump",
      "address": "charan lal chowk, 1, Ghasikatra Road, Alinagar, Bade Kajipur, Gorakhpur",
      "lat": 26.75903229999999,
      "lng": 83.35828339999999,
      "open_now": true
    },
    {
      "place_id": "ChIJX-2laJ5FkTkROxpt1gItag8",
      "name": "IndianOil",
      "address": "Ground Floor, Durga Bari Road, Gorakhpur",
      "lat": 26.7630457,
      "lng": 83.35959900000002,
      "open_now": true
    },
    {
      "place_id": "ChIJ61XCs59FkTkRRrD2aOzCI-E",
      "name": "Fuel Station",
      "address": "Aryanagar, Gorakhpur",
      "lat": 26.7587991,
      "lng": 83.3621245,
      "open_now": null
    },
    {
      "place_id": "ChIJo3S4DABFkTkRNW9fw0SRo-k",
      "name": "Indian Oil Petrol pump Gorakhnath",
      "address": "Gorakhpur - Sonauli Road, Rajendra Nagar, Gorakhpur",
      "lat": 26.7842113,
      "lng": 83.3568264,
      "open_now": true
    },
    {
      "place_id": "ChIJPXkOvV9FkTkRZhhBXGXcCaM",
      "name": "VINAYAK FUELS",
      "address": "117, 118, SUMALI HOTEL, 119, Bobina Road, Alinagar, Gorakhpur",
      "lat": 26.7613832,
      "lng": 83.3632228,
      "open_now": null
    },
    {
      "place_id": "ChIJszSrtslFkTkRlaXJUR2Tq5Q",
      "name": "MAA DURGA AUTO SERVICE",
      "address": "India",
      "lat": 26.7909338,
      "lng": 83.35589709999999,
      "open_now": null
    },
    {
      "place_id": "ChIJ11m0R7hFkTkRQ46Rk8aOnCE",
      "name": "Petrol pump",
      "address": "near Rani sati Mandir, Shyam vihar colony phase2, near Rani sati Mandir, Nakha road, Dayanand Nagar, Gorakhpur",
      "lat": 26.7845989,
      "lng": 83.36286,
      "open_now": true
    },
    {
      "place_id": "ChIJ39fZg0ZFkTkRkIUCD0H2fm0",
      "name": "Sachin",
      "address": "Sukla Care, Hn Singh Road, Gorakhpur",
      "lat": 26.7704961,
      "lng": 83.36832810000001,
      "open_now": null
    },
    {
      "place_id": "ChIJ_wr3ur9FkTkRklPgfxEbx0g",
      "name": "Ranjeet Kumar Rkp",
      "address": "Q9P7+PHX, Gorakhnath Road, Bargadwa, Gorakhpur",
      "lat": 26.7868523,
      "lng": 83.3639946,
      "open_now": true
    },
    {
      "place_id": "ChIJ1TtZiMFFkTkRboodbWRGdoM",
      "name": "IndianOil",
      "address": "NH 29E, Lachhipur, Bargadwa, Gorakhpur",
      "lat": 26.803694,
      "lng": 83.352463,
      "open_now": true
    },
    {
      "place_id": "ChIJwS-m_elFkTkRFD8SrnLLgyQ",
      "name": "RELIANCE PETROLPUMP",
      "address": "R83X+FJH, State Highway 1, Bargadwa, Gorakhpur",
      "lat": 26.8059217,
      "lng": 83.3516966,
      "open_now": true
    },
    {
      "place_id": "ChIJk96wQYlFkTkRnI5jtUFATww",
      "name": "Hindustan Petroleum Corporation Limited",
      "address": "Ground Floor, NH 29E, Gorakhpur - Sonauli Road, Bargadwa, Gorakhpur",
      "lat": 26.8074689,
      "lng": 83.3511793,
      "open_now": true
    },
    {
      "place_id": "ChIJT1ZdcPpEkTkRD8vn_ZuSWqU",
      "name": "Hindustan Petroleum Corporation Limited",
      "address": "Ground Floor, Geeta Vatika, Geeta Vatika Road, Shahpur, Gorakhpur",
      "lat": 26.772801,
      "lng": 83.38620100000001,
      "open_now": true
    },
    {
      "place_id": "ChIJk1X-b95EkTkRSU-F7TNYrQA",
      "name": "IndianOil",
      "address": "Shahbazganj Sadar, Pipraich Road, Shivpur, Gorakhpur",
      "lat": 26.779552,
      "lng": 83.40220599999999,
      "open_now": true
    },
    {
      "place_id": "ChIJ17dBAwVFkTkR2C8saQW0jYg",
      "name": "Bharat Petroleum Petrol Pump",
      "address": "Q9VQ+744, Usha Nagar, Gorakhpur",
      "lat": 26.793135,
      "lng": 83.38783269999999,
      "open_now": true
    },
    {
      "place_id": "ChIJoxaWH6dFkTkRY6oX9Gkehnc",
      "name": "IndianOil",
      "address": "Khajanchi Chauraha, Bargadwa Road, Vijay Nagar, Gorakhpur",
      "lat": 26.7993223,
      "lng": 83.37671379999999,
      "open_now": true
    },
    {
      "place_id": "ChIJVRBt2Q9FkTkRTK4Qsw4ZHSA",
      "name": "IndianOil",
      "address": "Ground Floor, Chrgawan, SH 81, Medical College Road, Khajanchi Chauraha, Gorakhpur",
      "lat": 26.7977717,
      "lng": 83.3895414,
      "open_now": true
    },
    {
      "place_id": "ChIJFeuxm1JFkTkRxbedY0VepoM",
      "name": "Shri Sai Juice Corner",
      "address": "1, Geeta Vatika, Gorakhpur",
      "lat": 26.7724579,
      "lng": 83.3860742,
      "open_now": null
    },
    {
      "place_id": "ChIJa-2YnvlEkTkR6hZEjFrGywY",
      "name": "IndianOil",
      "address": "Medical College Road, State Highway 81, Basharatpur, Shahpur, Gorakhpur",
      "lat": 26.77479599999999,
      "lng": 83.383057,
      "open_now": true
    },
    {
      "place_id": "ChIJwURbMQBFkTkRh0U9L8X77Dc",
      "name": "Hindustan Petroleum Corporation Limited",
      "address": "Gata No 589, Sadar, Shahpur, Gorakhpur",
      "lat": 26.7684627,
      "lng": 83.39230959999999,
      "open_now": true
    },
    {
      "place_id": "ChIJv130pVVEkTkReZQpccCXZIY",
      "name": "IndianOil",
      "address": "Ground Floor, Basharatpur, Gorakhpur",
      "lat": 26.7802819,
      "lng": 83.37687729999999,
      "open_now": true
    },
    {
      "place_id": "ChIJB-4GM_xEkTkRqOdvtzrP5qU",
      "name": "Hindustan Petroleum Corporation Limited",
      "address": "Ground Floor, Medical College Road, Basharatpur, Gorakhpur",
      "lat": 26.780801,
      "lng": 83.38510099999999,
      "open_now": true
    },
    {
      "place_id": "ChIJ2_qXfnlFkTkRaEy0P41ldpk",
      "name": "Bharat Petroleum Petrol Pump - Lekhraj Fuel",
      "address": "near POLICE CHAWKI, जेल बायपास मार्ग, पाद्री बाज़ार, गोरखपुर",
      "lat": 26.7797712,
      "lng": 83.4040677,
      "open_now": true
    },
    {
      "place_id": "ChIJ_fQs4B5FkTkREd9rSMq0Ur4",
      "name": "Bharat Petroleum",
      "address": "Q9QX+F2H, Fatima Hospital By-Pass Road, Shatabdipuram, Gorakhpur",
      "lat": 26.78869379999999,
      "lng": 83.3976069,
      "open_now": null
    },
    {
      "place_id": "ChIJZUGaQrRFkTkRm8S5qzhHfV8",
      "name": "Hindustan Petroleum Corporation Limited",
      "address": "Ground Floor, Padri Bazar Chowk Road, Basharatpur, Gorakhpur",
      "lat": 26.791901,
      "lng": 83.39450099999999,
      "open_now": true
    },
    {
      "place_id": "ChIJc7nb6rtFkTkR49AvXJGaTVE",
      "name": "V.K. FILLING STATION",
      "address": "4, Khajanchi Chauraha, RailVihar Ph-2 Colony, Raptinagar Phase -4, Gorakhpur",
      "lat": 26.79764669999999,
      "lng": 83.3890495,
      "open_now": null
    },
    {
      "place_id": "ChIJ12TZTGREkTkRrTD4C_MI2Mc",
      "name": "IndianOil",
      "address": "Ground Floor, Golghar, Gorakhpur",
      "lat": 26.7977932,
      "lng": 83.3894038,
      "open_now": true
    },
    {
      "place_id": "ChIJAf0i7ORbkTkRk7G9D1fmTQU",
      "name": "Hindustan Petroleum Corporation Limited",
      "address": "Ground Floor Kushmi Bazar, Khadraich",
      "lat": 26.755888,
      "lng": 83.50012699999999,
      "open_now": true
    },
    {
      "place_id": "ChIJm9DghVVZkTkR9K58j-Ya4ik",
      "name": "Hindustan Petroleum",
      "address": "PGW4+FWH, Khararaiech Khurd",
      "lat": 26.7461909,
      "lng": 83.5073718,
      "open_now": null
    },
    {
      "place_id": "ChIJU0_diRdbkTkRRQyZ-x0_b8Y",
      "name": "Hindustan Petroleum Corporation Limited",
      "address": "Gata No 924, Sadar, Vishwakarmapuram, Gorakhpur",
      "lat": 26.7903499,
      "lng": 83.4290623,
      "open_now": true
    },
    {
      "place_id": "ChIJeyqXKQBbkTkRC4RvyVpSvrI",
      "name": "Manoj filling station",
      "address": "QCRH+5GM, Pipraich - Gorakhpur Road, Vishwakarmapuram, Jangl Dhoosar",
      "lat": 26.79062099999999,
      "lng": 83.4288028,
      "open_now": null
    },
    {
      "place_id": "ChIJiSoFHNlEkTkReIijxtuc2Mw",
      "name": "Hindustan Petroleum Corporation Limited",
      "address": "Ground Floor, Pipraich - Gorakhpur Road, Jangl Tinkonia No1",
      "lat": 26.786081,
      "lng": 83.41721299999999,
      "open_now": true
    },
    {
      "place_id": "ChIJbQmr3KtFkTkR6LTFphm1xAQ",
      "name": "RAVINDRA NISHAD",
      "address": "Latif Nagar, Padri Bahar, 237, Gorakhpur",
      "lat": 26.7842278,
      "lng": 83.41215129999999,
      "open_now": null
    },
    {
      "place_id": "ChIJT2u3CQBbkTkR5Zr52uuN7z0",
      "name": "M/S Mahadev CNG Torrent CNG GAS pump",
      "address": "QFX2+R7F, Tura Bazar, Jangl Dhoosar",
      "lat": 26.799561,
      "lng": 83.4506608,
      "open_now": true
    },
    {
      "place_id": "ChIJReQ0WQBbkTkRwdXXUUnJo6s",
      "name": "Priyanshu fuel station",
      "address": "RF24+VCR, Padri Bazaar, Jangl Ahmad Ali Shah Urf",
      "lat": 26.802316,
      "lng": 83.455169,
      "open_now": null
    },
    {
      "place_id": "ChIJLdTGgOhbkTkRSUmgJrCAcP0",
      "name": "IndianOil",
      "address": "Ground Floor, Pipraich - Gorakhpur Road, Turwa Bazar, Gorakhpur",
      "lat": 26.8026591,
      "lng": 83.4590494,
      "open_now": true
    },
    {
      "place_id": "ChIJ1blH5rtbkTkRI9AfqamXlnU",
      "name": "IndianOil",
      "address": "Ground Floor, Pipraich - Gorakhpur Road, Sadar, Jangl Subhan Ali",
      "lat": 26.8056938,
      "lng": 83.4716107,
      "open_now": true
    },
    {
      "place_id": "ChIJsyX-yMpbkTkRBLFlrN4qau0",
      "name": "Csc Common Service Center",
      "address": "7, Jaungal Aurhi, Gorakhpur",
      "lat": 26.81442059999999,
      "lng": 83.4625212,
      "open_now": null
    },
    {
      "place_id": "ChIJe0YfeQBFkTkRGsETzZfRJug",
      "name": "Aryan oxygen gases",
      "address": "rapti Nagar phase 4, Gorakhpur",
      "lat": 26.8012746,
      "lng": 83.38807109999999,
      "open_now": null
    },
    {
      "place_id": "ChIJR77cQmtFkTkRFk4-UICrvv4",
      "name": "IndianOil",
      "address": "SH 81, Medical College Road, Gorakhpur",
      "lat": 26.8090966,
      "lng": 83.3958076,
      "open_now": true
    },
    {
      "place_id": "ChIJT3Ve7slIkTkRxuYin4aojVI",
      "name": "IndianOil",
      "address": "29, National Highway, Tal Jamuar",
      "lat": 26.8526735,
      "lng": 83.33006689999999,
      "open_now": true
    },
    {
      "place_id": "ChIJGXgW68JIkTkRan56orWQLrY",
      "name": "Nayara Petrol Pump",
      "address": "V868+CGP, National Highway 29, Gay Ghat",
      "lat": 26.8610991,
      "lng": 83.3163271,
      "open_now": true
    },
    {
      "place_id": "ChIJVd9STxRPkTkRLdcAdhXVp5U",
      "name": "IndianOil",
      "address": "Ground Floor Vishunpur, Balapar, Road, Tikaria",
      "lat": 26.857203,
      "lng": 83.360722,
      "open_now": true
    },
    {
      "place_id": "ChIJOx5F8DVJkTkR3jDPnMZw4ic",
      "name": "IndianOil",
      "address": "R8X6+3H, Prempur",
      "lat": 26.8477056,
      "lng": 83.311484,
      "open_now": true
    },
    {
      "place_id": "ChIJ_eMJS61JkTkRBCTETky8Jw0",
      "name": "Hamara Pump Prakash, Deehaghat",
      "address": "V72R+2QF, Deehghat",
      "lat": 26.84994499999999,
      "lng": 83.2920973,
      "open_now": null
    },
    {
      "place_id": "ChIJ7w_7kulFkTkRpPb0Kkpe4Vc",
      "name": "Hindustan Petroleum Corporation Limited",
      "address": "Ground Floor, Jungle Kaudia, Deehghat",
      "lat": 26.84994929999999,
      "lng": 83.29209829999999,
      "open_now": true
    },
    {
      "place_id": "ChIJm-LHI4hJkTkRFrvGKqU6kNA",
      "name": "C N G Pump",
      "address": "Almamaterschool, State Highway 1, Maniram",
      "lat": 26.8490634,
      "lng": 83.33028929999999,
      "open_now": null
    },
    {
      "place_id": "ChIJM3OSpgtPkTkRfDQ8VC0DSZ4",
      "name": "JAI SHIV INDANE SERVICE GODOWN",
      "address": "MAHUWATAR CHAURAHA, opp. CENTRAL BANK, Omkar Nagar, Siktaur",
      "lat": 26.8313151,
      "lng": 83.3494058,
      "open_now": true
    },
    {
      "place_id": "ChIJl1XrjxtJkTkR6UG-HYnF3gM",
      "name": "Hindustan Petroleum Corporation Limited",
      "address": "Ground Floor, near Campearganj Road, NH 29, Extension, Jangal Kauria",
      "lat": 26.880502,
      "lng": 83.30759499999999,
      "open_now": true
    },
    {
      "place_id": "ChIJ88UG5qpPkTkRSylkONXqp38",
      "name": "माँ बमंत इंडियन गैस सर्विस (बैजनाथपुर)",
      "address": "V92G+MHF, Baijnathpur",
      "lat": 26.85068559999999,
      "lng": 83.37606459999999,
      "open_now": null
    },
    {
      "place_id": "ChIJLSsvm6dFkTkRCUltchqryJ0",
      "name": "IndianOil",
      "address": "Jungle Nakha, Street Number 1, Sadar, Gorakhpur",
      "lat": 26.800632,
      "lng": 83.372343,
      "open_now": true
    },
    {
      "place_id": "ChIJ-_IalwZQkTkRM43HiOblZrk",
      "name": "IndianOil",
      "address": "SH 81 Gorakhpur Maharajganj, Road, Persia, Gorakhpur",
      "lat": 26.837875,
      "lng": 83.42844400000001,
      "open_now": true
    },
    {
      "place_id": "ChIJS-VLPOFOkTkRSP8QbQjY4UA",
      "name": "IndianOil",
      "address": "Ground Floor Tikaria Road, Maniram, Gorakhpur",
      "lat": 26.881115,
      "lng": 83.361013,
      "open_now": true
    },
    {
      "place_id": "ChIJFQmSpVtFkTkRBI__5pH9zPc",
      "name": "गोपी स्वीट्स",
      "address": "India",
      "lat": 26.8235289,
      "lng": 83.4076036,
      "open_now": null
    },
    {
      "place_id": "ChIJJ3ezcQBRkTkREy6nMhLtwYs",
      "name": "SHARMA SHOPS",
      "address": "RCMG+G87, Pipraich Road, Sarai Gulharia",
      "lat": 26.8337812,
      "lng": 83.42578499999999,
      "open_now": null
    },
    {
      "place_id": "ChIJ8yUEOqlbkTkRWk7jIDSjNYQ",
      "name": "Saurabh Fuels",
      "address": "Pipraich Road, Jangl Pakri",
      "lat": 26.8294375,
      "lng": 83.4399375,
      "open_now": true
    },
    {
      "place_id": "ChIJtVhYOABbkTkRIzZboda64Ko",
      "name": "Sharma Shops",
      "address": "RCHR+2JH, Jangl Pakri",
      "lat": 26.8275573,
      "lng": 83.4416114,
      "open_now": null
    },
    {
      "place_id": "ChIJXXppfQlbkTkR5F3R0P-Lr28",
      "name": "A S Automobile",
      "address": "Pipraich Road, Jangl Subhan Ali",
      "lat": 26.8293347,
      "lng": 83.4426289,
      "open_now": null
    },
    {
      "place_id": "ChIJo1kIZwBbkTkR9rIEIeURRPg",
      "name": "Deepak Kumar Rao",
      "address": "RFMM+VPH, Bankat",
      "lat": 26.83468169999999,
      "lng": 83.4843688,
      "open_now": true
    },
    {
      "place_id": "ChIJ1XR8XFlQkTkRLHAcwmBWahs",
      "name": "Hindustan Petroleum Corporation Limited",
      "address": "Ground Floor, Gorakhpur Maharajganj Road, Rampur Buzurg",
      "lat": 26.864701,
      "lng": 83.459501,
      "open_now": true
    },
    {
      "place_id": "ChIJD9xN_J1XkTkRaAGghHamNlE",
      "name": "Hindustan Petroleum Corporation Limited",
      "address": "Ground Floor, Sadar, Bhathat, Pipraich",
      "lat": 26.851981,
      "lng": 83.511321,
      "open_now": true
    },
    {
      "place_id": "ChIJWx2O7ZxXkTkRJfpvd33wtJw",
      "name": "Hindustan Petroleum Corporation Limited",
      "address": "Ground Floor Pipraich, Sadar, Bhathat, Sohasa",
      "lat": 26.851981,
      "lng": 83.511321,
      "open_now": true
    },
    {
      "place_id": "ChIJs-eV_AtXkTkRCp7ah3AXv_4",
      "name": "Kirana Store",
      "address": "3554Royal Ghodadeur, Samdar Khurd",
      "lat": 26.8602555,
      "lng": 83.51085189999999,
      "open_now": null
    },
    {
      "place_id": "ChIJXyEhxBtRkTkREqFC-Qr6gMU",
      "name": "Bharat Petroleum Petrol Pump - Kashi Prasad Filling Station",
      "address": "Mirapur",
      "lat": 26.8898832,
      "lng": 83.47936949999999,
      "open_now": null
    },
    {
      "place_id": "ChIJ3Y1q2RtRkTkRNuL3FXQI8cw",
      "name": "IndianOil",
      "address": "Ground Floor, SH 81, Bhathat",
      "lat": 26.8898971,
      "lng": 83.4800072,
      "open_now": true
    },
    {
      "place_id": "ChIJz2nxBgBRkTkREU-katH6mWY",
      "name": "Sahai auto tractor service centre",
      "address": "VFRJ+338, Mirapur",
      "lat": 26.890015,
      "lng": 83.480265,
      "open_now": null
    }
  ]
}