{
  "city": "Meerut",
  "state": "Uttar Pradesh",
  "count": 202,
  "center": {
    "lat": 28.9845,
    "lng": 77.7064
  },
  "pumps": [
    {
      "place_id": "ChIJTes6zV5hDDkRGiu7AecRgaM",
      "name": "Madhu Transport Petro Division",
      "address": "Delhi Road, Partapur, Aminagar Urf Bhurbaral",
      "lat": 28.92192279999999,
      "lng": 77.64994349999999,
      "open_now": true
    },
    {
      "place_id": "ChIJg-OAs0JhDDkRekZt2XU5PuY",
      "name": "Nayara Petrol Pump - Chandra Prakash & Sons",
      "address": "Khasra No. 700/1 & 711, District & Tehsil Meerut, Baralpartapur",
      "lat": 28.9166136,
      "lng": 77.6419587,
      "open_now": null
    },
    {
      "place_id": "ChIJ4X64UQmyczkRamOdjlqt0Hc",
      "name": "Raj Service Station Bharat Petroleum",
      "address": "Bhoor Baral, NH 58, Meerut",
      "lat": 28.9270208,
      "lng": 77.6421577,
      "open_now": true
    },
    {
      "place_id": "ChIJ116r8AxhDDkReA_FjijLZqc",
      "name": "Hindustan Petroleum Corporation Limited",
      "address": "Ground Floor, Delhi Road, Bhood Baral",
      "lat": 28.899414,
      "lng": 77.628387,
      "open_now": true
    },
    {
      "place_id": "ChIJN5KfhONjDDkRUM1If_A5OuQ",
      "name": "Allen Oil",
      "address": "WMG5+4FP, Sector 2, MDA, Meerut",
      "lat": 28.92532559999999,
      "lng": 77.6587164,
      "open_now": null
    },
    {
      "place_id": "ChIJ9w2-4QhhDDkRduWXxgehYe4",
      "name": "Indian Oil Petrol & CNG Pump",
      "address": "Kadrabad, Aminagar Urf Bhurbaral, Meerut NH-58, Delhi - Meerut Expressway, Mohiuddinpur",
      "lat": 28.8947785,
      "lng": 77.6219665,
      "open_now": true
    },
    {
      "place_id": "ChIJk5yGZPtjDDkRdvMNounCMy4",
      "name": "cng pump meerut",
      "address": "WMJ5+6X6, Block 4A, Sector 2, Partapur, Meerut",
      "lat": 28.9305288,
      "lng": 77.6598973,
      "open_now": null
    },
    {
      "place_id": "ChIJUdQTIvpjDDkR9aU5hL2BBCI",
      "name": "IndianOil",
      "address": "Rithani, Delhi - Meerut Expressway, Meerut",
      "lat": 28.93434899999999,
      "lng": 77.663528,
      "open_now": true
    },
    {
      "place_id": "ChIJ4bxtDKxhDDkRQVcvLyaMV70",
      "name": "IndianOil",
      "address": "Ground Floor, Anaj Mandi Road, Mohiuddinpur",
      "lat": 28.883659,
      "lng": 77.61231699999999,
      "open_now": true
    },
    {
      "place_id": "ChIJ10aHfExgDDkRN4YQAFP7KvI",
      "name": "Bharat Petroleum And CNG Station",
      "address": "VJC3+XR6, Govindpuri, Modinagar",
      "lat": 28.8724086,
      "lng": 77.6045145,
      "open_now": true
    },
    {
      "place_id": "ChIJU7K47G1kDDkRMMPAGfIYE0Q",
      "name": "Hindustan Petroleum Corporation Limited",
      "address": "Ground Floor, Crossing Meerut, near Mevla Phatak, Delhi Road, Meerut",
      "lat": 28.9545168,
      "lng": 77.68087960000001,
      "open_now": true
    },
    {
      "place_id": "ChIJUyNcEp1jDDkRTTeYARM9c-Q",
      "name": "Nayara Petrol Pump.",
      "address": "Khasra No. 397,Village - Julheda, Tehsil - Sardhana,, Meerut",
      "lat": 28.9301246,
      "lng": 77.6977845,
      "open_now": null
    },
    {
      "place_id": "ChIJKadof7tnDDkRIXCf2V4jP6E",
      "name": "NCR FUEL BPCL Petrol & CNG Pump",
      "address": "XH8R+587, Meerut",
      "lat": 28.9651299,
      "lng": 77.5909449,
      "open_now": true
    },
    {
      "place_id": "ChIJE2iIUXtkDDkR3OQLW047Dng",
      "name": "Nayara Petrol Pump",
      "address": "Plot No. 2CP, 101, Madhavpuram Road, Madhav Puram, Meerut",
      "lat": 28.9560756,
      "lng": 77.6940894,
      "open_now": null
    },
    {
      "place_id": "ChIJ52S4HGhkDDkRD4Z3MIwZM-Y",
      "name": "IndianOil",
      "address": "Ground Floor, opposite Ramlila Ground, Delhi Road, Meerut",
      "lat": 28.965661,
      "lng": 77.687103,
      "open_now": true
    },
    {
      "place_id": "ChIJQ6KQ0VxkDDkRsw8K8KZm5kQ",
      "name": "IndianOil",
      "address": "Delhi Road, Shambhu Nagar, Beripura, Meerut",
      "lat": 28.968987,
      "lng": 77.68856099999999,
      "open_now": true
    },
    {
      "place_id": "ChIJxzeR2VxkDDkR1p7jGHYp8d0",
      "name": "Hindustan Petroleum Corporation Limited",
      "address": "Ground Floor, near Delhi Chungi, Delhi Road, Brahmpuri, Meerut",
      "lat": 28.968871,
      "lng": 77.6888628,
      "open_now": true
    },
    {
      "place_id": "ChIJh2nbRABhDDkRNEvROARgzxU",
      "name": "Hasil khan auto service",
      "address": "00, Partapur, Meerut",
      "lat": 28.9168183,
      "lng": 77.64135499999999,
      "open_now": true
    },
    {
      "place_id": "ChIJP5_-cydhDDkR9gcB0GFI4Os",
      "name": "Golu Filling Point",
      "address": "Sector 2, MDA, Aminagar Urf Bhurbaral",
      "lat": 28.9140336,
      "lng": 77.6430527,
      "open_now": null
    },
    {
      "place_id": "ChIJoZjxQENhDDkRjsWQkPs_wFw",
      "name": "IndianOil",
      "address": "Khasra No 683, Modinagar Muzaffarnagar Road, Bhoor Baral, Meerut",
      "lat": 28.9188749,
      "lng": 77.6413915,
      "open_now": true
    },
    {
      "place_id": "ChIJ-3qS_INhDDkRI92Dmfr8tSU",
      "name": "Baral filling point",
      "address": "WJ9R+X7V, NH58, Partapur, Aminagar Urf Bhurbaral",
      "lat": 28.9199759,
      "lng": 77.6406622,
      "open_now": true
    },
    {
      "place_id": "ChIJdY8XlY9hDDkRe4CbFEaSej0",
      "name": "Mukul Kumar",
      "address": "Delhi Road, Meerut",
      "lat": 28.9228707,
      "lng": 77.6410114,
      "open_now": null
    },
    {
      "place_id": "ChIJLwreWwBhDDkRWU9HLRnh6Eg",
      "name": "MARWARI CNG STATION",
      "address": "07, Royal Kunj, Partapur, Meerut",
      "lat": 28.9236946,
      "lng": 77.64098229999999,
      "open_now": true
    },
    {
      "place_id": "ChIJA53592NhDDkR2J2E8T2qhpk",
      "name": "Bharat Petroleum, Petrol Pump -Chaudhary Service Centre",
      "address": "PARTAPUR, MEERUT DELHI RD",
      "lat": 28.92067149999999,
      "lng": 77.649159,
      "open_now": true
    },
    {
      "place_id": "ChIJr9qsAtRhDDkRVkLjiiOu4Xk",
      "name": "Petrol pump",
      "address": "Partapur, Meerut",
      "lat": 28.9268136,
      "lng": 77.6483313,
      "open_now": true
    },
    {
      "place_id": "ChIJp3y8IExjDDkRQl9FK6gE-JM",
      "name": "Hindustan Petroleum Corporation Limited",
      "address": "Gat No 341 Acchronda, Gagol Road, Meerut",
      "lat": 28.909943,
      "lng": 77.656303,
      "open_now": true
    },
    {
      "place_id": "ChIJr3jx4ghhDDkR7lNVxgG1lXY",
      "name": "GAIL Gas CNG Station",
      "address": "VJVC+VRJ, Mohiuddinpur",
      "lat": 28.894709,
      "lng": 77.6220012,
      "open_now": null
    },
    {
      "place_id": "ChIJqasuevNjDDkRbHBoGSp539Q",
      "name": "Hindustan Petroleum Officers Hostel",
      "address": "WMH8+XJ9, Unnamed Road, Shatabdi Nagar, Block 4A, Sector 4, MDA, Meerut",
      "lat": 28.9299042,
      "lng": 77.66662459999999,
      "open_now": null
    },
    {
      "place_id": "ChIJq6qq6vljDDkRYMXqLIJOQPg",
      "name": "Rithani filling point",
      "address": "Rithani, Meerut",
      "lat": 28.936174,
      "lng": 77.66363439999999,
      "open_now": true
    },
    {
      "place_id": "ChIJM5F-D0ZhDDkRhYDvo4K6nVI",
      "name": "BR FUEL SERVICES",
      "address": "Ikla - Inayatpur Road, Ikla",
      "lat": 28.891565,
      "lng": 77.6084439,
      "open_now": null
    },
    {
      "place_id": "ChIJOxpTNpljDDkRli8wZKSjSU4",
      "name": "Nishant Jha Global Pvt.Ltd.",
      "address": "Pani Ki Tanki, Nishant Jha Global Pvt.Ltd. C 89, Pocket C, near Ghopla Road, Shatabdi Nagar, Sector 1, Rithani, Meerut",
      "lat": 28.9340592,
      "lng": 77.669162,
      "open_now": true
    },
    {
      "place_id": "ChIJU5ALqGNjDDkRvPEwxErl3KE",
      "name": "Nayara petrol pump",
      "address": "NH34, Rithani West, Phase-II, Industrial Area, Rithani, Meerut",
      "lat": 28.9382666,
      "lng": 77.66561589999999,
      "open_now": null
    },
    {
      "place_id": "ChIJexHVvrpmDDkRXjkdbB8TQ-E",
      "name": "GAIL Gas CNG Station",
      "address": "Sushant City, Sector - 3, Ansal's Sushant City, Meerut",
      "lat": 28.9510425,
      "lng": 77.6411238,
      "open_now": true
    },
    {
      "place_id": "ChIJa3Mii0FjDDkRQKlEHgN5ocA",
      "name": "Ashoka Mail Ke Pass Nato Wali Gali",
      "address": "362, Ritani Village, Rithani, Gagol",
      "lat": 28.9405912,
      "lng": 77.66884979999999,
      "open_now": null
    },
    {
      "place_id": "ChIJ9Zc2LN93AjoRaZRG3ujZlfk",
      "name": "IndianOil",
      "address": "near Shopprix Mall, Bijli Bamba Bypass Road, Noornagar, Meerut",
      "lat": 28.94420679999999,
      "lng": 77.6798108,
      "open_now": true
    },
    {
      "place_id": "ChIJO5RStpdmDDkRj1g-WD6ROHI",
      "name": "Bharat Petroleum",
      "address": "XJ7Q+4W4, Ved Vyas Puri, Meerut",
      "lat": 28.9627528,
      "lng": 77.6398243,
      "open_now": null
    },
    {
      "place_id": "ChIJfaPDMGljDDkRBHa8I6ZVx34",
      "name": "Deluxe filling point",
      "address": "WMRP+389, Delhi - Meerut Expressway, Jainpur, Meerut",
      "lat": 28.940157,
      "lng": 77.685859,
      "open_now": true
    },
    {
      "place_id": "ChIJC3gG0IhjDDkRtldIE8Lv-Vw",
      "name": "Shree Tirupati Filling Point",
      "address": "Supertech Green Village, 27, Jainpur, Meerut",
      "lat": 28.9402248,
      "lng": 77.6858658,
      "open_now": null
    },
    {
      "place_id": "ChIJ-cIkP4RjDDkRT8UXXnacKNE",
      "name": "Hindustan Petroleum Corporation Limited",
      "address": "Ground Floor, Hapur Bypass, Jainpur, Meerut",
      "lat": 28.9356999,
      "lng": 77.69173529999999,
      "open_now": true
    },
    {
      "place_id": "ChIJ71QbI5FmDDkRyQJ8rzcHTrs",
      "name": "IndianOil",
      "address": "Ground Floor, near Anaj Mandi, Baghpat Road, Rampur Pawti",
      "lat": 28.968031,
      "lng": 77.63889499999999,
      "open_now": true
    },
    {
      "place_id": "ChIJR59fd79nDDkRynhH0wrw7Cs",
      "name": "IndianOil",
      "address": "Rampur Pawati, Abdullapur, Meerut",
      "lat": 28.96826300000001,
      "lng": 77.63438099999999,
      "open_now": true
    },
    {
      "place_id": "ChIJs6wo9_1nDDkR9m-Bc5-QvWo",
      "name": "SHIV SHAKTI CNG STATION",
      "address": "near Vishwakarma industrial estate, Panchli Khurd",
      "lat": 28.9674997,
      "lng": 77.6240201,
      "open_now": null
    },
    {
      "place_id": "ChIJP5jLCMRnDDkRrUlbUVpDhGs",
      "name": "Pollution Centre",
      "address": "00, Baghpat Road, Rishi Nagar, Meerut",
      "lat": 28.9694741,
      "lng": 77.6496526,
      "open_now": null
    },
    {
      "place_id": "ChIJ2V36Z7VnDDkRmxTBA5v0vb4",
      "name": "Bharat Petroleum Petrol Pump - Shri Jagdish Filling Station",
      "address": "opposite Shyam Apartments, 94 B, Baghpat Road, Malyana, Meerut",
      "lat": 28.9696434,
      "lng": 77.6530284,
      "open_now": true
    },
    {
      "place_id": "ChIJQdTXWBRnDDkRwrNS6Vkam8o",
      "name": "HP Petrol Pump - Vishal Baffar Super Filling Station",
      "address": "Ground Floor, NH 334B, Baghpat Road, Meerut",
      "lat": 28.967091,
      "lng": 77.609993,
      "open_now": true
    },
    {
      "place_id": "ChIJNyRn0HhhDDkR3H7wulbT15c",
      "name": "Bharat Petroleum, Petrol Pump -Raman & Co..",
      "address": "NH-58,KADRABAD, GHAZIABAD",
      "lat": 28.86546959999999,
      "lng": 77.598614,
      "open_now": true
    },
    {
      "place_id": "ChIJ5Q33gxNnDDkRbFrrAO9_jcE",
      "name": "Baghpat - Meerut RO",
      "address": "XMC5+7GG, Baghpat Road, Ratan Nagar, Rishi Nagar, Meerut",
      "lat": 28.9706935,
      "lng": 77.65882599999999,
      "open_now": null
    },
    {
      "place_id": "ChIJJ6_mcY1lDDkRQ-DV2IKViyA",
      "name": "Bharat Petroleum, Petrol Pump -Raman & Co.",
      "address": "DELHI CHUNGI, MEERUT CITY, Meerut",
      "lat": 28.9574862,
      "lng": 77.683517,
      "open_now": true
    },
    {
      "place_id": "ChIJ8TUxPCRkDDkR6gYLFGyeceM",
      "name": "IndianOil",
      "address": "Ground Floor, Baghpat Road, Meerut",
      "lat": 28.970459,
      "lng": 77.660027,
      "open_now": true
    },
    {
      "place_id": "ChIJ8aY0H_5hDDkROO2P-4aw2ww",
      "name": "IndianOil",
      "address": "Ground Floor, Behrampur, Gejha",
      "lat": 28.9163619,
      "lng": 77.56673219999999,
      "open_now": null
    },
    {
      "place_id": "ChIJHfgwHwBjDDkRdHXdT5Td-Ns",
      "name": "SANYAM BANSAL DODO CNG OUTLET",
      "address": "WPF4+2PQ, Meerut",
      "lat": 28.92259199999999,
      "lng": 77.7068685,
      "open_now": null
    },
    {
      "place_id": "ChIJYWhHxzxlDDkRae-06XlPJ9s",
      "name": "Bharat Petroleum, Petrol Pump -Sekhon Filling Centre",
      "address": "B 425, Transport Nagar, Gupta Colony, Meerut",
      "lat": 28.963058,
      "lng": 77.68277549999999,
      "open_now": true
    },
    {
      "place_id": "ChIJ-5SjOwBlDDkR9BYg3nYoXMo",
      "name": "Meerut filling station",
      "address": "WMWX+JPG, Noornagar, Lisari, Meerut",
      "lat": 28.9465543,
      "lng": 77.6993435,
      "open_now": null
    },
    {
      "place_id": "ChIJKfglJ5ljDDkRspqC1Uvk3n0",
      "name": "ANAYA",
      "address": "Petrol Pump, Meerut",
      "lat": 28.9134551,
      "lng": 77.710869,
      "open_now": null
    },
    {
      "place_id": "ChIJXWqpk8JjDDkRXlh0wU1MFvM",
      "name": "PARVENDRA KUMAR",
      "address": "Petrol Pump, Meerut",
      "lat": 28.9104501,
      "lng": 77.710869,
      "open_now": null
    },
    {
      "place_id": "ChIJO4vkLwFPDDkRrHPi8XSNWMI",
      "name": "RANA TRADERS",
      "address": "Petrol Pump 58, Meerut",
      "lat": 28.9104501,
      "lng": 77.710869,
      "open_now": null
    },
    {
      "place_id": "ChIJ3WL8KfRjDDkRbgTne3CCEgI",
      "name": "ABHISHEK",
      "address": "Petrol Pump, Meerut",
      "lat": 28.9088899,
      "lng": 77.7107697,
      "open_now": null
    },
    {
      "place_id": "ChIJd9tYDrVjDDkR1gg6iPCesPo",
      "name": "AASIF",
      "address": "Petrol Pump 49, Meerut",
      "lat": 28.9088899,
      "lng": 77.7107697,
      "open_now": null
    },
    {
      "place_id": "ChIJ3UBmPeFlDDkRtqnrWdf-fvM",
      "name": "Vivekanand Dubey",
      "address": "Jcic, Gich",
      "lat": 28.9759672,
      "lng": 77.6628269,
      "open_now": null
    },
    {
      "place_id": "ChIJpXwUFABlDDkRcpM-YiYYhHk",
      "name": "Bharat petroleum pump",
      "address": "निकट बि.पी.एस. स्कूल, Bhola Road, Khadoli, Meerut",
      "lat": 28.9793771,
      "lng": 77.6536407,
      "open_now": true
    },
    {
      "place_id": "ChIJ0UCpVENjDDkRBVUW4QU38Do",
      "name": "GAIL Gas CNG Station",
      "address": "E Block, Lohia Nagar, Meerut",
      "lat": 28.9338588,
      "lng": 77.7283114,
      "open_now": true
    },
    {
      "place_id": "ChIJg7FCpFxjDDkRNjcF3aq539M",
      "name": "Nayara Petrol Pump",
      "address": "98/1, Hapur Road, B Block, Lohia Nagar, Meerut",
      "lat": 28.9359802,
      "lng": 77.7275636,
      "open_now": true
    },
    {
      "place_id": "ChIJWcVGtJlkDDkRoQw2q95r9fo",
      "name": "IndianOil",
      "address": "Ground Floor, Hapur Road, Meerut",
      "lat": 28.955322,
      "lng": 77.719201,
      "open_now": true
    },
    {
      "place_id": "ChIJe06DmqVkDDkRwjuTEfw_lSE",
      "name": "IndianOil",
      "address": "No G3, near PVS Mall, Shastri Nagar, Meerut",
      "lat": 28.9547405,
      "lng": 77.7329096,
      "open_now": true
    },
    {
      "place_id": "ChIJ81b8flJ7DDkRiKcG5WvaDTc",
      "name": "Hindustan Petroleum Corporation Limited",
      "address": "Ground Floor, State Highway, near Medical College, Garh Road, Meerut",
      "lat": 28.9598305,
      "lng": 77.74847659999999,
      "open_now": true
    },
    {
      "place_id": "ChIJ____v0VkDDkRyFGxM0sW37g",
      "name": "Petrol Pump,Bharat Petroleum.City Fuels",
      "address": "Jain Nagar, Devpuri, Meerut",
      "lat": 28.9730816,
      "lng": 77.6890703,
      "open_now": null
    },
    {
      "place_id": "ChIJLSIGp1tkDDkRS2X7cnn6GVk",
      "name": "Hindustan Petroleum Corporation Limited",
      "address": "Ground Floor, near Metro Plaza, Baghpat Road, Meerut",
      "lat": 28.9734714,
      "lng": 77.6907672,
      "open_now": true
    },
    {
      "place_id": "ChIJhx0N5_pkDDkR2naD-pA2q_0",
      "name": "IndianOil",
      "address": "Ground Floor, Eves Chopla, opposite Eves Hospital, Meerut",
      "lat": 28.981453,
      "lng": 77.709351,
      "open_now": true
    },
    {
      "place_id": "ChIJwc4MJ2ljDDkRGOW1pj1IhdA",
      "name": "Hindustan Petroleum Corporation Limited",
      "address": "Khasra No 391 Bijli Bamba Bypass Road, Hapur Road, Bajaut, Meerut",
      "lat": 28.9306752,
      "lng": 77.7177621,
      "open_now": true
    },
    {
      "place_id": "ChIJQ4qPEWhjDDkR870VD30hbo8",
      "name": "Bharat Petroleum, Petrol Pump -Christ Filling Station",
      "address": "Hapur Circle, Meerut",
      "lat": 28.9335026,
      "lng": 77.7212914,
      "open_now": true
    },
    {
      "place_id": "ChIJHfPOYNljDDkRUHAAAC0u4tg",
      "name": "GAIL Gas CNG Station",
      "address": "WPMF+CJR, National Highway 34, Meerut",
      "lat": 28.9336068,
      "lng": 77.72400750000001,
      "open_now": true
    },
    {
      "place_id": "ChIJyziVaKljDDkRbRJl-EGqZaE",
      "name": "IndianOil",
      "address": "Plot No, BC/03, Pocket B, Ram Manohar, Lohia Nagar, Meerut",
      "lat": 28.938726,
      "lng": 77.726441,
      "open_now": true
    },
    {
      "place_id": "ChIJH7cMYgBjDDkRfnroxJ2k5HU",
      "name": "HP Petrol Pump Sahara Fuels",
      "address": "Khasra No 93M, Main, Hapur Road, Jamna Nagar, Meerut",
      "lat": 28.942654,
      "lng": 77.724463,
      "open_now": true
    },
    {
      "place_id": "ChIJU1GoCMFlDDkRWzSdply7brI",
      "name": "Sameer Shop",
      "address": "Shyam Nagar Road, Shyam Nagar, Meerut",
      "lat": 28.9498387,
      "lng": 77.70386409999999,
      "open_now": null
    },
    {
      "place_id": "ChIJGzWjQFNlDDkRq2OfBYWiSgc",
      "name": "Rais Ahmad Shop",
      "address": "01, Hapur Road, Meerut",
      "lat": 28.9485018,
      "lng": 77.7214218,
      "open_now": null
    },
    {
      "place_id": "ChIJB-nbauRjDDkRS9KP3dd9-Zk",
      "name": "Sabbal filling center",
      "address": "Vill. Phaphunda, Hapur Road, Meerut",
      "lat": 28.8913798,
      "lng": 77.7404418,
      "open_now": true
    },
    {
      "place_id": "ChIJ89D8VmNlDDkRdsVsMzhW0os",
      "name": "Shuaib Malik",
      "address": "853, Prahlad Nagar, Meerut",
      "lat": 28.9511516,
      "lng": 77.7180285,
      "open_now": null
    },
    {
      "place_id": "ChIJQb6POwBlDDkRtJNW4jy1gr8",
      "name": "Aatika filling station",
      "address": "XP59+5F2, Hapur Road, Ansar Block, Karim Nagar, Rambagh Colony, Meerut",
      "lat": 28.9578944,
      "lng": 77.7186517,
      "open_now": null
    },
    {
      "place_id": "ChIJ3zKURQBlDDkRc_yZtE3akKc",
      "name": "Nayara",
      "address": "XP59+5F2, Hapur Road, Ansar Block, Karim Nagar, Rambagh Colony, Meerut",
      "lat": 28.95785709999999,
      "lng": 77.7188268,
      "open_now": null
    },
    {
      "place_id": "ChIJJ685nhNlDDkRZ3L7N47T99I",
      "name": "Bharat Petroleum, Petrol Pump -Bhagwan & Company",
      "address": "HAPUR ROAD , MEERUT, Meerut",
      "lat": 28.96022,
      "lng": 77.7176193,
      "open_now": true
    },
    {
      "place_id": "ChIJu0GgRqRlDDkREvfuOhfrEug",
      "name": "IndianOil",
      "address": "Ground Floor, Hapur Road, Meerut",
      "lat": 28.9620735,
      "lng": 77.7164229,
      "open_now": true
    },
    {
      "place_id": "ChIJp2YJLQBlDDkRCqgJMyBEKnc",
      "name": "Namberdaar petrolium",
      "address": "74, Hapur Road, Islamabad, Meerut",
      "lat": 28.9646766,
      "lng": 77.71565439999999,
      "open_now": true
    },
    {
      "place_id": "ChIJ0fRrHABjDDkR0_PNsqcWSJw",
      "name": "Hindustan Petroleum Corporation Limited",
      "address": "Ground Floor, near Community Health Centre, NH 334, Hapur Road, Bhagwanpur",
      "lat": 28.873734,
      "lng": 77.741646,
      "open_now": true
    },
    {
      "place_id": "ChIJmwqKIRtlDDkRi89flYkVgPM",
      "name": "Pradoshan Kendra",
      "address": "Medical, Garh Road, Meerut",
      "lat": 28.9668705,
      "lng": 77.73140769999999,
      "open_now": null
    },
    {
      "place_id": "ChIJS-r3_UJkDDkRpRvoeAxIGhg",
      "name": "M/s. Babaji Petroleum",
      "address": "XM9P+866, Beripura Road, New Punjabi Pura, Beripura, Meerut",
      "lat": 28.9682761,
      "lng": 77.6855145,
      "open_now": null
    },
    {
      "place_id": "ChIJSbQtNqN7DDkRBsKQhX53iOk",
      "name": "IndianOil",
      "address": "Ground Floor Bhawanpur, Abdullapur, Rajpura",
      "lat": 28.980137,
      "lng": 77.799416,
      "open_now": true
    },
    {
      "place_id": "ChIJUXNpyQqIDDkRKPnP7WXH6AA",
      "name": "Hindustan Petroleum Corporation Limited",
      "address": "Ground Floor, near DAV Inter College, SH 18, Hapur Road, Meerut",
      "lat": 28.849212,
      "lng": 77.74230899999999,
      "open_now": true
    },
    {
      "place_id": "ChIJI-9NtEV8DDkRmcZZ_n9lR74",
      "name": "Hindustan Petroleum Corporation Limited",
      "address": "No 524/1, Garh Road, Sisoli",
      "lat": 28.921803,
      "lng": 77.80646399999999,
      "open_now": true
    },
    {
      "place_id": "ChIJLS3jLL99DDkRPSPy003QJ94",
      "name": "M Shaan Electric And Gas Service",
      "address": "WQV9+Q75, near Canara Bank, Garh Road, Kamalpur",
      "lat": 28.9443835,
      "lng": 77.7682334,
      "open_now": null
    },
    {
      "place_id": "ChIJZx6c0ad7DDkR75fhpqEN78s",
      "name": "Essar",
      "address": "WQX6+VJJ, Garh Road, Jai Bhim Nagar, Meerut",
      "lat": 28.9497182,
      "lng": 77.761501,
      "open_now": true
    },
    {
      "place_id": "ChIJKwuFs1l7DDkRo9YpDjciygM",
      "name": "AS AUTO GAS",
      "address": "Ear Baba Dhaba, Garh Road, Meerut",
      "lat": 28.952305,
      "lng": 77.75847460000001,
      "open_now": null
    },
    {
      "place_id": "ChIJR7SSB1l7DDkRUBzpsbo0fKs",
      "name": "Bharat Gas Grahak Seva Kendra",
      "address": "Jay Bheem Nagar Merath, Near Road Ajay Hospital, Xq35+4Rq, Jai Bhim Nagar, Meerut Delhi",
      "lat": 28.9529996,
      "lng": 77.75984009999999,
      "open_now": true
    },
    {
      "place_id": "ChIJQQt9tlB7DDkRB0c_x-Z6X7w",
      "name": "Indian Oil Petrol Pump - Astha Fuels",
      "address": "116/B, Garh Road, Opposite, Takshila Colony, Meerut",
      "lat": 28.955099,
      "lng": 77.75537,
      "open_now": true
    },
    {
      "place_id": "ChIJnUP3zlB7DDkRFdFXJlQyPxA",
      "name": "Reliance Petroleum",
      "address": "House No 149 & 150, Khasra No 965 & 969, opposite Medical College, Sh 14, Garth Road, Meerut",
      "lat": 28.9551658,
      "lng": 77.7547811,
      "open_now": true
    },
    {
      "place_id": "ChIJT81qaAB7DDkRbhCX-oFAYgw",
      "name": "Purvi YBPL",
      "address": "XP5X+CWX, Rohta Road, Nai Basti, Fazalpur, Meerut",
      "lat": 28.9586034,
      "lng": 77.7498482,
      "open_now": null
    },
    {
      "place_id": "ChIJy6W-M959DDkR26F3y8BlWmQ",
      "name": "IndianOil",
      "address": "Ground Floor Rajpura, Near MIET, Nagla Mal",
      "lat": 28.888132,
      "lng": 77.833733,
      "open_now": true
    },
    {
      "place_id": "ChIJgypizH5-DDkRhI3l7g7hJCw",
      "name": "Nayara Petrol Pump, SHRI RAM FILLING POINT",
      "address": "Patti Kherki",
      "lat": 28.9053344,
      "lng": 77.840592,
      "open_now": true
    },
    {
      "place_id": "ChIJo7qSzqx_DDkRHU8dWZiPUtM",
      "name": "Shri ram filling point",
      "address": "Garh Road, Patti Kherki",
      "lat": 28.9057972,
      "lng": 77.8407983,
      "open_now": true
    },
    {
      "place_id": "ChIJA6MPmbNkDDkRkopd-EarHc4",
      "name": "IndianOil",
      "address": "Ground Floor, near Krishna Plaza, Garh Road, Tejgarhi, Meerut",
      "lat": 28.9633941,
      "lng": 77.74181159999999,
      "open_now": true
    },
    {
      "place_id": "ChIJ3Yx-UAd9DDkR4uOkjKWXpZ0",
      "name": "Pradhan petroleum",
      "address": "VRFG+WPW, Mundali",
      "lat": 28.8751877,
      "lng": 77.8268058,
      "open_now": null
    },
    {
      "place_id": "ChIJpWiQvFBjDDkRg3uEF2zdm-E",
      "name": "BP Petrol Pump",
      "address": "NH334",
      "lat": 28.861368,
      "lng": 77.74228939999999,
      "open_now": null
    },
    {
      "place_id": "ChIJfzyDop9lDDkRC3XqasAeXwM",
      "name": "Petrol pump",
      "address": "XP8P+695, Garh Road, Shastri Nagar, Meerut",
      "lat": 28.9655205,
      "lng": 77.7359986,
      "open_now": true
    },
    {
      "place_id": "ChIJDR6zS7ZkDDkRhJtZilT21RM",
      "name": "IndianOil",
      "address": "Ground Floor, University Main Road, Meerut",
      "lat": 28.968557,
      "lng": 77.7368347,
      "open_now": true
    },
    {
      "place_id": "ChIJlYaWSrZkDDkRRS-NtFnnEDs",
      "name": "GAIL Gas CNG Station",
      "address": "XP9P+CM4, CCS University Road, Mangal Pandey Nagar, Ramgarhi, Meerut",
      "lat": 28.96852329999999,
      "lng": 77.73671639999999,
      "open_now": true
    },
    {
      "place_id": "ChIJvfUEFfB_DDkRzNeICtD5hcA",
      "name": "Jio BP PETROL PUMP",
      "address": "Jio BP Petrol Pump, Garh Road, Meerut",
      "lat": 28.90292359999999,
      "lng": 77.8486703,
      "open_now": null
    },
    {
      "place_id": "ChIJTXVIrGh-DDkR-rpCUY3NXhw",
      "name": "Hindustan Petroleum Corporation Limited",
      "address": "Ground Floor, SH 14, Garh Road, Bhatipura",
      "lat": 28.90015249999999,
      "lng": 77.8541426,
      "open_now": true
    },
    {
      "place_id": "ChIJVWxMHgB7DDkR8kP-GCZoSbY",
      "name": "Rk.energy station",
      "address": "XQPM+45G, Road, Rali Chauhan",
      "lat": 28.9853036,
      "lng": 77.78294559999999,
      "open_now": true
    },
    {
      "place_id": "ChIJ-5z6ZIl7DDkRLOGzdOpAAUQ",
      "name": "Hindustan Petroleum Corporation Limited",
      "address": "MDR No 42W, Kila Parikshit Garh Road, Parikshitgarh, Meerut",
      "lat": 28.98543699999999,
      "lng": 77.783168,
      "open_now": true
    },
    {
      "place_id": "ChIJzyHb73hmDDkR1p_urO6tTTc",
      "name": "Hindustan Petroleum Corporation Limited",
      "address": "Ground Floor, near Rohta Road, Shobhapur, Meerut",
      "lat": 28.9984623,
      "lng": 77.64658759999999,
      "open_now": true
    },
    {
      "place_id": "ChIJh8Q1l3hmDDkRiJGevPjcDEg",
      "name": "IndianOil",
      "address": "Ground Floor, Rohta Road, Meerut",
      "lat": 28.99280199999999,
      "lng": 77.652824,
      "open_now": true
    },
    {
      "place_id": "ChIJnwCHXjNkDDkRbvZ1tAgrSzI",
      "name": "Hindustan Petroleum Corporation Limited",
      "address": "Ground Floor, near Railway Crossing, Rohta Road, Aurang Shahpur, Diggi, Meerut",
      "lat": 28.9856965,
      "lng": 77.6704681,
      "open_now": true
    },
    {
      "place_id": "ChIJvzFu0YplDDkRTCF0iXTJ4uM",
      "name": "IndianOil",
      "address": "Sardhana Road, Kanker Khera, Meerut",
      "lat": 29.0311737,
      "lng": 77.6772001,
      "open_now": true
    },
    {
      "place_id": "ChIJrX8yLoplDDkREGQ3MHLmFTc",
      "name": "Nayara Filling Station - Kanker khera Filling Station",
      "address": "2MJJ+JF6, 279/1, Shradha Puri Road, Sant Vihar, Sector 4, Shradhapuri Phase 1, 6/209, Sector 6, Shradhapuri Phase 1, Meerut",
      "lat": 29.0313839,
      "lng": 77.68150709999999,
      "open_now": true
    },
    {
      "place_id": "ChIJHX5C2ghlDDkRjbvlPgJvXts",
      "name": "Federal Auto Stores (Bharat Petroleum)",
      "address": "Roorkee Road, Meerut Cantt, Meerut",
      "lat": 29.0039133,
      "lng": 77.7043381,
      "open_now": true
    },
    {
      "place_id": "ChIJDwILceFkDDkRYGbiDWr4HME",
      "name": "Club HP",
      "address": "XPQ9+52W, Police Lines, Meerut",
      "lat": 28.9879888,
      "lng": 77.7175899,
      "open_now": true
    },
    {
      "place_id": "ChIJM_fpGYdmDDkRVPFR_EGu3Ks",
      "name": "जी ऑटो गैस सर्विस",
      "address": "XJJW+XFM, Bhola Road, Khadoli, Meerut",
      "lat": 28.9824726,
      "lng": 77.6461817,
      "open_now": null
    },
    {
      "place_id": "ChIJBSL1h3tmDDkRck4u8hFvreo",
      "name": "Hindustan Petroleum Corporation Limited",
      "address": "Ground Floor, NH58, Khadoli, Meerut",
      "lat": 28.99106749999999,
      "lng": 77.6454498,
      "open_now": true
    },
    {
      "place_id": "ChIJNUCNIJJnDDkRV3_U7bJkis0",
      "name": "NAYARA PETROL PUMP KHADAULI BHOLA ROAD MEERUT M/S PIHU POLLUTION CHECK CENTER",
      "address": "Nayara Petrol Pump, Bhola Road, Meerut",
      "lat": 28.98063770000001,
      "lng": 77.6507171,
      "open_now": null
    },
    {
      "place_id": "ChIJZY9yZgBnDDkRNPFV8dYeePI",
      "name": "Patrol pump",
      "address": "688, Khadoli Bhola Road, Doral, Meerut",
      "lat": 28.98035849999999,
      "lng": 77.6506527,
      "open_now": true
    },
    {
      "place_id": "ChIJkWIgx5pnDDkR5P5CHE6NIks",
      "name": "Bharat Petroleum Petrol Pump",
      "address": "XJWR+RGM, Major District Road 34W, Lakhwaya",
      "lat": 28.9971521,
      "lng": 77.64125589999999,
      "open_now": null
    },
    {
      "place_id": "ChIJfS-RC9hnDDkRlGybRLnPRTE",
      "name": "IndianOil",
      "address": "Ground Floor Khadauli, Pepla, Marg, Bhola",
      "lat": 28.9886913,
      "lng": 77.621625,
      "open_now": true
    },
    {
      "place_id": "ChIJzxSoagBnDDkRThI9UQxM5bw",
      "name": "Yashree Petroleum",
      "address": "Rohta Road, Lakhwaya",
      "lat": 28.9993705,
      "lng": 77.6345071,
      "open_now": null
    },
    {
      "place_id": "ChIJh2tsDQBnDDkRroevv0Fr3YQ",
      "name": "Mittal house",
      "address": "Mell Ford City, Rohta Road, Meerut",
      "lat": 28.992855,
      "lng": 77.65338299999999,
      "open_now": null
    },
    {
      "place_id": "ChIJK8ME8HNmDDkRoZBPVWFBOHI",
      "name": "GAIL Gas CNG Station",
      "address": "2J3W+2W, NH58, Meerut",
      "lat": 29.0026663,
      "lng": 77.6472417,
      "open_now": true
    },
    {
      "place_id": "ChIJ-_a_bKtnDDkROsAVjZ_Zq7g",
      "name": "Bharat Petroleum Petrol Pump , SHRI KRISHNA FILLING STATION",
      "address": "VILLAGE SHOBHAPUR, NH58, Meerut",
      "lat": 29.00924649999999,
      "lng": 77.6523737,
      "open_now": true
    },
    {
      "place_id": "ChIJqZn3mAlnDDkRe41YbWqavXc",
      "name": "Ncr Fuel (Bharat Petroleum)",
      "address": "NCR FUEL BPCL PETROL and CNG PUMP, Baghpat Road, Kitholi, Meerut",
      "lat": 28.9773,
      "lng": 77.5919,
      "open_now": null
    },
    {
      "place_id": "ChIJ19-lMQBlDDkRUPVJfAE2ZYM",
      "name": "IGL GAS PUMP",
      "address": "XM9J+PQ8, Transport Nagar, Raghukul Vihar, Gupta Colony, Meerut",
      "lat": 28.9692895,
      "lng": 77.6819436,
      "open_now": null
    },
    {
      "place_id": "ChIJOTZb8f9kDDkRNhlRV19KEoI",
      "name": "IndianOil",
      "address": "Ground Floor, opposite Roadways, Transport Nagar Road, Meerut",
      "lat": 28.9681132,
      "lng": 77.6828766,
      "open_now": true
    },
    {
      "place_id": "ChIJGYrEVNRlDDkRu0L7z695YeI",
      "name": "GYANDEEP FILLING STATION",
      "address": "40/8,40/9 Baghpat road Raghunathpur ( NH 334B, Baghpat Road, Raghunathpur",
      "lat": 28.9734989,
      "lng": 77.6879695,
      "open_now": true
    },
    {
      "place_id": "ChIJDeq6kxtnDDkR528t-18uKhg",
      "name": "Bharat Petroleum, Petrol Pump -Popular Petrol Pump",
      "address": "MEERUT BY PASS NEAR SHUBHA, Meerut",
      "lat": 29.0238412,
      "lng": 77.60653119999999,
      "open_now": null
    },
    {
      "place_id": "ChIJLzeKcSpnDDkR3lZ7iL6WldY",
      "name": "IndianOil",
      "address": "Ground Floor Kitholi, Meerut Baghpat, Rd, Jamalpur Majra",
      "lat": 28.9651701,
      "lng": 77.58663299999999,
      "open_now": true
    },
    {
      "place_id": "ChIJQTq8uUxlDDkRAltxPmdQEpM",
      "name": "IndianOil",
      "address": "Ground Floor, Delhi Road, Meerut",
      "lat": 28.97009899999999,
      "lng": 77.689099,
      "open_now": true
    },
    {
      "place_id": "ChIJ3TjKn1xkDDkRjuG5-1f2DaI",
      "name": "Agarwal Gases",
      "address": "Bhagirath Palace, 231, Delhi Chungi, Xmcq+Hr5, Delhi Road, Guru Nanak Nagar, Shambhu Nagar, Beripura, Meerut Delhi",
      "lat": 28.9714375,
      "lng": 77.6895625,
      "open_now": true
    },
    {
      "place_id": "ChIJ82GPmlxkDDkRA1zE--eP05s",
      "name": "Raman & company",
      "address": "Purani Delhi Chungi, Delhi Road, Meerut",
      "lat": 28.970886,
      "lng": 77.6899669,
      "open_now": true
    },
    {
      "place_id": "ChIJ1_Q_tgFlDDkRXVw1RdLwEvk",
      "name": "B K Lubricant House",
      "address": "opp. KCC Complex, 865, Kaiser Ganj Road, Meerut",
      "lat": 28.9808099,
      "lng": 77.6957577,
      "open_now": null
    },
    {
      "place_id": "ChIJTwLxGCBlDDkRQX7rE2Zj9yU",
      "name": "Hindustan Petroleum Corporation Limited",
      "address": "Ground Floor, Bus Stand, near Mawana, Saket, Meerut",
      "lat": 28.992861,
      "lng": 77.72297499999999,
      "open_now": true
    },
    {
      "place_id": "ChIJFaVCl31lDDkRS9tUj0w0Qsw",
      "name": "IndianOil",
      "address": "Roorkee Road, Vivek Vihar, Daurli, Meerut",
      "lat": 29.035088,
      "lng": 77.707191,
      "open_now": true
    },
    {
      "place_id": "ChIJt6h-goZvDDkRXfdGDHKW8VM",
      "name": "IndianOil",
      "address": "Ground Floor, Roorkee Road, Meerut",
      "lat": 29.041826,
      "lng": 77.707101,
      "open_now": true
    },
    {
      "place_id": "ChIJtccmbdtlDDkRwpANK8qmUq4",
      "name": "Kapil Shop",
      "address": "01, Meerut",
      "lat": 28.9844649,
      "lng": 77.70641379999999,
      "open_now": null
    },
    {
      "place_id": "ChIJ4_ryXgBlDDkRbcevP10Wj2Q",
      "name": "SHAKUNTLA FUEL STATION",
      "address": "RP9X+7GG, Meerut",
      "lat": 28.9844618,
      "lng": 77.7064137,
      "open_now": null
    },
    {
      "place_id": "ChIJVwTaEQJlDDkRqYuLJqpDYtQ",
      "name": "LIBERTY",
      "address": "Shop No. 5, Ganga Plaza, Meerut",
      "lat": 28.9909246,
      "lng": 77.706172,
      "open_now": null
    },
    {
      "place_id": "ChIJR33Sm-NkDDkRdZeP-iGR2ss",
      "name": "IndianOil",
      "address": "No 28, Kuchery Road, Meerut",
      "lat": 28.9860388,
      "lng": 77.7141802,
      "open_now": true
    },
    {
      "place_id": "ChIJ816_0kNkDDkRvCRaaBrXcmw",
      "name": "IndianOil",
      "address": "No 195, Gupta Colony, opposite Roadways Bus Stand, Meerut",
      "lat": 28.9886779,
      "lng": 77.7000163,
      "open_now": true
    },
    {
      "place_id": "ChIJ49krV2xlDDkRJYa1E_fRygs",
      "name": "Hindustan Petroleum Corporation Limited",
      "address": "Ground Floor, Eastern Kutchery Road, Meerut",
      "lat": 28.9881287,
      "lng": 77.7179841,
      "open_now": true
    },
    {
      "place_id": "ChIJs19R-wNlDDkRVxZpP_zYk-s",
      "name": "IndianOil",
      "address": "Begam Bridge, Budhana Road, Meerut",
      "lat": 28.9954826,
      "lng": 77.70605809999999,
      "open_now": null
    },
    {
      "place_id": "ChIJqw4wFgRlDDkRLGmru4l3mqo",
      "name": "Hindustan Petroleum Corporation Limited",
      "address": "Ground Floor, Begum Pul, Old Delhi Dehradun Highway, Meerut",
      "lat": 28.997363,
      "lng": 77.7059833,
      "open_now": true
    },
    {
      "place_id": "ChIJwyoMtu1kDDkRaioLQvV06S4",
      "name": "Petrol Pump Hapur Road",
      "address": "XPC7+V8W, Islamabad, Meerut",
      "lat": 28.97224439999999,
      "lng": 77.7133366,
      "open_now": true
    },
    {
      "place_id": "ChIJV90bXVBlDDkRenCFPPWmVbg",
      "name": "Bharat Petroleum, Petrol Pump -Ashok Auto Stores",
      "address": "Roorkee Road, Meerut",
      "lat": 28.99915809999999,
      "lng": 77.70531729999999,
      "open_now": true
    },
    {
      "place_id": "ChIJn7zFMahlDDkR-oQjWxZlX8g",
      "name": "Hindustan Petroleum Corporation Limited",
      "address": "Ground Floor, near Bombay Bazar, Hanuman Chowk, Cantonment, Meerut",
      "lat": 28.99862569999999,
      "lng": 77.6986456,
      "open_now": true
    },
    {
      "place_id": "ChIJ3fx0hsJkDDkRc9XdbgM-Fe4",
      "name": "IndianOil",
      "address": "Ground Floor, Buddh Vihar, Suraj Kund Road, Mohanpuri, Meerut",
      "lat": 28.9781004,
      "lng": 77.723213,
      "open_now": true
    },
    {
      "place_id": "ChIJUZMhPXxlDDkRrsl9bQ4oOqw",
      "name": "NAYARA PETROL PUMP -UNIQUE SERVICE STATION",
      "address": "547, Suraj Kund Road, Phool Bagh Colony, Panchsheel Colony, Meerut",
      "lat": 28.9772064,
      "lng": 77.7230646,
      "open_now": true
    },
    {
      "place_id": "ChIJ8R8hcIhlDDkRgJLFMnQ8jms",
      "name": "GANPATI NARAYANA ENTERPRISES",
      "address": "Petrol Pump, Meerut Road, Meerut",
      "lat": 28.9776726,
      "lng": 77.7251816,
      "open_now": null
    },
    {
      "place_id": "ChIJodidjZhLDDkRNhCpAgcPCOk",
      "name": "ANAYA",
      "address": "133 Baraut Road, Baoli Road, Meerut",
      "lat": 28.9776725,
      "lng": 77.7251816,
      "open_now": null
    },
    {
      "place_id": "ChIJOWmWLjxLDDkRpcF5lw8HRLA",
      "name": "PARVENDER KUMAR",
      "address": "148 Baraut Tiraha, Bye Pass Road, Meerut",
      "lat": 28.9776725,
      "lng": 77.7251816,
      "open_now": null
    },
    {
      "place_id": "ChIJgyl276hLDDkRoh6VarHRKrY",
      "name": "RANA TRADERS",
      "address": "135, Baraut Rd, Meerut",
      "lat": 28.9776725,
      "lng": 77.7251816,
      "open_now": null
    },
    {
      "place_id": "ChIJ1zwdlqdlDDkRR_wvG2bK8fw",
      "name": "Bharat Petroleum, Petrol Pump -Meerut Automobiles Co.",
      "address": "Cariappa Road, Meerut",
      "lat": 29.00308080000001,
      "lng": 77.699319,
      "open_now": true
    },
    {
      "place_id": "ChIJ2ed4ctlkDDkRMp6cGthNGlI",
      "name": "IndianOil",
      "address": "44, Prabhat Nagar, Meerut",
      "lat": 28.989035,
      "lng": 77.728966,
      "open_now": true
    },
    {
      "place_id": "ChIJwSJmZxhlDDkRgwwKjD8ZaqE",
      "name": "Military Petrol Pump",
      "address": "2P2C+892, Lalkurti Bazaar, Meerut Cantt, Meerut",
      "lat": 29.00075339999999,
      "lng": 77.7209027,
      "open_now": null
    },
    {
      "place_id": "ChIJpVmEtyplDDkRqnESGdRcfpU",
      "name": "Maa Sharda filling station",
      "address": "NH-34, Km 2-12, Chhatarpur Road, Mahoba",
      "lat": 28.979353,
      "lng": 77.73199,
      "open_now": true
    },
    {
      "place_id": "ChIJh_sEuEB7DDkRuAAMLLwhlEE",
      "name": "Nayara Petrol Pump",
      "address": "XQPH+JHQ, Kila Parikshit Garh Road",
      "lat": 28.9865977,
      "lng": 77.7789833,
      "open_now": null
    },
    {
      "place_id": "ChIJtbDEeQB7DDkRXc9zey1HsCg",
      "name": "BNM ENERGY cng station",
      "address": "XQQC+8G6, Kila Parikshit Garh Road, Abdullapur, Meerut",
      "lat": 28.9882898,
      "lng": 77.7712693,
      "open_now": null
    },
    {
      "place_id": "ChIJb44pGRl7DDkR61W2ooztVJo",
      "name": "BANSAL FUELS",
      "address": "XQQF+953, Kila Road, Coral Spring Colony, Abdullapur, Meerut",
      "lat": 28.9886682,
      "lng": 77.77116269999999,
      "open_now": true
    },
    {
      "place_id": "ChIJR5bkOgB7DDkRNDngno4DlNo",
      "name": "Bharat petroleum",
      "address": "XQQ4+XQ8, Kila Road, Prabhat Nagar, Meerut",
      "lat": 28.989916,
      "lng": 77.7569527,
      "open_now": null
    },
    {
      "place_id": "ChIJJ7FTFDp7DDkRgu-ug99W_w4",
      "name": "GAIL Gas CNG Station",
      "address": "XPXX+Q6X, Krishna Garden, Ganga Nagar, Meerut",
      "lat": 28.9994832,
      "lng": 77.74811,
      "open_now": true
    },
    {
      "place_id": "ChIJITz5bMd6DDkR5tCkNBjVNkg",
      "name": "Hindustan Petroleum Corporation Limited",
      "address": "Ground Floor, NH 119, Mawana Road, Rajpura, Meerut",
      "lat": 29.016892,
      "lng": 77.76043419999999,
      "open_now": true
    },
    {
      "place_id": "ChIJ_xBL3c97DDkREG6yoB0A1g8",
      "name": "IndianOil",
      "address": "Mawana Road, Rakshapuram, Meerut",
      "lat": 29.0107265,
      "lng": 77.7492927,
      "open_now": true
    },
    {
      "place_id": "ChIJAczasABlDDkRKQKMtQNvk24",
      "name": "Abacus Kids Zone (abacus smart classes), Tirupati Garden, Ganga Nagar, Meerut",
      "address": "Mawana Road, Meerut",
      "lat": 29.0060527,
      "lng": 77.7432168,
      "open_now": true
    },
    {
      "place_id": "ChIJafy_LwB7DDkRYPpvIX9hf-M",
      "name": "Dheer Energies BPCL",
      "address": "2QC9+942, Meerut - Pauri National Highway, Salarpur Jalalpur",
      "lat": 29.0208785,
      "lng": 77.7677029,
      "open_now": true
    },
    {
      "place_id": "ChIJS3qgbrx7DDkRyZL5QlIqdqE",
      "name": "Hindustan Petroleum Corporation Limited",
      "address": "Khasra No 258, Nan, Pachpeda",
      "lat": 28.98093800000001,
      "lng": 77.819923,
      "open_now": true
    },
    {
      "place_id": "ChIJ-a04w4Z7DDkRRAJgDfwLvGk",
      "name": "Bharat Petroleum, Petrol Pump -Bhoop Singh Filling Station",
      "address": "VILL. MUSSOORIE, Meerut",
      "lat": 29.040844,
      "lng": 77.7930095,
      "open_now": true
    },
    {
      "place_id": "ChIJyQefXH96DDkRCY_R3w74_QY",
      "name": "NAYARA ENERGY PETROL PUMP (ROYAL FILLING STATION)",
      "address": "India",
      "lat": 29.0433749,
      "lng": 77.7955496,
      "open_now": true
    },
    {
      "place_id": "ChIJzx1PGzRpDDkRtFjXYklQohg",
      "name": "IndianOil",
      "address": "Ground Floor, BN Nanu Sarurpur, Sardhana",
      "lat": 29.094201,
      "lng": 77.648201,
      "open_now": true
    },
    {
      "place_id": "ChIJRZp5UgBpDDkR2h6QhU59E3U",
      "name": "Dabathwa Meerut",
      "address": "3J7P+J2F, Sardhana Bypass Road, कंकर खेरा, कैंट, Meerut",
      "lat": 29.0640622,
      "lng": 77.635035,
      "open_now": null
    },
    {
      "place_id": "ChIJQQe-tOFpDDkRwwOmfToCCAs",
      "name": "Hindustan Petroleum Corporation Limited",
      "address": "Khasra No 650, NH 709A, Batjevra",
      "lat": 29.050175,
      "lng": 77.651018,
      "open_now": true
    },
    {
      "place_id": "ChIJqZBwqOFoDDkRf2VytCaGfFo",
      "name": "Bharat Petroleum IGL Cng Pump",
      "address": "India",
      "lat": 29.0718082,
      "lng": 77.62715109999999,
      "open_now": null
    },
    {
      "place_id": "ChIJ_fvI5OFoDDkRFFIErSu3rEk",
      "name": "IndianOil",
      "address": "11 & 13, Ground Floor Dabhautha, near KM Stone, Sardhana Road, B N, Nanu",
      "lat": 29.0740957,
      "lng": 77.6254067,
      "open_now": true
    },
    {
      "place_id": "ChIJhdP_QwBpDDkRH_7wR3roUfQ",
      "name": "Reliance Jio BP Petrol pump-Dabathwa Meerut",
      "address": "3JP8+956, Budhana Road, Dabathwa",
      "lat": 29.0847817,
      "lng": 77.6149921,
      "open_now": null
    },
    {
      "place_id": "ChIJMTXvyF9vDDkRxYONnZeMosw",
      "name": "बालियान स्पेयर पाटस",
      "address": "2MPG+54W, Service Lane, Nangla Tashi, Meerut",
      "lat": 29.0354869,
      "lng": 77.67533279999999,
      "open_now": null
    },
    {
      "place_id": "ChIJ8ycEsGBvDDkRKX35dVe6slE",
      "name": "Bharat Petroleum",
      "address": "2MQG+9R4, Khirwa Road, Nangla Tashi, Meerut",
      "lat": 29.0383814,
      "lng": 77.6770868,
      "open_now": null
    },
    {
      "place_id": "ChIJ45Jth2BvDDkR517AHT6jQgk",
      "name": "Hindustan Petroleum Corporation Limited",
      "address": "Ground Floor, near Kanker Khera, NH 58, Meerut Bypass, Crossing, New Sainik Colony, Meerut",
      "lat": 29.0363036,
      "lng": 77.6770073,
      "open_now": true
    },
    {
      "place_id": "ChIJdwCvoKJvDDkRvny8N9qt7ZA",
      "name": "R.K. filling station",
      "address": "Khirwa Road, Kanker Khera",
      "lat": 29.0370164,
      "lng": 77.6779859,
      "open_now": true
    },
    {
      "place_id": "ChIJuZRiJABvDDkR6rtti8UmkK0",
      "name": "Hp petrol pump",
      "address": "2MRP+HJ5, NH58, Dantal, Meerut",
      "lat": 29.0413917,
      "lng": 77.68653170000002,
      "open_now": null
    },
    {
      "place_id": "ChIJa6cID81nDDkRAcbO8L19T_g",
      "name": "IndianOil",
      "address": "Ground Floor Pargana, Amanullapur",
      "lat": 29.021874,
      "lng": 77.591439,
      "open_now": true
    },
    {
      "place_id": "ChIJ6wypLHhpDDkRt_AhIcTigYg",
      "name": "Naraya Petrol Pump",
      "address": "2HGP+763, Pooth Khas",
      "lat": 29.0256272,
      "lng": 77.5855368,
      "open_now": true
    },
    {
      "place_id": "ChIJW8xsh6plDDkR-63UtcdXrBY",
      "name": "Amit Kumar Filling Station",
      "address": "2MGQ+JFM, Kanker Khera, Meerut Cantt, Meerut",
      "lat": 29.0265782,
      "lng": 77.6886854,
      "open_now": null
    },
    {
      "place_id": "ChIJB33liUNvDDkRtw0PHysEhVo",
      "name": "GAIL Gas CNG Station",
      "address": "2MVW+VVJ, Queensland Park Colony, Modipuram, Meerut",
      "lat": 29.0447222,
      "lng": 77.6971514,
      "open_now": true
    },
    {
      "place_id": "ChIJ204rhZtvDDkR4ASxcdpvmeI",
      "name": "Nayara Petrol Pump Shyam Fuels",
      "address": "3P35+R2F, NH58, Pallavpuram, Meerut",
      "lat": 29.0545745,
      "lng": 77.7075618,
      "open_now": true
    },
    {
      "place_id": "ChIJSVN2GqNvDDkRVRsLLYOTQZw",
      "name": "Bharat Petroleum, Petrol Pump -Anupam Fuels & Services",
      "address": "PALLAVPURAM, PHASE -2, Meerut",
      "lat": 29.0629294,
      "lng": 77.70897130000002,
      "open_now": true
    },
    {
      "place_id": "ChIJH1kiw95pDDkRAAAA0PrS_A0",
      "name": "Rahul Telecom",
      "address": "3HP8+V6H, Sardhana Road, Bhawa-Nagla",
      "lat": 29.0871808,
      "lng": 77.5656064,
      "open_now": null
    },
    {
      "place_id": "ChIJ3y6vxm9uDDkRhPkG_E9nEUY",
      "name": "Reliance Petroleum",
      "address": "Khasra No 1733K, Khatauni No 303 Muzaffarnagar Meerut Road, Nh 58, Daurala",
      "lat": 29.115812,
      "lng": 77.7128601,
      "open_now": true
    },
    {
      "place_id": "ChIJ323V8HBuDDkRgL52wWn4n3A",
      "name": "Bharat Petroleum(Ashok auto store)",
      "address": "4PC7+24G, Daurala Rural",
      "lat": 29.1200726,
      "lng": 77.71284039999999,
      "open_now": null
    },
    {
      "place_id": "ChIJG9etfopvDDkRYeGPf9d4w8A",
      "name": "Bharat Petrol",
      "address": "4P25+R6J, Daurala Sugar Mills",
      "lat": 29.1020857,
      "lng": 77.7080064,
      "open_now": null
    },
    {
      "place_id": "ChIJARdTYy1xDDkRXbSlZbzHs3s",
      "name": "Akshay chauhan",
      "address": "AA PETROLEUM, Modipuram, Meerut",
      "lat": 29.0601731,
      "lng": 77.7615976,
      "open_now": null
    },
    {
      "place_id": "ChIJtVlzYDJvDDkRXyhKWpUdxKM",
      "name": "IndianOil",
      "address": "National Highway 334, Daurala Sugar Mills",
      "lat": 29.1059336,
      "lng": 77.7112011,
      "open_now": true
    },
    {
      "place_id": "ChIJn28Rb-ZvDDkR5UNSoblU3Mo",
      "name": "Hindustan Petroleum Corporation Limited",
      "address": "Khasra No 128, Mohammadpur Hayak",
      "lat": 29.118016,
      "lng": 77.720627,
      "open_now": true
    },
    {
      "place_id": "ChIJRakfNwBxDDkRaLwoZrozgSk",
      "name": "Ms hsd Panchsheel HP Fuel Station",
      "address": "3QX7+J8H, Mithepur",
      "lat": 29.0990746,
      "lng": 77.7633729,
      "open_now": null
    },
    {
      "place_id": "ChIJtZDpjvxwDDkRw_fNIYtzpJk",
      "name": "Petrol Pump",
      "address": "Mail",
      "lat": 29.0857621,
      "lng": 77.8000122,
      "open_now": true
    },
    {
      "place_id": "ChIJfYl4ssVxDDkRCaeqnZ0yihM",
      "name": "IndianOil",
      "address": "Ground Floor, Meerut Pauri Highway, NH 119, Abdullapur, Incholi",
      "lat": 29.0582046,
      "lng": 77.8120826,
      "open_now": true
    },
    {
      "place_id": "ChIJB5x3CsxwDDkRk8BVlsgkV_8",
      "name": "PETROL PUMP, MASOURI",
      "address": "3RGJ+GVG, Meerut - Pauri National Highway",
      "lat": 29.0763129,
      "lng": 77.8322124,
      "open_now": null
    },
    {
      "place_id": "ChIJZ351cZVxDDkRXcmubIWVutI",
      "name": "Hindustan Petroleum Corporation Limited",
      "address": "Ground Floor, Mussoorie Road, Daurala",
      "lat": 29.1117078,
      "lng": 77.77042039999999,
      "open_now": true
    },
    {
      "place_id": "ChIJu6wLVepxDDkRgrerDgQ3Vn0",
      "name": "IndianOil",
      "address": "Ground Floor, Lawar NP",
      "lat": 29.1126757,
      "lng": 77.7653863,
      "open_now": true
    },
    {
      "place_id": "ChIJA0SLdrB3DDkRl2faOJhBMAE",
      "name": "Pramila Energies- Bharat Petroleum, Petrol Pump",
      "address": "N.H. 34, Meerut - Pauri National Highway, Nangli isha, Meerut",
      "lat": 29.08873099999999,
      "lng": 77.8465373,
      "open_now": true
    }
  ]
}