{
  "city": "Moradabad",
  "state": "Uttar Pradesh",
  "count": 138,
  "center": {
    "lat": 28.8386,
    "lng": 78.7733
  },
  "pumps": [
    {
      "place_id": "ChIJ5faGGqD9CjkR3VogBf-fOCc",
      "name": "IndianOil",
      "address": "Hashampur Gopal",
      "lat": 28.80178249999999,
      "lng": 78.68026019999999,
      "open_now": true
    },
    {
      "place_id": "ChIJoYrpCgDjCjkRvhRdOo6dIZk",
      "name": "Hindustan Petroleum Corporation Limited",
      "address": "Ground Floor, Moradabad - Sambhal Road, Bilari, Naseerpur",
      "lat": 28.7110324,
      "lng": 78.7034331,
      "open_now": true
    },
    {
      "place_id": "ChIJd7k_Km77CjkRi3v1RQqyUxw",
      "name": "Essar Petrol Pump",
      "address": "QQW6+FRG, Sambhal Road, Transport Nagar, Moradabad",
      "lat": 28.7961887,
      "lng": 78.7620626,
      "open_now": true
    },
    {
      "place_id": "ChIJr8w64wz8CjkRm20cJbAPNhQ",
      "name": "Hindustan Petroleum Corporation Limited",
      "address": "Ground Floor, Delhi Road, Majhola, Moradabad",
      "lat": 28.8309507,
      "lng": 78.7393483,
      "open_now": true
    },
    {
      "place_id": "ChIJAygEWcLkCjkRratUmEUS1Xg",
      "name": "Petrol Pump",
      "address": "PQRH+RCW, Sikri",
      "lat": 28.7421026,
      "lng": 78.7785813,
      "open_now": null
    },
    {
      "place_id": "ChIJUzsAJw_9CjkRl3r4mKUiPfU",
      "name": "Zaki Malik Gas Service",
      "address": "Gumsani - Ratanpur Road, Bakania",
      "lat": 28.79023949999999,
      "lng": 78.6927279,
      "open_now": true
    },
    {
      "place_id": "ChIJwbCYL3TjCjkR1PYjrGtOFvM",
      "name": "HABIBI FUELS",
      "address": "GATA NO 247 248 VILLAGE YOUSUFPUR NAGLI, PAKBARA ROAD, Dingarpur",
      "lat": 28.7483798,
      "lng": 78.6854999,
      "open_now": true
    },
    {
      "place_id": "ChIJFeYvgt_jCjkRoiQ5rdaDR6k",
      "name": "CNG ONLINE PUMP JATPURA",
      "address": "PPXJ+HWH, Jatpura",
      "lat": 28.74893979999999,
      "lng": 78.73237019999999,
      "open_now": null
    },
    {
      "place_id": "ChIJa7lXUXnjCjkRwmIBDUIckKQ",
      "name": "Pushplata Indian Gas Service",
      "address": "Rasoolpur Main Chouraha, Moradabad",
      "lat": 28.7380181,
      "lng": 78.6911034,
      "open_now": null
    },
    {
      "place_id": "ChIJ1YuYVK3jCjkRijry32I1c1g",
      "name": "J.H FILLING STATION",
      "address": "Aarafpur",
      "lat": 28.7460579,
      "lng": 78.7306244,
      "open_now": true
    },
    {
      "place_id": "ChIJGQSSZgDjCjkRed5pNJcJvZU",
      "name": "Jio bp petrol pump",
      "address": "PPXM+HHC, Moradabad, Sambhal Bahjoi Marg, Jatpura",
      "lat": 28.74892599999999,
      "lng": 78.73388829999999,
      "open_now": null
    },
    {
      "place_id": "ChIJp7ve1kXjCjkRHc2AqbMHghw",
      "name": "IndianOil",
      "address": "Ground Floor Dingarpur, Bilari,Bahadur Nagar, Moradabad",
      "lat": 28.745211,
      "lng": 78.730991,
      "open_now": true
    },
    {
      "place_id": "ChIJh31-VpTjCjkRXLSyRSp43zg",
      "name": "Hindustan Petroleum Corporation Limited",
      "address": "Khasra No 26, Taharpur Doyam, Moradabad",
      "lat": 28.7426867,
      "lng": 78.72803429999999,
      "open_now": true
    },
    {
      "place_id": "ChIJg1_zfJXjCjkRWpJLggmhB-Q",
      "name": "Alifbrax",
      "address": "09, Power House, Sambhal Road, Taharpur I",
      "lat": 28.7415573,
      "lng": 78.7308309,
      "open_now": null
    },
    {
      "place_id": "ChIJp7Dp923jCjkRXmjv5yG6F8Y",
      "name": "Hindustan Petroleum Corporation Limited",
      "address": "Ground Floor, Narora Chauraha, Budaun Delhi Rd, Gunnaur",
      "lat": 28.732058,
      "lng": 78.695192,
      "open_now": true
    },
    {
      "place_id": "ChIJhXfWOgDjCjkREoylU6l0iww",
      "name": "Hindustan Petroleum Corporation Limited",
      "address": "Khata No 607/2, Pakhwara Road, Dingarpur",
      "lat": 28.732058,
      "lng": 78.695192,
      "open_now": true
    },
    {
      "place_id": "ChIJbct9JKj8CjkRaj5AbvRIR9M",
      "name": "IndianOil",
      "address": "Bastaur, 24, Ground Floor, Sambhal Road, Bn Pac, Mohammadpur",
      "lat": 28.770071,
      "lng": 78.747091,
      "open_now": true
    },
    {
      "place_id": "ChIJwSFIES_jCjkRNRhZ1ErwqQ4",
      "name": "Essar petrol Pump",
      "address": "PPJ9+9VC, Sambhal Road, Dingarpur",
      "lat": 28.73205139999999,
      "lng": 78.7204967,
      "open_now": null
    },
    {
      "place_id": "ChIJn1cE_B3jCjkRoC0kPqDcDLI",
      "name": "IndianOil",
      "address": "Gata No 175 Allapur Bhikan, Bilari, Azam Nagar Chopra",
      "lat": 28.7277211,
      "lng": 78.70252719999999,
      "open_now": true
    },
    {
      "place_id": "ChIJAd8yIVn8CjkRXBX376-ESzo",
      "name": "BPCL",
      "address": "Vill. Lakri Fazalpurmbd, Delhi-Lucknow Bypass, Moradabad",
      "lat": 28.807506,
      "lng": 78.7182953,
      "open_now": true
    },
    {
      "place_id": "ChIJv5KZssD9CjkRXljnrHldf5k",
      "name": "IndianOil",
      "address": "Ground Floor, 24, Moradabad Bypass Road, BN PAC, Gannor Deya Mafi",
      "lat": 28.80551149999999,
      "lng": 78.7239877,
      "open_now": true
    },
    {
      "place_id": "ChIJvVXpRQADCzkRw7aLPSH0w6k",
      "name": "Ram Ratan Filling station gumsani",
      "address": "QM53+7GR, Gumsani - Ratanpur Road, Gumsani",
      "lat": 28.7591146,
      "lng": 78.654733,
      "open_now": null
    },
    {
      "place_id": "ChIJvU0YaQTjCjkRD4HquEEKpBM",
      "name": "GS Enterprises Fuel Station",
      "address": "Dingarpur, Moradabad, 69W, Moradabad Sambhal Bahjoi Marg, Moradabad, Moradabad",
      "lat": 28.719,
      "lng": 78.70909999999999,
      "open_now": true
    },
    {
      "place_id": "ChIJ6_JJncP9CjkRiGSlQyhf4kQ",
      "name": "M.S.P Filling Station",
      "address": "near Tractor agency, Village Lalwara, near Tractor agency, Dingarpur Road, Pakwara",
      "lat": 28.8141365,
      "lng": 78.6735928,
      "open_now": null
    },
    {
      "place_id": "ChIJm2g28QbjCjkRtFn7dxAE0jA",
      "name": "Hindustan Petroleum Corporation Limited",
      "address": "Ground Floor, Kundarki - Dingarpur Road, Gurer",
      "lat": 28.7169034,
      "lng": 78.7231285,
      "open_now": true
    },
    {
      "place_id": "ChIJJzgCLAD7CjkRkgZYsVqCj_M",
      "name": "Indian Oil",
      "address": "RP4X+MWJ, Moradabad",
      "lat": 28.8068263,
      "lng": 78.7495413,
      "open_now": true
    },
    {
      "place_id": "ChIJf_It97v7CjkROg7AFys9Y1o",
      "name": "SINGH AUTOMOTIVE ENERGY",
      "address": "MAINTHER PULIYA, Muzarrif Road, Moradabad",
      "lat": 28.8071568,
      "lng": 78.74972679999999,
      "open_now": null
    },
    {
      "place_id": "ChIJY2uO-PD7CjkRcD30G7w7JNc",
      "name": "Life CNG station",
      "address": "RP6W+67Q, Near Venus India Factory, Lakri Fazalpur Road, Mini By Pass, Moradabad",
      "lat": 28.8105983,
      "lng": 78.7457416,
      "open_now": true
    },
    {
      "place_id": "ChIJyTLYJU79CjkRMQlgaKVs6aM",
      "name": "Hindustan Petroleum Corporation Limited",
      "address": "Khasra No, 48, Lakri Fazalpur Road, Chak Fazalpur, Moradabad",
      "lat": 28.81276699999999,
      "lng": 78.743392,
      "open_now": true
    },
    {
      "place_id": "ChIJCWwq7cr7CjkRLt7TURqBYNY",
      "name": "Sabri Filling Station",
      "address": "Mini Bypass, Near, Lakri Road, Transport Nagar, Moradabad",
      "lat": 28.7989988,
      "lng": 78.7583913,
      "open_now": null
    },
    {
      "place_id": "ChIJn2piYAD9CjkRravXDN6vKIs",
      "name": "Hindustan Petroleum Corporation Limited",
      "address": "Ground Floor, Delhi Road, Moradabad",
      "lat": 28.8252599,
      "lng": 78.7111678,
      "open_now": true
    },
    {
      "place_id": "ChIJadoEUDLjCjkRs8z-GHu5GTg",
      "name": "BPCL -Janta Filling station (बीपीसीएल-जनता फिलिंग स्टेशन)",
      "address": "Kundarki - Dingarpur Road, Gurer",
      "lat": 28.7152017,
      "lng": 78.7269072,
      "open_now": true
    },
    {
      "place_id": "ChIJp-zLaL_9CjkRKb2sbutKFE0",
      "name": "IndianOil",
      "address": "Ground Floor Pakbara, Chaudharpur",
      "lat": 28.8234753,
      "lng": 78.68359319999999,
      "open_now": true
    },
    {
      "place_id": "ChIJB0E4gHr8CjkRi98iQsddNFc",
      "name": "Horizone Petrol Pump ( Indian Oil )",
      "address": "RP8Q+WH5, lAKRI FAJALPUR OLD BYPASS, Lakri Fazalpur Road, Lakadi Fajalpur, Moradabad",
      "lat": 28.81726629999999,
      "lng": 78.7389922,
      "open_now": null
    },
    {
      "place_id": "ChIJvWqriiHjCjkRj91Y1EiNwGo",
      "name": "IndianOil",
      "address": "Ground Floor, Sambhal Road, Bilari Naseerpur, Dingarpur",
      "lat": 28.70964699999999,
      "lng": 78.70240299999999,
      "open_now": true
    },
    {
      "place_id": "ChIJc7eWukD8CjkRfohAfnTuDP8",
      "name": "Bharat Petroleum, Petrol Pump -Shri Vasu Filling Station",
      "address": "Delhi Road, Lakri Fazalpur, Moradabad",
      "lat": 28.8264601,
      "lng": 78.7200799,
      "open_now": true
    },
    {
      "place_id": "ChIJK7RWi0sdCzkRKUDynSnMcJI",
      "name": "IndianOil",
      "address": "Ground Floor, Akhtiarpur Thillupura, Gumsani",
      "lat": 28.7471997,
      "lng": 78.639524,
      "open_now": true
    },
    {
      "place_id": "ChIJaUatEwD7CjkRC8ZdWa8TXps",
      "name": "Nro Nanpur",
      "address": "QQ8C+5PX, Moradabad - Chandausi Road, Nanpur",
      "lat": 28.7654913,
      "lng": 78.7718697,
      "open_now": null
    },
    {
      "place_id": "ChIJF2mAQGr7CjkRHQdq-7_Ubdw",
      "name": "S H FILLING STATION",
      "address": "QQ8C+5PX, Moradabad - Chandausi Road, Nanpur",
      "lat": 28.7655077,
      "lng": 78.7719778,
      "open_now": true
    },
    {
      "place_id": "ChIJcypBfQD9CjkRMKX5xjQ1B88",
      "name": "Guru Kripa Energy Station",
      "address": "RPGC+RVH, Lakri Fazalpur, Moradabad",
      "lat": 28.8270608,
      "lng": 78.7222208,
      "open_now": null
    },
    {
      "place_id": "ChIJT3kt_MH7CjkRNm_Iu1BmCXA",
      "name": "Hindustan Petroleum Corporation Limited",
      "address": "Ground Floor, NH 509, Hussainpur, Moradabad",
      "lat": 28.7649943,
      "lng": 78.7725914,
      "open_now": true
    },
    {
      "place_id": "ChIJRUU1eHH7CjkRMf8A0Vcer-k",
      "name": "Makin Shabri Filling Station Bharat Petroleum",
      "address": "State Highway 43, Moradabad - Chandausi Road, Transport Nagar, Moradabad",
      "lat": 28.7996165,
      "lng": 78.76444579999999,
      "open_now": true
    },
    {
      "place_id": "ChIJ-1hJJ6L7CjkRj_w9KHg8QKE",
      "name": "IndianOil",
      "address": "Ground Floor, Kohinoor Tiraha, Moradabad",
      "lat": 28.805057,
      "lng": 78.7659343,
      "open_now": true
    },
    {
      "place_id": "ChIJWWRohJ39CjkRwYjfHK1mwPQ",
      "name": "Fuel Station",
      "address": "RMF7+VM4, Guretha",
      "lat": 28.825365,
      "lng": 78.6644669,
      "open_now": null
    },
    {
      "place_id": "ChIJDa_bphL8CjkRBOB2SSzIwjA",
      "name": "Reliance Petroleum",
      "address": "Khasra No 983B To 990B Majola, Delhi Road, Majhola, Moradabad",
      "lat": 28.82951219999999,
      "lng": 78.73611629999999,
      "open_now": true
    },
    {
      "place_id": "ChIJYUM6wjv7CjkRWYgYPorVd_I",
      "name": "Hindustan Petroleum Corporation Limited",
      "address": "Ground Floor, Kohinoor Tirana, Pandit Nagla, Karula, Moradabad",
      "lat": 28.8051332,
      "lng": 78.76799419999999,
      "open_now": true
    },
    {
      "place_id": "ChIJFYEcopP9CjkRMc-KEd-8Pzk",
      "name": "Rama Filling Station",
      "address": "near Bharat Petroleum Burawali, Hasanpur Road, Moradabad",
      "lat": 28.8305048,
      "lng": 78.73935870000001,
      "open_now": null
    },
    {
      "place_id": "ChIJf7Z0-sLkCjkRZtVvoLxxTRI",
      "name": "HP PETROL PUMP - M R FILLING STATION",
      "address": "NH-509, Chandausi Road, Village Kanakpur Doyam, Domghar",
      "lat": 28.7420997,
      "lng": 78.7783717,
      "open_now": true
    },
    {
      "place_id": "ChIJN99F9sLkCjkRBEJK0UszKzU",
      "name": "M R Filling Station hindustan petroleum",
      "address": "Kanakpur Doyam, Moradabad, NH- 509, Moradabad - Chandausi Road, Moradabad",
      "lat": 28.7421785,
      "lng": 78.77879589999999,
      "open_now": true
    },
    {
      "place_id": "ChIJO5Dpb7jlCjkR1ILuAGzkWxQ",
      "name": "Hindustan Petroleum Corporation Limited",
      "address": "Ground Floor, NH 93, Moradabad - Chandausi Road, Kanakpur, Moradabad",
      "lat": 28.7423776,
      "lng": 78.7792334,
      "open_now": true
    },
    {
      "place_id": "ChIJUdLaU6L7CjkRRPDuNj2gKeI",
      "name": "Hindustan Petroleum Corporation Limited",
      "address": "Ground Floor, Chandausi Road Rehmat Nagar, Eidgah Road, Galshaheed, Karula, Moradabad",
      "lat": 28.8168776,
      "lng": 78.7727295,
      "open_now": true
    },
    {
      "place_id": "ChIJKeKKilL6CjkRmLb5k0ljmo0",
      "name": "IndianOil",
      "address": "Ground Floor, Katghar, Moradabad",
      "lat": 28.8208955,
      "lng": 78.7956914,
      "open_now": true
    },
    {
      "place_id": "ChIJyZ7DMbz7CjkRJyx6BfbMuP4",
      "name": "IndianOil",
      "address": "Ground Floor, opp. Gandhi Nagar, Rampur Road, Gandhi Nagar, Moradabad",
      "lat": 28.825335,
      "lng": 78.773766,
      "open_now": true
    },
    {
      "place_id": "ChIJ0cevIrz7CjkRopfhTXlG5V4",
      "name": "Bharat Petroleum Petrol Pump",
      "address": "RQGF+5R2, Rampur Road, Gandhi Nagar, Moradabad",
      "lat": 28.8253839,
      "lng": 78.7745163,
      "open_now": null
    },
    {
      "place_id": "ChIJD9NMJBn_CjkRUO04N9s_GPA",
      "name": "Hindustan Petroleum Corporation Limited",
      "address": "Ground Floor, near Agwanpur Railway Crossing, Kanth Road, Mughalpura, Moradabad",
      "lat": 28.8313809,
      "lng": 78.78950069999999,
      "open_now": true
    },
    {
      "place_id": "ChIJUwaDPOz7CjkRYgjIHuF-_z4",
      "name": "Petrol Pump",
      "address": "NH 24, Budh Bazaar, Moradabad",
      "lat": 28.8357542,
      "lng": 78.7627461,
      "open_now": true
    },
    {
      "place_id": "ChIJO6WcjAj7CjkRpVu_UP9XnBE",
      "name": "IndianOil",
      "address": "Ground Floor, Pandit Nagla Bypass Road, Moradabad",
      "lat": 28.806963,
      "lng": 78.781464,
      "open_now": true
    },
    {
      "place_id": "ChIJrzHjksP7CjkRfRpY_l4DpcE",
      "name": "Pavan Singh",
      "address": "Main Bazar, near Petrol Pump, Jaintipur Road, Moradabad",
      "lat": 28.8147036,
      "lng": 78.7720152,
      "open_now": null
    },
    {
      "place_id": "ChIJq6d2CDv7CjkRT27u-_jRNiA",
      "name": "Nijakat Hussain",
      "address": "opposite Public School, Sambhal Road, Karula, Moradabad",
      "lat": 28.8148173,
      "lng": 78.7717735,
      "open_now": null
    },
    {
      "place_id": "ChIJeTz43av7CjkROqa6svHaopQ",
      "name": "Hindustan Petroleum Corporation Limited",
      "address": "Khata No 216, Seohara Govind, Khasra No 153, Moradabad",
      "lat": 28.8146783,
      "lng": 78.7877983,
      "open_now": true
    },
    {
      "place_id": "ChIJeTQ5D7D7CjkR698UL98clWU",
      "name": "IndianOil",
      "address": "Ground Floor, Station Road, Moradabad",
      "lat": 28.821732,
      "lng": 78.781944,
      "open_now": true
    },
    {
      "place_id": "ChIJb7hVp7r7CjkRnwt0V1WUjPw",
      "name": "Gopaljee Petroleum",
      "address": "24, Rampur Road, Dalpatpur",
      "lat": 28.8219886,
      "lng": 78.7816141,
      "open_now": null
    },
    {
      "place_id": "ChIJobtobej7CjkRa9LyKTNEp0Q",
      "name": "MD. Bux CNG Filling station",
      "address": "RQFG+5XR, Rampur Road, Shivpuri, Moradabad",
      "lat": 28.8231245,
      "lng": 78.7773237,
      "open_now": true
    },
    {
      "place_id": "ChIJFfXnB1L6CjkRPElTqXZKCRw",
      "name": "दीप विक्रम ऑटो पार्टस",
      "address": "RQCX+V5P, Rampur Road, Hayat Nagar, Pital Nagri, Moradabad",
      "lat": 28.8222049,
      "lng": 78.797949,
      "open_now": null
    },
    {
      "place_id": "ChIJ284JlMf7CjkRpPkjHeqUiA4",
      "name": "LPG gas refilling",
      "address": "RQGV+M4R, Hayat Nagar, Katghar, Moradabad",
      "lat": 28.8267292,
      "lng": 78.7927507,
      "open_now": true
    },
    {
      "place_id": "ChIJfxo8tsD7CjkRUmpfaXOCEB8",
      "name": "NIDHI FIRE SERVICE PVT LTD",
      "address": "RQH4+HM3, near Ramlila Ground Road, Shri Ram Nagar Colony, Vikas Nagar, Line Par, Moradabad",
      "lat": 28.8288879,
      "lng": 78.7566717,
      "open_now": null
    },
    {
      "place_id": "ChIJSTPvL5X7CjkRl9tnkbUrSuQ",
      "name": "Hindustan Petroleum Corporation Limited",
      "address": "Ground Floor, near Moradabad Railway Station, Rampur Road, Moradabad",
      "lat": 28.8306423,
      "lng": 78.7680973,
      "open_now": true
    },
    {
      "place_id": "ChIJTT-x11HkCjkRb-1QZRIO9VE",
      "name": "IndianOil",
      "address": "Ground Floor NH 93, Kulwara, Bilari",
      "lat": 28.70646129999999,
      "lng": 78.7844805,
      "open_now": true
    },
    {
      "place_id": "ChIJnxRwkAP7CjkRgXYbX4PeqUs",
      "name": "Bharat Petroleum, Petrol Pump -Maqdoom Sabri Filling Station",
      "address": "NH-93, Moradabad",
      "lat": 28.8360577,
      "lng": 78.7737167,
      "open_now": true
    },
    {
      "place_id": "ChIJ0Zf36FLlCjkRde42AOvehlE",
      "name": "ITM Automobiles fuel station",
      "address": "Moradabad - Chandausi Road, Kulwara",
      "lat": 28.701114,
      "lng": 78.78525660000001,
      "open_now": true
    },
    {
      "place_id": "ChIJu5m-syDjCjkRg0FWnrn7akY",
      "name": "IndianOil",
      "address": "Dingarpur Rd, Kundarki",
      "lat": 28.7028409,
      "lng": 78.74096130000001,
      "open_now": true
    },
    {
      "place_id": "ChIJa-laLKjxCjkREJjmndP7g5w",
      "name": "Hindustan Petroleum Corporation Limited",
      "address": "Ground Floor, Bareilly Road NH 9, Mundha Pande, Chamraua",
      "lat": 28.817841,
      "lng": 78.891826,
      "open_now": true
    },
    {
      "place_id": "ChIJb31yO2v6CjkR_LvniBrSwUA",
      "name": "IndianOil",
      "address": "Mustafabad Ahatmali",
      "lat": 28.8346694,
      "lng": 78.81925799999999,
      "open_now": true
    },
    {
      "place_id": "ChIJs4ueUADxCjkRu0uPnXQeEIg",
      "name": "Bharat Petroleum, Petrol Pump -Gopaljee Petroleum CNG Pump",
      "address": "MUNDHA PANDEY, Moradabad",
      "lat": 28.82758059999999,
      "lng": 78.8589495,
      "open_now": true
    },
    {
      "place_id": "ChIJhSeg4ojxCjkRgxwnz6_taqQ",
      "name": "Jio-bp",
      "address": "opp. Chandra Dhaba, Ground Floor Nh 24, Dilari, Dalpatpur, opp. Chandra Dhaba, Moradabad",
      "lat": 28.8282101,
      "lng": 78.859169,
      "open_now": true
    },
    {
      "place_id": "ChIJ0XM5mZDwCjkRBzKo84-tZJE",
      "name": "IndianOil",
      "address": "Ground Floor, Delhi Moradabad Road NH 24, Laxmipur Kattai, Kankar Khera",
      "lat": 28.83072429999999,
      "lng": 78.8500105,
      "open_now": true
    },
    {
      "place_id": "ChIJgYH1Kdb7CjkRqC8O46gFkZs",
      "name": "IndianOil",
      "address": "Ground Floor 24, Bn Pac, Dalpatpur",
      "lat": 28.8203882,
      "lng": 78.883495,
      "open_now": true
    },
    {
      "place_id": "ChIJw7_zd6LlCjkRsFJFrun5F4U",
      "name": "IndianOil",
      "address": "Gata No 419420 Mohanpur, Bilari, Akroli",
      "lat": 28.705706,
      "lng": 78.82294499999999,
      "open_now": true
    },
    {
      "place_id": "ChIJ-f7cXmr6CjkRJ1Bgfm59OA4",
      "name": "Bharat Petroleum",
      "address": "RRM9+65M, Rampur Road, Mustafabad Ahatmali",
      "lat": 28.8330909,
      "lng": 78.81792260000002,
      "open_now": null
    },
    {
      "place_id": "ChIJrTi1ZLDvCjkRrN0cdlOUpmQ",
      "name": "Dev Shankar Kisan Sewa Kendra",
      "address": "PV8V+8QQ, Unnamed Road, Lal Tikar Mahesh Nagli Mustahk",
      "lat": 28.7158347,
      "lng": 78.8944892,
      "open_now": null
    },
    {
      "place_id": "ChIJD8aAPq3vCjkRDUUU6dJJF4c",
      "name": "IndianOil",
      "address": "Ground Floor, Lala Tikar Mu,24 Bn Pac, Moradabad Raunda, Chauraha, Road, Moradabad",
      "lat": 28.7151975,
      "lng": 78.8946959,
      "open_now": true
    },
    {
      "place_id": "ChIJVYfafUXxCjkRPTq6fVecNwU",
      "name": "IndianOil",
      "address": "near Toll Tax, Ground Floor, NH 9 Rampur Road, Niyamatpur Ekrotia, near Toll Tax, Plaza, Moradabad",
      "lat": 28.8139552,
      "lng": 78.9050298,
      "open_now": true
    },
    {
      "place_id": "ChIJBaVrMrP-CjkREWMCmJ-RSl0",
      "name": "IndianOil",
      "address": "Ground Floor, Kanth Road, Moradabad",
      "lat": 28.867596,
      "lng": 78.747597,
      "open_now": true
    },
    {
      "place_id": "ChIJq6ray9r-CjkRFbC3AFUuUVQ",
      "name": "Bharat Petroleum, Petrol Pump -Laxmi Automobiles",
      "address": "NEAR S.S. CHILDREN ACAD,KA, Moradabad",
      "lat": 28.8861768,
      "lng": 78.7348753,
      "open_now": true
    },
    {
      "place_id": "ChIJNSjEqDgCCzkRu59-Jzt1B-4",
      "name": "CNG Siti Moradabad",
      "address": "National Highway 9, Dhanupura",
      "lat": 28.8198619,
      "lng": 78.6280178,
      "open_now": true
    },
    {
      "place_id": "ChIJl7hZ2dX9CjkRiwZdPKX09EQ",
      "name": "Rajan Petrol Job",
      "address": "15 Gautam Bhidh Park, Road, Moradabad",
      "lat": 28.84982819999999,
      "lng": 78.73868709999999,
      "open_now": null
    },
    {
      "place_id": "ChIJj3JSuuD9CjkRCzgzXAwAf_s",
      "name": "Aman P.V.C Panel",
      "address": "Indra awas colony, Kashiram Nagar, Moradabad",
      "lat": 28.8454775,
      "lng": 78.7470774,
      "open_now": null
    },
    {
      "place_id": "ChIJYyyLjrH7CjkRCMIIx5TaaUs",
      "name": "Shiv Beauty Corner And Gift Shop",
      "address": "Kashiram Nagar, Moradabad",
      "lat": 28.84340319999999,
      "lng": 78.7513652,
      "open_now": null
    },
    {
      "place_id": "ChIJRZF4MnD_CjkR1cdJt7LRn-I",
      "name": "Jagdish Saini",
      "address": "Moda Tahiya, By Pass, Moradabad",
      "lat": 28.8626781,
      "lng": 78.6573471,
      "open_now": null
    },
    {
      "place_id": "ChIJAeUOqHP_CjkR64hf103JMZU",
      "name": "HP PETROL PUMP",
      "address": "Harthala, Moradabad",
      "lat": 28.8739911,
      "lng": 78.7387785,
      "open_now": null
    },
    {
      "place_id": "ChIJ4VG-jBYBCzkRjE9UWxp8FbA",
      "name": "IndianOil",
      "address": "Kanth 24, Bn Pac, Maudha, Moradabad",
      "lat": 28.8596699,
      "lng": 78.65480339999999,
      "open_now": true
    },
    {
      "place_id": "ChIJl6jbVlL5CjkRp4FWUmmea0A",
      "name": "IndianOil",
      "address": "Ground Floor, Kanth Road, Moradabad",
      "lat": 28.86197099999999,
      "lng": 78.75067899999999,
      "open_now": true
    },
    {
      "place_id": "ChIJ52bUcwD_CjkRt-sgCmj33BQ",
      "name": "Shree Mukut Automobiles",
      "address": "VP9W+3X3, Himgiri Colony Road, Harthala, Moradabad",
      "lat": 28.8676356,
      "lng": 78.7474304,
      "open_now": true
    },
    {
      "place_id": "ChIJu-PGhbT-CjkR_vXr0T9uM4Q",
      "name": "Hindustan Petroleum Corporation Limited",
      "address": "Ground Floor, Kanth Road, Moradabad",
      "lat": 28.87019530000001,
      "lng": 78.74516510000001,
      "open_now": true
    },
    {
      "place_id": "ChIJu9vTtVf5CjkRTV5lA24R5AI",
      "name": "IndianOil",
      "address": "Ground Floor, Kanth Road, Moradabad",
      "lat": 28.854828,
      "lng": 78.756493,
      "open_now": true
    },
    {
      "place_id": "ChIJJTpMGDj_CjkRysXlKUSVa4Y",
      "name": "Hindustan Petroleum Corporation Limited",
      "address": "Ground Floor, Harthala, Moradabad",
      "lat": 28.88340759999999,
      "lng": 78.7328055,
      "open_now": true
    },
    {
      "place_id": "ChIJYw0ZQRoCCzkRSxJdgUMWtHk",
      "name": "IndianOil",
      "address": "Gata No 10 Chak Gindora, Chaudharpur",
      "lat": 28.833834,
      "lng": 78.641762,
      "open_now": true
    },
    {
      "place_id": "ChIJZcZ53vP_CjkRQqx70STerow",
      "name": "IndianOil",
      "address": "Ground Floor, Mahlakpur Nizam,Aghwanpur So, Mahlakpur Nizampur",
      "lat": 28.8929864,
      "lng": 78.70284439999999,
      "open_now": true
    },
    {
      "place_id": "ChIJL5cpASb-CjkRxO491N2pSPA",
      "name": "Hindustan Petroleum Corporation Limited",
      "address": "Ground Floor, Hakimpur Rd, Pakwada, Marg, Mugalpur Urf Aghwanpur Mustahk",
      "lat": 28.87965549999999,
      "lng": 78.662519,
      "open_now": true
    },
    {
      "place_id": "ChIJ3aN9Anz_CjkRmn26ISOVa6A",
      "name": "IndianOil",
      "address": "Ground Floor, Kanth Road, Moradabad",
      "lat": 28.886767,
      "lng": 78.734411,
      "open_now": true
    },
    {
      "place_id": "ChIJT3WhVGsCCzkRpc07yuKlpP0",
      "name": "IndianOil",
      "address": "Ground Floor Chaudharpur, Lodhipur Rajput",
      "lat": 28.820447,
      "lng": 78.6397643,
      "open_now": true
    },
    {
      "place_id": "ChIJv02uS6X_CjkRwPvq30x9rHQ",
      "name": "Hindustan Petroleum Corporation Limited",
      "address": "Gata No 149, Hakimpur-Agwanpur Road, Fatehpur Bisnoi",
      "lat": 28.8955756,
      "lng": 78.6677077,
      "open_now": true
    },
    {
      "place_id": "ChIJlwM5ucUDCzkRaOrL248xGp0",
      "name": "Torrent CNG pump",
      "address": "RJ9G+QWX, National Highway 9, Dhanupura",
      "lat": 28.8194942,
      "lng": 78.6273552,
      "open_now": true
    },
    {
      "place_id": "ChIJ1QIgXwH7CjkR95WB3WmkOaw",
      "name": "Balamview Fuel Station",
      "address": "Real Complex, 14, Jamia Naimia Road, Moradabad",
      "lat": 28.8419985,
      "lng": 78.7831942,
      "open_now": null
    },
    {
      "place_id": "ChIJzdgga6X7CjkRS1TOgkopy9w",
      "name": "IndianOil",
      "address": "171, Jama Masjid Rd 24 Bn Pac, Rasulpur Nagla Khem, Moradabad",
      "lat": 28.8398522,
      "lng": 78.8068457,
      "open_now": true
    },
    {
      "place_id": "ChIJ5VeRtj36CjkRwSwtyqBYE3Y",
      "name": "Nayara Petrol Pump",
      "address": "Rasulpur Nagla Kham",
      "lat": 28.8424268,
      "lng": 78.8131737,
      "open_now": true
    },
    {
      "place_id": "ChIJ_7quqrj7CjkRY26u_Vc-S-w",
      "name": "Cng pump",
      "address": "Rampur Road, Tajpur Mafi",
      "lat": 28.8395545,
      "lng": 78.8266312,
      "open_now": true
    },
    {
      "place_id": "ChIJP4mCCkOpDjkRUiaqpNw8C1Q",
      "name": "IndianOil",
      "address": "Ground Floor, Kashipur Tiraha, Rampur Road, Ekta Vihar South, Moradabad",
      "lat": 28.8395649,
      "lng": 78.82663769999999,
      "open_now": true
    },
    {
      "place_id": "ChIJ57WGRBv6CjkRdbkxfg98Yws",
      "name": "IndianOil",
      "address": "Ground Floor, SH 41, 24, Bn Pac, Chak, Begampur",
      "lat": 28.8523549,
      "lng": 78.82580740000002,
      "open_now": true
    },
    {
      "place_id": "ChIJmctsTQD5CjkR5p7x6uJvwtY",
      "name": "हटहट चौराहा",
      "address": "VRFM+GQF, Hathat",
      "lat": 28.8738014,
      "lng": 78.8344068,
      "open_now": null
    },
    {
      "place_id": "ChIJh5C6x-P5CjkRr3NUBWOx8M8",
      "name": "IndianOil",
      "address": "Ground Floor SH 41, 24, Bn Pac, Thakurdwara, Hathat",
      "lat": 28.875866,
      "lng": 78.834671,
      "open_now": true
    },
    {
      "place_id": "ChIJPdzKYgD5CjkRM70cv95tAxI",
      "name": "Shobhit saxena",
      "address": "WQ2V+W5W",
      "lat": 28.9023635,
      "lng": 78.792953,
      "open_now": null
    },
    {
      "place_id": "ChIJMV3_s7nxCjkRlzoqA1ltoaQ",
      "name": "NATIONAL FILLING STATION (Bharat Petroleum)",
      "address": "Kashipur Road, Veerpur",
      "lat": 28.8428167,
      "lng": 78.8859877,
      "open_now": true
    },
    {
      "place_id": "ChIJ20IwL6HxCjkROXmdai9wyGU",
      "name": "Nasir filling station",
      "address": "RWX3+68V, Bujhpur Asha",
      "lat": 28.8493739,
      "lng": 78.9016202,
      "open_now": null
    },
    {
      "place_id": "ChIJh92vauLxCjkROIcUzysC0dQ",
      "name": "IndianOil",
      "address": "Ground Floor, 24 BN, Pac Khushalpur Road, Bujhpur Asha",
      "lat": 28.849834,
      "lng": 78.901611,
      "open_now": true
    },
    {
      "place_id": "ChIJPXbirn33CjkRv7zhDNeXi-Y",
      "name": "Hindustan Petroleum Corporation Limited",
      "address": "Ground Floor, Moradabad - Kashipur Road, Sirswan Gaur",
      "lat": 28.8982033,
      "lng": 78.8405651,
      "open_now": true
    },
    {
      "place_id": "ChIJRxEtqRTxCjkRcsvv5k7mbog",
      "name": "Jai Durga Filling Station [ Nayara Energy Petrol Pump ]",
      "address": "Moradabad, 202/2 Boojpur Asha Near karanpur chowki",
      "lat": 28.8547168,
      "lng": 78.9111034,
      "open_now": true
    },
    {
      "place_id": "ChIJfXsySELxCjkRdOHGqlBpPio",
      "name": "IndianOil - SWAGAT",
      "address": "Plot No 437, Niyamatpur Ekrotia Akhtiarpur, Thillupura, Moradabad",
      "lat": 28.810427,
      "lng": 78.9134296,
      "open_now": true
    },
    {
      "place_id": "ChIJfTbh1IH3CjkR30BLoBFwtvU",
      "name": "IndianOil",
      "address": "Ground Floor, Sirswa Gaur, NH 734, Moradabad",
      "lat": 28.9067578,
      "lng": 78.8412249,
      "open_now": true
    },
    {
      "place_id": "ChIJF5Sr1YT_CjkRBsx-N5owWSo",
      "name": "Royal filling station",
      "address": "Serua Dharampur",
      "lat": 28.9176504,
      "lng": 78.6985629,
      "open_now": null
    },
    {
      "place_id": "ChIJP7S43tf_CjkRToFgDXz8up4",
      "name": "IndianOil",
      "address": "Ground Floor, Kanth Road, Aghwanpur, Akbarpur Sihali",
      "lat": 28.914154,
      "lng": 78.712971,
      "open_now": true
    },
    {
      "place_id": "ChIJ34Ub8w3_CjkRV5c2LcHOV5g",
      "name": "JAIN FILLING STATION",
      "address": "JAIN FILLING STATION, Agwanpur",
      "lat": 28.9110542,
      "lng": 78.7156849,
      "open_now": true
    },
    {
      "place_id": "ChIJsSekSm__CjkR7iqg6BQKtR4",
      "name": "Hindustan Petroleum Corporation Limited",
      "address": "Khasra No, 1039M, Kanwar Path, Mugalpur Urf Aghwanpur Mustahk",
      "lat": 28.9291671,
      "lng": 78.7194102,
      "open_now": true
    },
    {
      "place_id": "ChIJNTpzSI9VCjkREkI3-eqUX_Q",
      "name": "IndianOil",
      "address": "Ground Floor Ladawali, Kanth Road, Kanth, Aghwanpur, Moradabad",
      "lat": 28.942586,
      "lng": 78.68277599999999,
      "open_now": true
    },
    {
      "place_id": "ChIJMbKXDlJVCjkRO6x7EuShGaA",
      "name": "HMS Petrol Pump",
      "address": "XM2X+MV8, Sarai Khajru",
      "lat": 28.950609,
      "lng": 78.700007,
      "open_now": true
    },
    {
      "place_id": "ChIJH4wAK8n5CjkRynyxeMJCcYQ",
      "name": "IndianOil",
      "address": "Khasra No 369, 24, Dilari - Moradabad Road, Bn Pac, Saidpur Khaddar",
      "lat": 28.9175847,
      "lng": 78.75515759999999,
      "open_now": true
    },
    {
      "place_id": "ChIJX4RlBcn4CjkRxDBXX7T7kSo",
      "name": "Bharat Petroleum Corporation Limited Satpal",
      "address": "WQ94+F4V, Islampur Rampura",
      "lat": 28.9187376,
      "lng": 78.7552958,
      "open_now": true
    },
    {
      "place_id": "ChIJSUPeAgABCzkRNqy_bQDpDTs",
      "name": "Ganga Automobile",
      "address": "VJXP+WMF, Nazrana",
      "lat": 28.8998125,
      "lng": 78.6366719,
      "open_now": true
    },
    {
      "place_id": "ChIJOSwZT_VVCjkRNE2ngrDSzN8",
      "name": "Hindustan Petroleum Corporation Limited",
      "address": "Khasra No 270, Dilari - Moradabad Road, Badera",
      "lat": 28.971499,
      "lng": 78.7415274,
      "open_now": true
    },
    {
      "place_id": "ChIJTySA3g_4CjkRxpOmjgSdHoE",
      "name": "IndianOil",
      "address": "Ground Floor, Baheri Brahmnan, Bhojpur",
      "lat": 28.940027,
      "lng": 78.825475,
      "open_now": true
    },
    {
      "place_id": "ChIJrQh5XrNXCjkRxgBS26EbSoY",
      "name": "IndianOil",
      "address": "Ground Floor, Mansoorpur,Baheri Brahmnan, Mansoorpur",
      "lat": 28.972056,
      "lng": 78.792581,
      "open_now": true
    },
    {
      "place_id": "ChIJm1ysuTdXCjkRkHrMaaM7T5Q",
      "name": "IndianOil",
      "address": "Ground Floor, Baheri Brahmnan, Bhojpur",
      "lat": 28.956867,
      "lng": 78.82513399999999,
      "open_now": true
    },
    {
      "place_id": "ChIJP3kLYuVXCjkRvThEmQ34PgY",
      "name": "IndianOil",
      "address": "Moradabad, Ground Floor, Mooradabad Bypass Road Thakurdwara, Baheri Brahmnan",
      "lat": 28.9736893,
      "lng": 78.80198229999999,
      "open_now": true
    },
    {
      "place_id": "ChIJ4QdJbgD3CjkR5vOVk5jj-TA",
      "name": "RKS AUTOMOBILE",
      "address": "WVC9+G3, Sardar Nagar",
      "lat": 28.9213448,
      "lng": 78.86769869999999,
      "open_now": true
    },
    {
      "place_id": "ChIJUzEfPAD3CjkR1IKitwqwOuA",
      "name": "Bhagwati Filling Station CNG",
      "address": "Rana, Sugal Mill, opp. Torrent Gas Pump, Moradabad",
      "lat": 28.9243176,
      "lng": 78.8715782,
      "open_now": true
    },
    {
      "place_id": "ChIJY-LgiLf3CjkRl55jjgflMWs",
      "name": "IndianOil",
      "address": "Ground Floor, Tanda Bajpur Road Dungarpur, Daryal",
      "lat": 28.927953,
      "lng": 78.875587,
      "open_now": true
    },
    {
      "place_id": "ChIJA09ZyIf3CjkRe8gFxHkH5o8",
      "name": "Bharat Petroleum",
      "address": "WVPQ+VWJ, Bhojpur - Kashipur Road, Malwara Urf Manpur",
      "lat": 28.9372063,
      "lng": 78.8897782,
      "open_now": true
    },
    {
      "place_id": "ChIJlW70Ed9ZCjkRPPnTjasRy-M",
      "name": "IndianOil",
      "address": "near Shahi Garden Marriage Hall, Khasra No 121 Devipur Mustahkam, near Shahi Garden Marriage Hall, Jalpur",
      "lat": 28.9785595,
      "lng": 78.84585539999999,
      "open_now": true
    }
  ]
}