{
  "from": "Kolkata",
  "to": "Chennai",
  "count": 1080,
  "pumps": [
    {
      "place_id": "ChIJSdySCrF3AjoRMR2ogWwAx3Q",
      "name": "Petrol Pump",
      "lat": 22.5742931,
      "lng": 88.352904,
      "address": "H9F3+P56, India Exchange Place Road, Chitpur, Barabazar Market, Kolkata",
      "open_now": null
    },
    {
      "place_id": "ChIJpVpFpzN2AjoRcJmPbVjETPo",
      "name": "Bharat Petroleum, Petrol Pump -B D Auto Corner",
      "lat": 22.595603,
      "lng": 88.36527,
      "address": "62, Jatindra Mohan Avenue, Ward Number 10, Kolkata",
      "open_now": true
    },
    {
      "place_id": "ChIJ9RgYsqh3AjoRZPzxgHJu7Co",
      "name": "Central Services",
      "lat": 22.568523,
      "lng": 88.352651,
      "address": "3 & 5, Ganesh Chandra Avenue,, Kolkata",
      "open_now": true
    },
    {
      "place_id": "ChIJx8BKArh3AjoRrBnAEf33U98",
      "name": "Posta Petrol Pump",
      "lat": 22.58725,
      "lng": 88.3528043,
      "address": "207, Maharshi Debendra Road, Jorabagan, Kolkata",
      "open_now": null
    },
    {
      "place_id": "ChIJvzCmQrF3AjoRKxzN-JV9AY0",
      "name": "Hindustan Petroleum Corporation Limited",
      "lat": 22.580241,
      "lng": 88.35720099999999,
      "address": "116B, Rabindra Sarani, Bara Bazar, Kolkata",
      "open_now": true
    },
    {
      "place_id": "ChIJT4ASrqh3AjoRh1oTMSIcjeE",
      "name": "Bharat Petroleum",
      "lat": 22.5694513,
      "lng": 88.3537875,
      "address": "2, Ganesh Chandra Avenue, Bara Bazar, Bowbazar, Kolkata",
      "open_now": true
    },
    {
      "place_id": "ChIJC-xhwUV2AjoRIMNW91an8Qs",
      "name": "Bharat Gas",
      "lat": 22.5786873,
      "lng": 88.37383679999999,
      "address": "H9HF+FGG, Acharya Prafulla Chandra Road, Rajabazar, Garpar, Machuabazar, Kolkata",
      "open_now": true
    },
    {
      "place_id": "ChIJLbra0AB3AjoRg6GIMc_SWEQ",
      "name": "Bharat Petroleum",
      "lat": 22.5613355,
      "lng": 88.358486,
      "address": "H965+G9Q, Surendra Nath Banerjee Rd, Rani Rashmoni Road, Wellington, Taltala, Kolkata",
      "open_now": true
    },
    {
      "place_id": "ChIJnVxuTEV2AjoRIXj0vVZZONU",
      "name": "IndianOil",
      "lat": 22.5834643,
      "lng": 88.3742357,
      "address": "120/2, Acharya Prafulla Chandra Road, Machuabazar, Kolkata",
      "open_now": true
    },
    {
      "place_id": "ChIJA5lvUEZ2AjoRbOdPFHL9_FU",
      "name": "Hindustan Petroleum - Manicktola Service Station",
      "lat": 22.5842788,
      "lng": 88.374386,
      "address": "near IndianOil, 120/2, Acharya Prafulla Chandra Road, Manicktala, Goa Bagan, Machuabazar, Kolkata",
      "open_now": null
    },
    {
      "place_id": "ChIJ21MbKDd2AjoRkBbXd4TqSRw",
      "name": "IndianOil",
      "lat": 22.5933047,
      "lng": 88.37030349999999,
      "address": "151, Bidhan Sarani Road, Hati Bagan, Shobhabazar, Kolkata",
      "open_now": true
    },
    {
      "place_id": "ChIJOz6EL_l2AjoRvSO7qJmy-8Y",
      "name": "IndianOil",
      "lat": 22.5604338,
      "lng": 88.3681656,
      "address": "P9, Doctor Suresh Sarkar Road, Scheme 4, Maula Ali, Raja Bazar, Kolkata",
      "open_now": true
    },
    {
      "place_id": "ChIJLxnC6TV2AjoR1x30qMpTQNA",
      "name": "Hindustan Petroleum Corporation Limited",
      "lat": 22.589131,
      "lng": 88.366861,
      "address": "17, Abhedananda Road, Kolkata",
      "open_now": true
    },
    {
      "place_id": "ChIJ64X5Jvx2AjoRGizedc7NOlc",
      "name": "IndianOil",
      "lat": 22.55801599999999,
      "lng": 88.366013,
      "address": "160, Acharya Jagdish Chandra Bose Road, Maula Ali, Bowbazar, Kolkata",
      "open_now": true
    },
    {
      "place_id": "ChIJ59sZF6J3AjoRcPeSrOOu0IE",
      "name": "Hindustan Petroleum",
      "lat": 22.570225,
      "lng": 88.3447076,
      "address": "Hindustan Petroleum Retail Regional Office (2nd Floor), 6, Church Lane, Kolkata",
      "open_now": false
    },
    {
      "place_id": "ChIJi0pH4DN2AjoRA1al7hH7cao",
      "name": "The Bengal Petroleum Company",
      "lat": 22.5950398,
      "lng": 88.3675347,
      "address": "65, Sri Arvind Sarani, Kolkata",
      "open_now": null
    },
    {
      "place_id": "ChIJt6Godht3AjoRTSndzw3QQcg",
      "name": "Hindustan Petroleum Corporation Limited",
      "lat": 22.551411,
      "lng": 88.35416099999999,
      "address": "69, Park Street, Kolkata",
      "open_now": true
    },
    {
      "place_id": "ChIJhex19g93AjoR4fTfM3AloCg",
      "name": "IndianOil",
      "lat": 22.553003,
      "lng": 88.353073,
      "address": "No 57, Taltala, Kolkata",
      "open_now": true
    },
    {
      "place_id": "ChIJF_-8TOV2AjoRif_RxnmakCI",
      "name": "Bharat Petroleum Petrol Pump",
      "lat": 22.552089,
      "lng": 88.37177,
      "address": "120, CIT Road, Paddapukur, Entally, Kolkata",
      "open_now": true
    },
    {
      "place_id": "ChIJU5spNy52AjoRa90qR16JHek",
      "name": "Super Avenue Service Station",
      "lat": 22.600708,
      "lng": 88.3696182,
      "address": "Shyambazar Metro, 80/1, Bhupendra Bose Avenue, Station Gate 4, Kolkata",
      "open_now": true
    },
    {
      "place_id": "ChIJEdzt5Kh4AjoRu-S58bmFB5A",
      "name": "Hindustan Petroleum Corporation Limited",
      "lat": 22.6067701,
      "lng": 88.2537301,
      "address": "Ground Floor, NH 6, Kolkata - Mumbai Highway, Domjur, Nibra",
      "open_now": true
    },
    {
      "place_id": "ChIJW2ZMsfJ4AjoRVSYG8r64hkI",
      "name": "Hindustan Petroleum Corporation Limited",
      "lat": 22.5863911,
      "lng": 88.276215,
      "address": "No 01, Unsani, Moukhali, GIP Colony, Jagacha, Howrah",
      "open_now": true
    },
    {
      "place_id": "ChIJT7WCOF1_AjoRNpamjdbk2Xc",
      "name": "Hindustan Petroleum Corporation Limited",
      "lat": 22.599201,
      "lng": 88.2278601,
      "address": "Ground Floor, NH 6, Mahiari",
      "open_now": true
    },
    {
      "place_id": "ChIJZ_dcuu6B-DkRfftIaVqCnXo",
      "name": "IndianOil",
      "lat": 22.6268105,
      "lng": 88.2321552,
      "address": "Lock No 439, Domjur, Baluhati",
      "open_now": true
    },
    {
      "place_id": "ChIJvc93X-d4AjoRiozv5EKtKbs",
      "name": "IndianOil",
      "lat": 22.57020009999999,
      "lng": 88.26580009999999,
      "address": "Ground Floor, mouri, Panchpara, Andul, Radhadasi",
      "open_now": true
    },
    {
      "place_id": "ChIJ21NPsG1_AjoRBONoeSWKlvU",
      "name": "IndianOil",
      "lat": 22.5900351,
      "lng": 88.2187953,
      "address": "Lock No 516, NH 6, Biparnna Para, Jangalpur",
      "open_now": true
    },
    {
      "place_id": "ChIJm8haNAB5AjoRHAeqaIkA9Pg",
      "name": "Bharat Petroleum, Petrol Pump -Atulanand S/S",
      "lat": 22.6110415,
      "lng": 88.2684312,
      "address": "SALAP, HOWRAH, Howrah",
      "open_now": true
    },
    {
      "place_id": "ChIJ-xVxgwt5AjoRwu35wFp6izQ",
      "name": "IndianOil",
      "lat": 22.59407939999999,
      "lng": 88.263464,
      "address": "Unsani, On, Kona Expressway, Howrah",
      "open_now": true
    },
    {
      "place_id": "ChIJc4jAa6l4AjoRC53ofa8FKR4",
      "name": "IndianOil",
      "lat": 22.605813,
      "lng": 88.247009,
      "address": "J64W+9R3, Ground Floor Andul, Mouri, Prasastha, Domjur, Ankurhati, Howrah",
      "open_now": true
    },
    {
      "place_id": "ChIJ03HqRReD-DkRUwrSf2fvD3U",
      "name": "BGCL LCNG cum Mother Station, Salap More",
      "lat": 22.61180539999999,
      "lng": 88.2704342,
      "address": "J76C+P5F, Salap, Howrah",
      "open_now": null
    },
    {
      "place_id": "ChIJu-aCggR_AjoRHTz4b6DEngQ",
      "name": "Ankur Filling Station",
      "lat": 22.6081538,
      "lng": 88.2448137,
      "address": "J65V+7W8, Ankur Filling Station HP Petrol Pump Retail Outlet Ankurhati Battala near Axis Bank Ankurhati Branch, PO-Salap, PS, Domjur, Howrah",
      "open_now": null
    },
    {
      "place_id": "ChIJQb8WgVB_AjoRs1Xak9V_Vac",
      "name": "IndianOil",
      "lat": 22.6016254,
      "lng": 88.2365041,
      "address": "Ground Floor, Ankurhati Road, Andul, Howrah",
      "open_now": true
    },
    {
      "place_id": "ChIJb0Hmg5Z5AjoRMAx7Mk-idsM",
      "name": "Mini World",
      "lat": 22.5835945,
      "lng": 88.249265,
      "address": "2, Andul Road, Andul Mauri, Andul, Howrah",
      "open_now": null
    },
    {
      "place_id": "ChIJb-bZOwB_AjoRGJ96lYGFstY",
      "name": "Andol bus stop, HP petrol pump",
      "lat": 22.58470329999999,
      "lng": 88.2431233,
      "address": "H6MV+W77, Andul Road, Andul Bus Stop, Kamrangu, Duillya, Howrah",
      "open_now": null
    },
    {
      "place_id": "ChIJuVExpDV_AjoRhtI89kz98g0",
      "name": "Hindustan Petroleum Corporation Limited",
      "lat": 22.584351,
      "lng": 88.24326099999999,
      "address": "Ground Floor, Andul Road, Duillya, Howrah",
      "open_now": true
    },
    {
      "place_id": "ChIJNc-Wk_CB-DkRWla373PeS9k",
      "name": "Hindustan Petroleum Corporation Limited",
      "lat": 22.623421,
      "lng": 88.239671,
      "address": "Ground Floor, Domjur, Makardah, Howrah",
      "open_now": true
    },
    {
      "place_id": "ChIJbX2lrpJ5AjoRGJOpdY7fa2Y",
      "name": "Kumar Shop",
      "lat": 22.610594,
      "lng": 88.2874843,
      "address": "Dashnagar, Balitikuri, Howrah",
      "open_now": null
    },
    {
      "place_id": "ChIJrcIoQ6R5AjoRqjHVwjs8ZfU",
      "name": "Hindustan Petroleum Corporation Limited",
      "lat": 22.6058454,
      "lng": 88.2896641,
      "address": "Dag No 1085, Amta Road, Dasnagar, Balitikuri, Howrah",
      "open_now": true
    },
    {
      "place_id": "ChIJEcXZ7zd_AjoRjQfDzx-aTUs",
      "name": "SADHUKHAN BROTHERS",
      "lat": 22.585521,
      "lng": 88.2370286,
      "address": "Andul Road, Andul Mauri, Andul, Mahiari",
      "open_now": true
    },
    {
      "place_id": "ChIJMeroHt14AjoRudFkZkRYZuk",
      "name": "HP Petrol Pump Adhoc Shroff Brothers Mourigram",
      "lat": 22.5735246,
      "lng": 88.26330349999999,
      "address": "H79C+33H, Panchpara, Andul Road, Panchpara, Mourigram, Howrah",
      "open_now": true
    },
    {
      "place_id": "ChIJ17S6hniAAjoRMUKSHrGbw70",
      "name": "IndianOil",
      "lat": 22.5703728,
      "lng": 88.1678316,
      "address": "Lock I 468 NH 6, Mouri, Andul, Howrah",
      "open_now": true
    },
    {
      "place_id": "ChIJVb4ukmCAAjoR2-Qamt16pEs",
      "name": "IndianOil",
      "lat": 22.565323,
      "lng": 88.15001099999999,
      "address": "Ground Floor, Joynagar, Panchla, Andul, Ranihati",
      "open_now": true
    },
    {
      "place_id": "ChIJi01BzJOAAjoRg2PCsVwW3Zs",
      "name": "IndianOil",
      "lat": 22.546423,
      "lng": 88.152819,
      "address": "L No, 531, Banharishpur, Kulai",
      "open_now": true
    },
    {
      "place_id": "ChIJhbFhpseAAjoRGYCeVVmcRtU",
      "name": "BROADWAY SERVICE",
      "lat": 22.5285346,
      "lng": 88.14696920000002,
      "address": "G4HW+8JR, Badshahi Road, Beldubi, Nalpur, Howrah",
      "open_now": true
    },
    {
      "place_id": "ChIJabErAQB_AjoRm6Ph9jEMfuE",
      "name": "Highway Service Station",
      "lat": 22.5704764,
      "lng": 88.16819939999999,
      "address": "H5C8+4X5, State Highway 6, Paniara, Dhulagori, Sandhipur",
      "open_now": null
    },
    {
      "place_id": "ChIJla17C-SBAjoRJ1i0kr_45dc",
      "name": "Bharat gas office, Ranihati",
      "lat": 22.5592754,
      "lng": 88.158723,
      "address": "H555+PCG, Biki Hakola",
      "open_now": null
    },
    {
      "place_id": "ChIJJbB4PhWBAjoR84TwkuplfsQ",
      "name": "IndianOil",
      "lat": 22.557731,
      "lng": 88.159156,
      "address": "Lock No 419 Bombay Road, Mouri, Paniara, Andul, Howrah",
      "open_now": true
    },
    {
      "place_id": "ChIJP-VNPoaAAjoR1SymfIxM46Q",
      "name": "Bombay Service station",
      "lat": 22.5574105,
      "lng": 88.15936119999999,
      "address": "Paniara, Ranihati, Howrah",
      "open_now": true
    },
    {
      "place_id": "ChIJjyB9VWN_AjoR7T-WDnmQrlI",
      "name": "Bharat Petroleum, Petrol Pump -Bhambra Auto Centre",
      "lat": 22.5740138,
      "lng": 88.1793618,
      "address": "JALADHULAGORI,HOWRAH, Howrah",
      "open_now": true
    },
    {
      "place_id": "ChIJ66-Yw05_AjoR1bEiUQJJsTk",
      "name": "SOHAN vai",
      "lat": 22.551916,
      "lng": 88.17098,
      "address": "H52C+H3R, Jala kendua, Dhulagori, Banharishpur",
      "open_now": null
    },
    {
      "place_id": "ChIJj0R7LwCBAjoRXkky67T94CA",
      "name": "NISHTHA FILLING STATION",
      "lat": 22.5870314,
      "lng": 88.15963219999999,
      "address": "H5P5+RV6, Gangadharpur",
      "open_now": true
    },
    {
      "place_id": "ChIJx5AxbACBAjoRfBFJpuJPNnc",
      "name": "Shinning club",
      "lat": 22.557295,
      "lng": 88.1429515,
      "address": "H44V+W58, Biki Hakola",
      "open_now": null
    },
    {
      "place_id": "ChIJ72N1gsh_AjoR6NMVEvPBKzk",
      "name": "IndianOil",
      "lat": 22.57375499999999,
      "lng": 88.184803,
      "address": "Jaladhulagori Toll Plaza, Lock No 539 NH 6, Andul Mouri Road, Howrah",
      "open_now": true
    },
    {
      "place_id": "ChIJtVKSrGeBAjoRFw3HVHg5omU",
      "name": "Indian Oil Franchise",
      "lat": 22.5668968,
      "lng": 88.1380045,
      "address": "22bigha, Amta - Ranihati Road, Mallik Bagan",
      "open_now": null
    },
    {
      "place_id": "ChIJz7pUqGd_AjoR0jkK4s0oJ6M",
      "name": "Bharat Petroleum, Petrol Pump -Raibarielly Service Station",
      "lat": 22.5750983,
      "lng": 88.188189,
      "address": "DHULAGORI,NH-6, Howrah",
      "open_now": true
    },
    {
      "place_id": "ChIJd0GGHw5_AjoRVqQDBjAyuIE",
      "name": "IndianOil",
      "lat": 22.5786145,
      "lng": 88.18846099999999,
      "address": "Ground Floor Mallikpara, Panchla, Andul, Jujarsaha",
      "open_now": true
    },
    {
      "place_id": "ChIJa5-Mg_9_AjoRJ36BlviD_30",
      "name": "IndianOil",
      "lat": 22.573661,
      "lng": 88.19209699999999,
      "address": "Lock No 1009 Dhulagarh, mouri, Andul, Howrah",
      "open_now": true
    },
    {
      "place_id": "ChIJkdM2nT2AAjoRlBRkZwgwmjc",
      "name": "Hindustan Petroleum Corporation Limited",
      "lat": 22.594231,
      "lng": 88.148021,
      "address": "Ground Floor, Panchla, Jujarsaha",
      "open_now": true
    },
    {
      "place_id": "ChIJ14-QW6yBAjoR6VZj185eskc",
      "name": "IndianOil",
      "lat": 22.5657943,
      "lng": 88.1303028,
      "address": "Ground Floor Subharara, Panchla",
      "open_now": true
    },
    {
      "place_id": "ChIJ0aaq5rp_AjoRnGvElkEA8Cw",
      "name": "Hindustan Petroleum Corporation Limited",
      "lat": 22.5765601,
      "lng": 88.19591009999999,
      "address": "Ground Floor, NH 6, Kolkata - Mumbai Highway, New Korolla, Howrah",
      "open_now": true
    },
    {
      "place_id": "ChIJh1hLh2GGAjoRYWyW3HvbgP4",
      "name": "Bharat Petroleum (Himayet Service Station)",
      "lat": 22.463133,
      "lng": 88.1048474,
      "address": "BAHIR Parijat, Fatepur, Kalibari, Bhatura, GANGARAMPUR",
      "open_now": true
    },
    {
      "place_id": "ChIJn8vauHGHAjoRc4WHSe_pDNU",
      "name": "IndianOil",
      "lat": 22.477663,
      "lng": 88.090627,
      "address": "Ground Floor, NH-6, Jadurberia, Uluberia, Howrah",
      "open_now": true
    },
    {
      "place_id": "ChIJDbW5YwCFAjoRx4a0gj2qwJU",
      "name": "IndianOil",
      "lat": 22.4781256,
      "lng": 88.08376109999999,
      "address": "F3HM+7G2, Banitabla, Uluberia, Howrah",
      "open_now": null
    },
    {
      "place_id": "ChIJVxFTmuGFAjoRqJXkNzbOv2A",
      "name": "Hindustan Petroleum Corporation Limited",
      "lat": 22.477301,
      "lng": 88.074101,
      "address": "Ground Floor, NH 6, Bombay Road, Kaijuri, Uluberia, Howrah",
      "open_now": true
    },
    {
      "place_id": "ChIJEYIewjmEAjoRKjdLlm9NgSc",
      "name": "Hindustan Petroleum Corporation Limited",
      "lat": 22.4784279,
      "lng": 88.07389529999999,
      "address": "KM Stone, Ground Floor NH 6, 52 & 53, Bombay Road, Kaijuri, Uluberia, Howrah",
      "open_now": true
    },
    {
      "place_id": "ChIJiSI731mFAjoRZGYyi1hwr3k",
      "name": "Bharat Petroleum Petrol Pump",
      "lat": 22.4780494,
      "lng": 88.06422160000001,
      "address": "ULUBERIA,MAHESHPUR, NH-6, HO, Howrah",
      "open_now": true
    },
    {
      "place_id": "ChIJlUZmDJqFAjoRX5uDoMrc62I",
      "name": "Indian Oil Corp. Ltd. RO - Haris Filling Station",
      "lat": 22.4786025,
      "lng": 88.06014259999999,
      "address": "NH-16 (beside Patton Int'l Ltd.), Vill. Malanchaberia, P.O, P.S, Birshibpur, Uluberia, Howrah",
      "open_now": true
    },
    {
      "place_id": "ChIJBUlHH2CFAjoRcV3SlixJnYI",
      "name": "Jagannath Service Station",
      "lat": 22.4975441,
      "lng": 88.0724146,
      "address": "Vill-Jagatpur,PO-Brindabanpur,PS-Ulubaria,Dist-Howrah NH-6,Near Ulubaria Left Side of NH, Howrah",
      "open_now": null
    },
    {
      "place_id": "ChIJeSctKdGHAjoR9Elwv8h7big",
      "name": "Hindustan Petroleum Corporation Limited",
      "lat": 22.4904464,
      "lng": 88.1150593,
      "address": "JL No 95 NH 16, Jagatpur East Road, Uluberia, Howrah",
      "open_now": true
    },
    {
      "place_id": "ChIJr5U7c1SEAjoR8Ieteb38drg",
      "name": "IndianOil",
      "lat": 22.46949,
      "lng": 88.055466,
      "address": "Ground Floor, Birshibpur, Uluberia, Bahira",
      "open_now": true
    },
    {
      "place_id": "ChIJpWr6uPeEAjoRyOcs-prGWPk",
      "name": "IndianOil",
      "lat": 22.478614,
      "lng": 88.049497,
      "address": "Ground Floor NH 6, Birshibpur, Alipur, Howrah",
      "open_now": true
    },
    {
      "place_id": "ChIJs9fuCa6FAjoRDoIHUIoPsdE",
      "name": "Hindustan Petroleum Corporation Limited",
      "lat": 22.509701,
      "lng": 88.06210100000001,
      "address": "Ground Floor, Dulopur, Uluberia, Baniban Jagadishpur",
      "open_now": true
    },
    {
      "place_id": "ChIJJ0RhILebAjoRmNgVjtbT8pM",
      "name": "Bagnan gas Supply Indane godown",
      "lat": 22.4738281,
      "lng": 87.956479,
      "address": "FXF4+GHQ, Mankur Road, Hijlak",
      "open_now": null
    },
    {
      "place_id": "ChIJd-mY51OZAjoRkmocAjiJS30",
      "name": "IndianOil",
      "lat": 22.4621066,
      "lng": 87.93220989999999,
      "address": "Ground Floor Barunda, Bagnan, Agunsi Bhuinara",
      "open_now": true
    },
    {
      "place_id": "ChIJQQTEY4CZAjoRNcbIR5-haac",
      "name": "BHARAT PETROLEUM BALAJI SERVICE STATION",
      "lat": 22.46092800000001,
      "lng": 87.932617,
      "address": "NH-6, Barunda",
      "open_now": true
    },
    {
      "place_id": "ChIJLRxXu9OZAjoRzDlz9d1MjUY",
      "name": "SREE KRISHNA SERVICE CENTRE",
      "lat": 22.4622426,
      "lng": 87.93287649999999,
      "address": "Badshahi Road, Barunda",
      "open_now": null
    },
    {
      "place_id": "ChIJrXDVx8ybAjoRkLUVElRtJ7Y",
      "name": "IndianOil",
      "lat": 22.464775,
      "lng": 87.94691499999999,
      "address": "Ground Floor Tenpur Nabasan, Bagnan, Agunshi, Howrah",
      "open_now": true
    },
    {
      "place_id": "ChIJe5oOxkKZAjoRDMNS1367Yvo",
      "name": "Sri ganesh repiyaring centre",
      "lat": 22.4438915,
      "lng": 87.87606629999999,
      "address": "CVVG+GCX, Kolaghat",
      "open_now": null
    },
    {
      "place_id": "ChIJmwLElJGbAjoRLWkrDPtYUAA",
      "name": "IndianOil",
      "lat": 22.4860413,
      "lng": 87.9356723,
      "address": "Subsit, Bagnan",
      "open_now": true
    },
    {
      "place_id": "ChIJYxOlmqKZAjoRBDRGBXk4kpo",
      "name": "saikat Jana",
      "lat": 22.46674849999999,
      "lng": 87.86703969999999,
      "address": "Hare Krishna And, Bathanberiya, Kolaghat",
      "open_now": null
    },
    {
      "place_id": "ChIJ25v6ryG7AjoR5l8eDSoK_1Q",
      "name": "IndianOil",
      "lat": 22.391904,
      "lng": 87.740245,
      "address": "Ground Floor, Station Bazar, Panskura, Bara, Gokul Nagar, East, Midnapore",
      "open_now": true
    },
    {
      "place_id": "ChIJO7NeHi27AjoRms9FksWvdto",
      "name": "Hindustan Petroleum Corporation Limited",
      "lat": 22.4118046,
      "lng": 87.74438339999999,
      "address": "SH-4, Dakshin Mechgram Road, Mecho Gram, Panskura",
      "open_now": true
    },
    {
      "place_id": "ChIJSwx8Tqa6AjoR0uynFchP6cQ",
      "name": "IndianOil",
      "lat": 22.3998611,
      "lng": 87.69371939999999,
      "address": "Ground Floor, Nekra Paschim",
      "open_now": true
    },
    {
      "place_id": "ChIJndBymc66AjoRrYRE7fIZptY",
      "name": "IndianOil",
      "lat": 22.409153,
      "lng": 87.745522,
      "address": "Ground Floor, Panskura",
      "open_now": true
    },
    {
      "place_id": "ChIJGV8-hSq7AjoR26nVIC6VJvA",
      "name": "IndianOil",
      "lat": 22.4039573,
      "lng": 87.7283874,
      "address": "Ground Floor Naranda, Panskura",
      "open_now": true
    },
    {
      "place_id": "ChIJBw0hUEe7AjoRRQY1Jodv70M",
      "name": "IndianOil",
      "lat": 22.406843,
      "lng": 87.72367899999999,
      "address": "Ground Floor Naranda, Panskura, Balidangri",
      "open_now": true
    },
    {
      "place_id": "ChIJ17U8_RKlAjoRYJPhqh1w8l0",
      "name": "Bharat Petroleum - Dhuliara",
      "lat": 22.4152667,
      "lng": 87.7651983,
      "address": "CQ88+56, Mecho Gram, Balisar",
      "open_now": true
    },
    {
      "place_id": "ChIJ-TnYZhu7AjoRR-xnRuuclso",
      "name": "Hindustan Petroleum Corporation Limited",
      "lat": 22.3794553,
      "lng": 87.7422339,
      "address": "Plot No 504, 506 & 507, Panskura - Tamluk Road, Rupdaypur",
      "open_now": true
    },
    {
      "place_id": "ChIJbUoqCQe7AjoRmdHi9_NwOMk",
      "name": "Hindustan Petroleum Corporation Limited",
      "lat": 22.405318,
      "lng": 87.706023,
      "address": "Plot No 435 P, JL No 99 Panskura, NH 16, Dharmapur",
      "open_now": true
    },
    {
      "place_id": "ChIJYXlkmae6AjoREUPAJjlNi1s",
      "name": "IndianOil",
      "lat": 22.398854,
      "lng": 87.70063999999999,
      "address": "Ground Floor, Panskura - Puraton Bazar Road, Balidangri",
      "open_now": true
    },
    {
      "place_id": "ChIJ3UDEwa67AjoRvuE_7HG6FX0",
      "name": "Hindustan Petroleum Corporation Limited",
      "lat": 22.370666,
      "lng": 87.748751,
      "address": "JL No 204, Plot No 533, Panskura - Tamluk Road, Gumai",
      "open_now": true
    },
    {
      "place_id": "ChIJmY3SHgCxAjoRShfew0K9pRI",
      "name": "IndianOil",
      "lat": 22.40398,
      "lng": 87.69483249999999,
      "address": "Ground Floor, Nekra Paschim",
      "open_now": null
    },
    {
      "place_id": "ChIJY8Vr6TWlAjoRfySP2z-AWcw",
      "name": "Bharat Petroleum, Petrol Pump -Surenkari Filling Station",
      "lat": 22.4441625,
      "lng": 87.7533503,
      "address": "HATISHAL, Khukur Daha",
      "open_now": true
    },
    {
      "place_id": "ChIJJfUuZQClAjoRWzWJQ-WxE80",
      "name": "Sanjay",
      "lat": 22.438549,
      "lng": 87.768177,
      "address": "CQQ8+HM, Kantabani Shasan",
      "open_now": null
    },
    {
      "place_id": "ChIJecrbz4VPHToR5M1rpk6nJxE",
      "name": "Hindustan Petroleum Corporation Limited(R.KFUELS)",
      "lat": 22.3835841,
      "lng": 87.41052030000002,
      "address": "9CM6+7PG, Kolaghat - Pansila - Cuttack Road, Samudrapur",
      "open_now": true
    },
    {
      "place_id": "ChIJQaW6hj9PHToRczx6ROyn3wQ",
      "name": "Hindustan Petroleum Corporation Limited",
      "lat": 22.383365,
      "lng": 87.40944050000002,
      "address": "Plot No 1473 & 1474, Samudrapur",
      "open_now": true
    },
    {
      "place_id": "ChIJG15DKedPHToR9HQzTCg6ePE",
      "name": "IndianOil (BANDHAN FILLING STATION).",
      "lat": 22.3835889,
      "lng": 87.4092891,
      "address": "Kolaghat -Pansila-Cuttack Rd, NH16, Samudrapur",
      "open_now": true
    },
    {
      "place_id": "ChIJa70eT8ZPHToRx39IL0E6TMo",
      "name": "Patrol",
      "lat": 22.380971,
      "lng": 87.4401406,
      "address": "নামাজি petrol pump, Madpur, Baragere",
      "open_now": true
    },
    {
      "place_id": "ChIJez8WRwBPHToRSCvhLW6sMtk",
      "name": "Namaji petrol pump ⛽",
      "lat": 22.3848437,
      "lng": 87.44060429999999,
      "address": "9CPR+56P, Madpur, Baragere",
      "open_now": null
    },
    {
      "place_id": "ChIJ86hmfgBPHToRs8IowvkAEWA",
      "name": "Basanta Filling Station (HP petrol pump)",
      "lat": 22.3634838,
      "lng": 87.43563069999999,
      "address": "Lockgate, Madpur, Kharagpur",
      "open_now": true
    },
    {
      "place_id": "ChIJd-JIVqBFHToRDzkOXPydJLs",
      "name": "Bharat petroleum",
      "lat": 22.3876477,
      "lng": 87.3761327,
      "address": "99QG+3F2, Pairachali - Hirbandh - Manbazer - Barabhum - Balarampur Road, Balihati",
      "open_now": null
    },
    {
      "place_id": "ChIJ48J3n403HToR7TEvwstbpZE",
      "name": "IndianOil",
      "lat": 22.190509,
      "lng": 87.389753,
      "address": "Ground Floor, Lohabaran Chak Deulia Chak, Narayangarh, Harishpur, Kharagpur",
      "open_now": true
    },
    {
      "place_id": "ChIJ11nzIQA3HToR0_8L0t12LTU",
      "name": "BINAPANI FILLING STATION (Bharat Petrol Pump)",
      "lat": 22.1730431,
      "lng": 87.39171999999999,
      "address": "59FR+6M9, Chennai - Kolkata Highway, Kasba Narayangarh",
      "open_now": null
    },
    {
      "place_id": "ChIJHVqNW3s3HToRZBgfj19BAVs",
      "name": "IndianOil",
      "lat": 22.1518478,
      "lng": 87.3848591,
      "address": "Ground Floor, Kasba Narayangarh",
      "open_now": true
    },
    {
      "place_id": "ChIJ9cwIWhE3HToRI16xobF9grs",
      "name": "Hindustan Petroleum Corporation Limited",
      "lat": 22.20582109999999,
      "lng": 87.39054139999999,
      "address": "JL No 233, LR Khatian No 98/1 & 332/1, Plot No 612/P, Kasba Narayangarh",
      "open_now": true
    },
    {
      "place_id": "ChIJx9vHwlM6HToRvxKftAj47Xk",
      "name": "Hindustan Petroleum Corporation Limited",
      "lat": 22.0815316,
      "lng": 87.3456873,
      "address": "Ground Floor, Belda",
      "open_now": true
    },
    {
      "place_id": "ChIJ1zZ-6wE7HToR4vtMGZwwG6o",
      "name": "Hindustan Petroleum Corporation Limited",
      "lat": 22.0690724,
      "lng": 87.3401882,
      "address": "Ground Floor, Belda",
      "open_now": true
    },
    {
      "place_id": "ChIJKyeLkAE7HToRB8WSF2T81FE",
      "name": "IndianOil",
      "lat": 22.0688001,
      "lng": 87.33940009999999,
      "address": "Ground Floor, Belda",
      "open_now": true
    },
    {
      "place_id": "ChIJJ2OI65E7HToRWsYHtDKvdQI",
      "name": "BELDA FUEL SERVICE STATION",
      "lat": 22.062128,
      "lng": 87.355419,
      "address": "FUEL SERVICE STATION, Belda",
      "open_now": null
    },
    {
      "place_id": "ChIJV9Jmi5E7HToRRL_lMABgNO4",
      "name": "Jio-bp",
      "lat": 22.06199449999999,
      "lng": 87.3553068,
      "address": "Jl No 318, 142P & 143P, Khatian No 5, Yadavchowk, Belda",
      "open_now": true
    },
    {
      "place_id": "ChIJ_TDwPwE7HToRoFWLdjreWaM",
      "name": "Anand Grocery Store",
      "lat": 22.0786039,
      "lng": 87.3293691,
      "address": "Ananda Grocery Store, Belda",
      "open_now": true
    },
    {
      "place_id": "ChIJFYWXXT86HToRt-oIv4VDdes",
      "name": "IndianOil",
      "lat": 22.09816039999999,
      "lng": 87.3577267,
      "address": "Ground Floor, NH 60, East, Belda",
      "open_now": true
    },
    {
      "place_id": "ChIJ3ZAkJxE7HToRtvSkcLt4iiA",
      "name": "IndianOil",
      "lat": 22.056908,
      "lng": 87.32879199999999,
      "address": "Ground Floor Belda, East, Midnapore",
      "open_now": true
    },
    {
      "place_id": "ChIJIabxsXs7HToR-P4QUkjio8I",
      "name": "IndianOil",
      "lat": 22.05604379999999,
      "lng": 87.3704932,
      "address": "Ground Floor Rasulpur, Lal Nagar",
      "open_now": true
    },
    {
      "place_id": "ChIJ-y6UXbU7HToRrHvz_u2DNR0",
      "name": "IndianOil",
      "lat": 22.093641,
      "lng": 87.3118801,
      "address": "Ground Floor Phandar, Keshiary Road, Belda, East, Midnapore",
      "open_now": true
    },
    {
      "place_id": "ChIJM2UMPUc7HToRgX_qVcDNrf0",
      "name": "Hindustan Petroleum Corporation Limited",
      "lat": 22.0424024,
      "lng": 87.3200007,
      "address": "Midnapore, Ground Floor Belda, Keshiary, Kolaboni East",
      "open_now": true
    },
    {
      "place_id": "ChIJE5uAzQchHToR-UrGaIQwFgA",
      "name": "IndianOil",
      "lat": 21.96183169999999,
      "lng": 87.27345299999999,
      "address": "Ground Floor Karakpur, Dantan",
      "open_now": true
    },
    {
      "place_id": "ChIJV-IThaIjHToRuU-0gnx-JDA",
      "name": "Bharat Petroleum Petrol Pump , ANNAPURNA SERVICE STATION",
      "lat": 21.9643031,
      "lng": 87.27556890000001,
      "address": "Dantan",
      "open_now": true
    },
    {
      "place_id": "ChIJc9z4QL8jHToR5tLT1orLfS4",
      "name": "Dantan Petrol Pump",
      "lat": 21.95498689999999,
      "lng": 87.27783409999999,
      "address": "X73H+X4W, Karakpur",
      "open_now": null
    },
    {
      "place_id": "ChIJ4ShnHcojHToR5oWEPhKaVCg",
      "name": "ANNAPURNA SERVICE STATION",
      "lat": 21.96071659999999,
      "lng": 87.2803708,
      "address": "X76J+74Q, Unnamed Road, Krishnapur",
      "open_now": null
    },
    {
      "place_id": "ChIJOxxrJgAjHToR98AkjrGhJvY",
      "name": "Bishnu Highway Seevices",
      "lat": 21.94615899999999,
      "lng": 87.264106,
      "address": "W7W7+FJ, Kunja Baghra",
      "open_now": null
    },
    {
      "place_id": "ChIJdwXGuyIhHToRpQXbukYKa8k",
      "name": "Hindustan Petroleum Corporation Limited",
      "lat": 21.9216248,
      "lng": 87.267758,
      "address": "Ground Floor, NH 16, Panitunia, Dantan",
      "open_now": true
    },
    {
      "place_id": "ChIJiUgHGhYjHToRv0ilNCWUOVQ",
      "name": "Debolina Telares",
      "lat": 22.0003796,
      "lng": 87.27603669999999,
      "address": "Dantan PS, NH-60, West Medinipur, Tarrui",
      "open_now": true
    },
    {
      "place_id": "ChIJyR1-WPghHToR9G3mxSHpFHc",
      "name": "Jls Pvt Ltd",
      "lat": 21.8463034,
      "lng": 87.24632350000002,
      "address": "Market Jaleswar Road, Jaleswar",
      "open_now": null
    },
    {
      "place_id": "ChIJL7MeU3ffHDoRtnSrQf5X4zs",
      "name": "Hindustan Petroleum Corporation Limited",
      "lat": 21.80883499999999,
      "lng": 87.2519155,
      "address": "Ground Floor, Jaleswar",
      "open_now": true
    },
    {
      "place_id": "ChIJOw6vv93fHDoRCGMcNyxGSfw",
      "name": "Hindustan Petroleum Corporation Limited",
      "lat": 21.8082252,
      "lng": 87.2283652,
      "address": "Ground Floor, near Ganesh Talkies, Jaleswar",
      "open_now": true
    },
    {
      "place_id": "ChIJlZzPScPfHDoRG4uIGj7RhEE",
      "name": "IndianOil",
      "lat": 21.805404,
      "lng": 87.2324069,
      "address": "Ground Floor, Badabazar, Jaleswar",
      "open_now": null
    },
    {
      "place_id": "ChIJL8IuULjfHDoRYw-wpo-WVt4",
      "name": "IndianOil",
      "lat": 21.8010259,
      "lng": 87.2437297,
      "address": "Ground Floor NH 60, Alalpur, Jaleswar, Nahara",
      "open_now": true
    },
    {
      "place_id": "ChIJRzznVQAhHToRJvVcPu8K1s4",
      "name": "IndianOil - SWAGAT",
      "lat": 21.8674586,
      "lng": 87.2564235,
      "address": "Mirzapur",
      "open_now": true
    },
    {
      "place_id": "ChIJnWrhKwAhHToRmk-ONBVTfbY",
      "name": "Kalichandi indian oil",
      "lat": 21.867535,
      "lng": 87.25678219999999,
      "address": "V795+225, Kolaghat - Pansila - Cuttack Road, Sonakania",
      "open_now": null
    },
    {
      "place_id": "ChIJMx_TU7jfHDoRuc5DkZrHCIM",
      "name": "Gayatri Filling Station",
      "lat": 21.800643,
      "lng": 87.2441352,
      "address": "R62V+7M2",
      "open_now": true
    },
    {
      "place_id": "ChIJcYDCrVXhHDoRtsWWrUX8OIU",
      "name": "IndianOil",
      "lat": 21.7409505,
      "lng": 87.1448589,
      "address": "Ground Floor NH 60, Gudikhal, Junabalda Near, Amarda Road",
      "open_now": true
    },
    {
      "place_id": "ChIJlTtF2LvjHDoR4EvQ0KKUEvs",
      "name": "Sahu Petroleum",
      "lat": 21.7848631,
      "lng": 87.1379469,
      "address": "Q4MQ+W5W, Amarada",
      "open_now": null
    },
    {
      "place_id": "ChIJX4SvViviHDoRr2C90oiTYe0",
      "name": "Bharat Petroleum",
      "lat": 21.78490979999999,
      "lng": 87.1375765,
      "address": "India",
      "open_now": null
    },
    {
      "place_id": "ChIJy4rA7jLiHDoRmHQ33XmH_iA",
      "name": "ଷଡ଼ଙ୍ଗୀ ଗ୍ରୋସରୀ ଷ୍ଟୋର",
      "lat": 21.786324,
      "lng": 87.1306723,
      "address": "India",
      "open_now": null
    },
    {
      "place_id": "ChIJAQAAQLX6HDoRxWaA5e-N3E8",
      "name": "IndianOil",
      "lat": 21.6574048,
      "lng": 87.0608015,
      "address": "Ground Floor, Gahirasimulia Dandika, Basta, Bazar, Baharda",
      "open_now": true
    },
    {
      "place_id": "ChIJ7ScL3DvlHDoRLPHAOniLXuM",
      "name": "Hindustan Petroleum Corporation Limited",
      "lat": 21.6972555,
      "lng": 87.08377019999999,
      "address": "Ground Floor, Basta, Haldiapada, Kundapur",
      "open_now": true
    },
    {
      "place_id": "ChIJ96nf0avlHDoRtb0iTeYmtFQ",
      "name": "Hindustan Petroleum Corporation Limited",
      "lat": 21.7003981,
      "lng": 87.08895919999999,
      "address": "Ground Floor, near Jaleswar Balasore Highway, NH 60, Baulagadia, Basta",
      "open_now": true
    },
    {
      "place_id": "ChIJlyLSkgrlHDoRDoI0hPy96Sw",
      "name": "Bharat Petroleum Petrol Pump , MAA LAXMI FILLING STATION",
      "lat": 21.6818521,
      "lng": 87.09245760000002,
      "address": "GANDHICHAK, TO, Basta-Baliapal Road, Arjuni",
      "open_now": true
    },
    {
      "place_id": "ChIJg-lcoCT7HDoRSa343zp7H2o",
      "name": "Ms Stalin Filling Station",
      "lat": 21.7022448,
      "lng": 87.0916707,
      "address": "NH 60, Baulagadia, Barunagadia, Basta",
      "open_now": true
    },
    {
      "place_id": "ChIJDeSivkP7HDoR7GYR5sg20sk",
      "name": "IndianOil",
      "lat": 21.7030987,
      "lng": 87.05680439999999,
      "address": "Ground Floor, Baharda Bazar, Basta",
      "open_now": true
    },
    {
      "place_id": "ChIJXbRkJh7lHDoRaTxwMzMuz4Q",
      "name": "Binayak Filling Station, Bharat Petroleum",
      "lat": 21.6613013,
      "lng": 87.0636969,
      "address": "Mathani, Kharagpur City Road, Gahirasimulia",
      "open_now": true
    },
    {
      "place_id": "ChIJM0gwTLP6HDoReMjf4ekoN3M",
      "name": "Shivam Petroleum",
      "lat": 21.657221,
      "lng": 87.06200580000001,
      "address": "Kharagpur City Road, Dandika",
      "open_now": true
    },
    {
      "place_id": "ChIJ1QUDY7DlHDoRQD5uGV0HxJI",
      "name": "Hindustan Petroleum Corporation Limited",
      "lat": 21.6778752,
      "lng": 87.11468819999999,
      "address": "Ground Floor, Darada",
      "open_now": true
    },
    {
      "place_id": "ChIJzV0_0pHlHDoRpB4xUImHOzg",
      "name": "IndianOil",
      "lat": 21.6773318,
      "lng": 87.1162712,
      "address": "Ground Floor Karanjia, Basta, Kusudiha, Bazar, Baharda",
      "open_now": true
    },
    {
      "place_id": "ChIJg8ZrGADxHDoResVqJyXsUII",
      "name": "SHREE ENERGY POINT",
      "lat": 21.57478,
      "lng": 87.0070817,
      "address": "H2F4+JC8, Bahadalpur",
      "open_now": null
    },
    {
      "place_id": "ChIJt3Qs2hTxHDoRh0xNUy8-Is8",
      "name": "Oil Point",
      "lat": 21.5848782,
      "lng": 86.9935749,
      "address": "Raisuan Market, Station Road, Haldipada",
      "open_now": null
    },
    {
      "place_id": "ChIJl3UicP_wHDoRzGUkR_mTqMo",
      "name": "IndianOil",
      "lat": 21.5944595,
      "lng": 87.0210322,
      "address": "Ground Floor Gobinda, Basta, Alumeda",
      "open_now": true
    },
    {
      "place_id": "ChIJl39T7k_3HDoRBw6UWz875y8",
      "name": "Bharat Petroleum, Petrol Pump -Bluemoon Fuels",
      "lat": 21.55389349999999,
      "lng": 86.9616233,
      "address": "ODANGI NH60-BALASORE, Balasore",
      "open_now": true
    },
    {
      "place_id": "ChIJE9nAhsz3HDoRlGKL03bK7-U",
      "name": "Balasore Highway Service Bharat Petrol Pump",
      "lat": 21.5527838,
      "lng": 86.9610201,
      "address": "NH-60, Odangi",
      "open_now": true
    },
    {
      "place_id": "ChIJK1iCwon1HDoRasy_3aa-UMU",
      "name": "Hindustan Petroleum Corporation Limited",
      "lat": 21.5107074,
      "lng": 86.902844,
      "address": "Ground Floor, Haripur",
      "open_now": true
    },
    {
      "place_id": "ChIJ4xV_yD9fHDoR7pQZ6x9OIdE",
      "name": "IOC Petrol Pump",
      "lat": 21.51928449999999,
      "lng": 86.8805517,
      "address": "Kalidaspur, Balia, Balasore",
      "open_now": true
    },
    {
      "place_id": "ChIJNSgylZr1HDoR8gTq4k9Jr-k",
      "name": "Bharat Petroleum Petrol Pump",
      "lat": 21.505047,
      "lng": 86.9136729,
      "address": "GW47+2F7, near Suraj Hotel, Artung, Balia, Balasore",
      "open_now": true
    },
    {
      "place_id": "ChIJm6BMclpfHDoR-wEvIb7ko_o",
      "name": "Hindustan Petroleum Corporation Limited",
      "lat": 21.529501,
      "lng": 86.895701,
      "address": "Ground Floor, NH 5, Remuna Golai, Saraswatipur",
      "open_now": true
    },
    {
      "place_id": "ChIJZUGhcHX1HDoRDx25hICzP3Y",
      "name": "IndianOil",
      "lat": 21.493957,
      "lng": 86.9202644,
      "address": "Railway Colony, Balasore, Baleshwar",
      "open_now": true
    },
    {
      "place_id": "ChIJH_IgjJ_1HDoRn3fjVEd_OzY",
      "name": "BNKP Petrol Pump",
      "lat": 21.49669879999999,
      "lng": 86.92193979999999,
      "address": "Station Chowk, OT Road, Balasore",
      "open_now": true
    },
    {
      "place_id": "ChIJp2TONcBfHDoRdZcz8MBhv08",
      "name": "IndianOil",
      "lat": 21.4672853,
      "lng": 86.881446,
      "address": "Ground Floor, Saraswatipur Balasore, Chhanpurvia, Kuruda, Brahmanda",
      "open_now": true
    },
    {
      "place_id": "ChIJA3pd_bRfHDoRPU6XTu4f2Zs",
      "name": "Bharat Petroleum, Petrol Pump -Doshi Automobiles",
      "lat": 21.513234,
      "lng": 86.89342239999999,
      "address": "NH5 BALASORE, Balasore",
      "open_now": true
    },
    {
      "place_id": "ChIJ2TrXbABfHDoR5l0KPAl9NvU",
      "name": "SP.Petrol Pump kalidaspur",
      "lat": 21.5150169,
      "lng": 86.8897655,
      "address": "GV8Q+2W2, Kalidaspur, Balia, Balasore",
      "open_now": null
    },
    {
      "place_id": "ChIJ4yHRgF9fHDoRYH3xBeROEQE",
      "name": "IndianOil",
      "lat": 21.5159263,
      "lng": 86.8932501,
      "address": "Ph No, 2316/Bls, National Highway 16, Januganj",
      "open_now": true
    },
    {
      "place_id": "ChIJPZFQm2FfHDoRbKE5gARn4wk",
      "name": "Reliance Petroleum",
      "lat": 21.5131026,
      "lng": 86.90017979999999,
      "address": "Ground Floor, Ganeswarpur",
      "open_now": true
    },
    {
      "place_id": "ChIJ0SQIsOtfHDoRxzv_x5Qe-Mk",
      "name": "Pk Fuel Station",
      "lat": 21.5127445,
      "lng": 86.8814022,
      "address": "Kalidaspur, Remuna, Balia, Januganj",
      "open_now": null
    },
    {
      "place_id": "ChIJVapbWJdfHDoRE8lVM3ba8v8",
      "name": "Hindustan Petroleum Corporation Limited",
      "lat": 21.482001,
      "lng": 86.886501,
      "address": "Ground Floor, NH 5, Chhanpur",
      "open_now": true
    },
    {
      "place_id": "ChIJG5WFXpBfHDoR6LI3yzO6s4Y",
      "name": "LPG Gas Plant",
      "lat": 21.4805452,
      "lng": 86.8897339,
      "address": "FVJQ+6V9, Artung, Balia, Balasore",
      "open_now": null
    },
    {
      "place_id": "ChIJfaC_TABfHDoR46As8gUvZAY",
      "name": "Sri Laxmi Petrol Pump",
      "lat": 21.5102533,
      "lng": 86.86415,
      "address": "GV67+4HF, Emami Bypass, Narahari Pur",
      "open_now": null
    },
    {
      "place_id": "ChIJr1aQ7hv1HDoR0D3p5T9FgU8",
      "name": "Padmabati Behera",
      "lat": 21.5012467,
      "lng": 86.92029269999999,
      "address": "near Central School Chack CENTRAL HIGH SCHOOL, Balasore",
      "open_now": null
    },
    {
      "place_id": "ChIJ7UFODEP1HDoRq3OVjyYzRGQ",
      "name": "Bharat Petroleum, Petrol Pump -Biswanath Kashiprasad",
      "lat": 21.492526,
      "lng": 86.91920909999999,
      "address": "O T ROAD BALASORE, Balasore",
      "open_now": true
    },
    {
      "place_id": "ChIJn69uD21fHDoRtqlmbjWKzUc",
      "name": "Bharat Petroleum Petrol Pump , SHREE RADHA KRISHNA FILLING STN",
      "lat": 21.4750216,
      "lng": 86.8956321,
      "address": "MEGHADAMBARUNEAR TAMULIA GATE",
      "open_now": true
    },
    {
      "place_id": "ChIJa5Jf6qH1HDoRiO54HBqCH78",
      "name": "Hindustan Petroleum Corporation Limited",
      "lat": 21.4993029,
      "lng": 86.9235102,
      "address": "Ground Floor, OT Road, Balasore",
      "open_now": true
    },
    {
      "place_id": "ChIJ5f5khqH1HDoRG9jFKTdUGmg",
      "name": "Hindustan Petroleum Corporation Limited",
      "lat": 21.500451,
      "lng": 86.924351,
      "address": "Ground Floor, OT Road, Balasore",
      "open_now": true
    },
    {
      "place_id": "ChIJeYQ4JbpgHDoRCHimUaIH2Uc",
      "name": "Hindustan Petroleum Corporation Limited",
      "lat": 21.4282625,
      "lng": 86.8337864,
      "address": "Ground Floor, NH 5, Seragarh",
      "open_now": true
    },
    {
      "place_id": "ChIJG_GWKOlmHDoRALfujmc7B5I",
      "name": "Hindustan Petroleum Corporation Limited",
      "lat": 21.3819501,
      "lng": 86.7975901,
      "address": "Ground Floor, National Highway 16, Khantapara, Olipatna",
      "open_now": true
    },
    {
      "place_id": "ChIJkRhy2O5mHDoRcdXBI64b2BI",
      "name": "Bharat Petroleum",
      "lat": 21.3822,
      "lng": 86.7962,
      "address": "Bkhanaga, Baleshwar, NH-5, Baharagora Chennai Highway, Balasore",
      "open_now": true
    },
    {
      "place_id": "ChIJraAh_JhgHDoRQrCBcJnFb_M",
      "name": "Hindustan Petroleum Corporation Limited",
      "lat": 21.437113,
      "lng": 86.844438,
      "address": "Ground Floor, National Highway 16, Sergarh, Balasore",
      "open_now": true
    },
    {
      "place_id": "ChIJmwuaYZxgHDoR1V9oQzfIlqQ",
      "name": "IndianOil",
      "lat": 21.4405943,
      "lng": 86.84838839999999,
      "address": "Ground Floor, NH 5, Seragarh",
      "open_now": true
    },
    {
      "place_id": "ChIJ3dLyardgHDoRjdR-J59QMUM",
      "name": "IndianOil",
      "lat": 21.4249094,
      "lng": 86.8301374,
      "address": "Ground Floor NH 16, Seragarh",
      "open_now": true
    },
    {
      "place_id": "ChIJZfybluhmHDoRjvYLIuCITKI",
      "name": "Jio-bp",
      "lat": 21.3841611,
      "lng": 86.7981502,
      "address": "153 Khata No 226, Plot No 117/26, 30/34, 52 Olipatna, Balasore",
      "open_now": true
    },
    {
      "place_id": "ChIJ5UXZYqdhHDoRFVU5hINuyPE",
      "name": "Money Send",
      "lat": 21.3858965,
      "lng": 86.8320744,
      "address": "Odisha Khantapara",
      "open_now": null
    },
    {
      "place_id": "ChIJqXCLLOlmHDoRfgxxbeeUW5E",
      "name": "M/s Shree Abhiram Service Station",
      "lat": 21.3818021,
      "lng": 86.7970642,
      "address": "9QJW+PRG, National Highway 16, Nuapada",
      "open_now": true
    },
    {
      "place_id": "ChIJEyfCMQBnHDoRfYvb1YFiMsw",
      "name": "BP MANKHANI",
      "lat": 21.3820937,
      "lng": 86.79607519999999,
      "address": "9QJW+M78, Khantapada",
      "open_now": null
    },
    {
      "place_id": "ChIJ7ZS5Q1xuHDoRLFzXw1771hw",
      "name": "Bharat Petroleum Petrol Pump",
      "lat": 21.2928429,
      "lng": 86.6854563,
      "address": "Ground Floor, OD-BLS-BHB-21W-036, National Highway 16, Utareswar, Soro",
      "open_now": null
    },
    {
      "place_id": "ChIJjXfK7l1vHDoRb-rMb_GrWvc",
      "name": "BPCL PETROL PUMP MANGAL FUELS",
      "lat": 21.325205,
      "lng": 86.7347891,
      "address": "Dandaharipur",
      "open_now": true
    },
    {
      "place_id": "ChIJg5YBrAFvHDoRoXWTpP-Q3Ik",
      "name": "Reliance Petrol Pump",
      "lat": 21.30358829999999,
      "lng": 86.7035396,
      "address": "8P33+CCF, National Highway 16, Soro",
      "open_now": true
    },
    {
      "place_id": "ChIJtZHaRJBvHDoR4mqhF4BmB0A",
      "name": "IndianOil",
      "lat": 21.2948293,
      "lng": 86.69112779999999,
      "address": "Ground Floor, Soro, Angula",
      "open_now": true
    },
    {
      "place_id": "ChIJe6I6AWBvHDoRbZzAfHvr-hs",
      "name": "Shree Mahabir Service Station Soro",
      "lat": 21.2932257,
      "lng": 86.68763849999999,
      "address": "UTTARESWAR, Soro",
      "open_now": true
    },
    {
      "place_id": "ChIJNdxTQlxuHDoRcqZLjGCBACw",
      "name": "Hindustan Petroleum Corporation Limited",
      "lat": 21.2917301,
      "lng": 86.6848901,
      "address": "Ground Floor, OD-BLS-BHB-21W-036, Utareswar, Soro",
      "open_now": true
    },
    {
      "place_id": "ChIJN4Q2_ZJvHDoRlVbsAjk36iU",
      "name": "Bharat Petrol Pump",
      "lat": 21.2788,
      "lng": 86.7023845,
      "address": "7PH2+GXC, Soro - Anantpur Road, Soro",
      "open_now": null
    },
    {
      "place_id": "ChIJv7oYKzlvHDoRRJbFU1Ca7nM",
      "name": "Durga filling station (Petrol Pump)",
      "lat": 21.2786616,
      "lng": 86.7022042,
      "address": "Soro - Anantpur Road, Soro",
      "open_now": true
    },
    {
      "place_id": "ChIJmVGI0elvHDoRuNOxnJ1iik8",
      "name": "Adani Total Gas CNG",
      "lat": 21.32635149999999,
      "lng": 86.7363112,
      "address": "8PGP+GGV, Dandaharipur",
      "open_now": true
    },
    {
      "place_id": "ChIJBxIGYDNvHDoRMrLWpbFC_NA",
      "name": "IndianOil",
      "lat": 21.275672,
      "lng": 86.70567199999999,
      "address": "Ground Floor, Kamanpur, Tentulipokhari, Soro",
      "open_now": true
    },
    {
      "place_id": "ChIJl5sHE5RuHDoRm15Qhl-DYrQ",
      "name": "Hindustan Petroleum Corporation Limited",
      "lat": 21.318117,
      "lng": 86.6772419,
      "address": "Ground Floor Champo, Bagudi Road, Angula",
      "open_now": true
    },
    {
      "place_id": "ChIJNbT1Pti7uzsRACVI4YoXfrw",
      "name": "IndianOil - SWAGAT",
      "lat": 21.3311845,
      "lng": 86.7437688,
      "address": "Bahanaga",
      "open_now": true
    },
    {
      "place_id": "ChIJC11cKPRlHDoRvgHnlR0OYUM",
      "name": "Adirupa Filling Station Iocl Dealer.",
      "lat": 21.33048399999999,
      "lng": 86.74468739999999,
      "address": "8PJV+5VV, National Highway 16, Keshapur",
      "open_now": true
    },
    {
      "place_id": "ChIJnc-Z0jtvHDoRUISRzHDi1dM",
      "name": "Manmath filling station",
      "lat": 21.3476635,
      "lng": 86.70248269999999,
      "address": "Mahisasuri soro santragadia, road, Soro",
      "open_now": true
    },
    {
      "place_id": "ChIJkXXHxKRvHDoRaRi-3Ts6o5o",
      "name": "Jena Shop",
      "lat": 21.284823,
      "lng": 86.6723512,
      "address": "Jena Veraity Store, Collage Road, Soro",
      "open_now": null
    },
    {
      "place_id": "ChIJJ83PsuZvHDoRdpFBv2FXX_w",
      "name": "Hindustan Petroleum Corporation Limited",
      "lat": 21.2863525,
      "lng": 86.6687772,
      "address": "Ground Floor, Brahmana Sahi, near Soro, Collage Chowk, Soro",
      "open_now": true
    },
    {
      "place_id": "ChIJ4bb72q5zHDoR0VW-9ETnVHw",
      "name": "Minz Fuel station Bharat Petroleum - Petrol Pump",
      "lat": 21.1949388,
      "lng": 86.6265952,
      "address": "Jamujhadi",
      "open_now": true
    },
    {
      "place_id": "ChIJKa8zeQBzHDoRc9tSKaX3KyM",
      "name": "Nayara Petrol Pump Jasmine Filling Station",
      "lat": 21.191835,
      "lng": 86.65060079999999,
      "address": "5MR2+P6Q, Basudevpur - Balasore Road, Sunguda",
      "open_now": null
    },
    {
      "place_id": "ChIJuxJt9g1zHDoRbSXO7U3rPqM",
      "name": "Indian Oil Petrol Pump - Sambit jyoti Highway Service",
      "lat": 21.1915904,
      "lng": 86.6180995,
      "address": "NH16, Kaniari, Markona",
      "open_now": true
    },
    {
      "place_id": "ChIJdYGtEj4KHDoR5qUAJWfyl7M",
      "name": "Hindustan Petroleum Corporation Limited",
      "lat": 21.0833596,
      "lng": 86.5154372,
      "address": "Ground Floor, Charampa",
      "open_now": true
    },
    {
      "place_id": "ChIJ49ZCAQALHDoR-2RIIDJf1fs",
      "name": "CNG bhubaneshwa pump",
      "lat": 21.1165958,
      "lng": 86.5440806,
      "address": "4G8V+JJP, Chennai - Kolkata Highway, Tisalpur",
      "open_now": null
    },
    {
      "place_id": "ChIJh6ZUxdwLHDoRbBetTbnjT-M",
      "name": "Kabi Oils",
      "lat": 21.0836478,
      "lng": 86.5232802,
      "address": "1000, Kabi Chunti Road, Bhadrak",
      "open_now": null
    },
    {
      "place_id": "ChIJkd-kOZMLHDoRgBYGjPf1NF0",
      "name": "Subh Oils",
      "lat": 21.0817387,
      "lng": 86.5253079,
      "address": "Subh Oils Parsinga, 123, Bhadrak",
      "open_now": null
    },
    {
      "place_id": "ChIJH0PzAwALHDoR0NdcL7KotLI",
      "name": "Sharma Engeneering Work Shop",
      "lat": 21.0851686,
      "lng": 86.5169451,
      "address": "3GP8+3R2, National Highway 316A, Charampa",
      "open_now": null
    },
    {
      "place_id": "ChIJf4DLAs35GzoRBEW_6YGbev4",
      "name": "IndianOil",
      "lat": 20.982488,
      "lng": 86.409504,
      "address": "Ground Floor, Dhamnagar Chak, Bahudarada",
      "open_now": true
    },
    {
      "place_id": "ChIJIaQ-UoD3GzoRZLd1Ic5Y7X4",
      "name": "Hindustan Petroleum Corporation Limited",
      "lat": 20.996931,
      "lng": 86.42799099999999,
      "address": "Ground Floor, NH 16, Rajendrapur",
      "open_now": true
    },
    {
      "place_id": "ChIJxQOxPQD3GzoRSAH3ljGsoIg",
      "name": "Ahalya Energy Station",
      "lat": 20.998432,
      "lng": 86.43158,
      "address": "Bahudarada",
      "open_now": null
    },
    {
      "place_id": "ChIJdYYUMgD3GzoRvLCMlJJBOJM",
      "name": "Indian Oil, Bahudarada",
      "lat": 20.9987957,
      "lng": 86.43155329999999,
      "address": "XCXJ+GJ7, Barapadi",
      "open_now": null
    },
    {
      "place_id": "ChIJV2-EOZ77GzoRfJ32D_Qe9mQ",
      "name": "Shyam Sundar filling station",
      "lat": 20.9595191,
      "lng": 86.41758399999999,
      "address": "Bhadrak",
      "open_now": true
    },
    {
      "place_id": "ChIJj6sZgwn5GzoRLmytD0qBx_4",
      "name": "Hindustan Petroleum Corporation Limited",
      "lat": 20.9652259,
      "lng": 86.3869608,
      "address": "Bhandari Pokhari, Ground Floor NH 18, Bhadrak",
      "open_now": true
    },
    {
      "place_id": "ChIJ18J9OwT5GzoRNDCqMnfMMlo",
      "name": "Shreye Sadhya Highway Fuels HPCL",
      "lat": 20.9653516,
      "lng": 86.386797,
      "address": "National Highway 16, Bhandari Pokhari",
      "open_now": null
    },
    {
      "place_id": "ChIJr5jqRfv5GzoRnd0gVfA3Oj8",
      "name": "Saina Services - Nayara Energy Limited",
      "lat": 21.0208092,
      "lng": 86.3918791,
      "address": "Barikpur to Kenduapada Road (MDR-8B ChakaChinamali ,Kenduapada,Barikpur Bazar",
      "open_now": true
    },
    {
      "place_id": "ChIJoTD-9T39GzoR7ZC5bwJvigs",
      "name": "Basudev Ksk",
      "lat": 20.9326428,
      "lng": 86.2575584,
      "address": "1138, Sathipur",
      "open_now": null
    },
    {
      "place_id": "ChIJfZ02rbVXGToRxNtUZEWcq1g",
      "name": "Bharat Petroleum, Petrol Pump -cng Prasanta Filling Station",
      "lat": 20.9237578,
      "lng": 86.2490299,
      "address": "SATHIPUR, Jajpur",
      "open_now": true
    },
    {
      "place_id": "ChIJYV0uHwBXGToR1ytK975tfwQ",
      "name": "IndianOil",
      "lat": 20.9241682,
      "lng": 86.24818139999999,
      "address": "W6FX+727, Balipasi",
      "open_now": null
    },
    {
      "place_id": "ChIJXbpnrtFZGToRI_5HU6aHMik",
      "name": "Hindustan Petroleum Corporation Limited",
      "lat": 20.82194209999999,
      "lng": 86.18746329999999,
      "address": "Ground Floor Kuakhia, Madhuban Road, Kolathala",
      "open_now": true
    },
    {
      "place_id": "ChIJk4T1fahZGToRSaT0pNvHa7w",
      "name": "Hindustan Petroleum Corporation Limited",
      "lat": 20.816481,
      "lng": 86.206071,
      "address": "Ground Floor, Kuakhia - Sarifabad, Rasalpur, Sarangapur",
      "open_now": true
    },
    {
      "place_id": "ChIJQTZrwvRXGToR-zOOh9hct2k",
      "name": "Best Recharge",
      "lat": 20.8988221,
      "lng": 86.2183414,
      "address": "V6X9 J35, Soti",
      "open_now": null
    },
    {
      "place_id": "ChIJ6SusKgBZGToRgtjtaupPyJY",
      "name": "Shree Gopal Filling Station - Nayara Energy",
      "lat": 20.8147046,
      "lng": 86.2104172,
      "address": "R676+V5M, Bari - Jajpur Highway, Baransa",
      "open_now": null
    },
    {
      "place_id": "ChIJpY1Ac31bGToRVGgevcKRsPg",
      "name": "IndianOil",
      "lat": 20.7653305,
      "lng": 86.1264396,
      "address": "Ground Floor Gangadharpur, Jarakaps, Dharmasala, Jaraka",
      "open_now": true
    },
    {
      "place_id": "ChIJJYcsvNFbGToR14Xgw_o0HiI",
      "name": "PRIYABRATA ROUT",
      "lat": 20.7651855,
      "lng": 86.1621217,
      "address": "Shop No 1, Jaraka",
      "open_now": null
    },
    {
      "place_id": "ChIJRyN9KfZbGToR3XPPBJ6AbrY",
      "name": "IndianOil",
      "lat": 20.7651693,
      "lng": 86.16222239999999,
      "address": "Ground Floor Badamangalpur, Dharmasala, Areikana",
      "open_now": true
    },
    {
      "place_id": "ChIJtZO_haFbGToRdPHNi55uW08",
      "name": "SANJIBANI PHARMA &FUELS",
      "lat": 20.7650015,
      "lng": 86.1632399,
      "address": "Kaima, Jaraka",
      "open_now": null
    },
    {
      "place_id": "ChIJq_xp93JcGToR8Q-_h_85YAs",
      "name": "Hindustan Petroleum Corporation Limited",
      "lat": 20.7550302,
      "lng": 86.1524342,
      "address": "Ground Floor, Dharmasala",
      "open_now": true
    },
    {
      "place_id": "ChIJLxDffCFbGToRG3MgvjCDN5U",
      "name": "Bharat Petroleum, Petrol Pump -P C R Filling Station",
      "lat": 20.765241,
      "lng": 86.13481259999999,
      "address": "JARAKA-JAJPUR, JAJPUR",
      "open_now": true
    },
    {
      "place_id": "ChIJSTwp2gdcGToR-5umZM3ELyQ",
      "name": "Hindustan Petroleum Corporation Limited",
      "lat": 20.7610599,
      "lng": 86.1679061,
      "address": "near Kaima, Ground Floor Dharamsala, near Kaima, Santi Bazar, Digambarpur",
      "open_now": true
    },
    {
      "place_id": "ChIJTbKINWRdGToRRyy7nRssCFM",
      "name": "Reliance Petroleum",
      "lat": 20.7526123,
      "lng": 86.1506473,
      "address": "NH-5, IN FRONT OF SADBHAV CONSTRUCTION, POST OFFICE DHARMASALA, DISTRICT:, Chandikhol",
      "open_now": true
    },
    {
      "place_id": "ChIJARqAGgBdGToR3INlgESnsXU",
      "name": "Jaraka",
      "lat": 20.752395,
      "lng": 86.150847,
      "address": "Q522+W8R, Sankaridiha",
      "open_now": null
    },
    {
      "place_id": "ChIJW-R28W1cGToRLlUGG3tnDmk",
      "name": "Jio-bp",
      "lat": 20.75222219999999,
      "lng": 86.1502086,
      "address": "Ground Floor Nh 5, Dharmasala, Shankharidiha, Infront Of Sadbhav Construction",
      "open_now": true
    },
    {
      "place_id": "ChIJ5Q3YBmxcGToRMLwnbzsCogI",
      "name": "IndianOil",
      "lat": 20.7472511,
      "lng": 86.1499111,
      "address": "Rathia, Haridaspur",
      "open_now": true
    },
    {
      "place_id": "ChIJXzJc8ZFfGToR5qRKBaxNCdI",
      "name": "Bharat Petroleum Petrol Pump , MAMALI FILLING STATION",
      "lat": 20.75462,
      "lng": 86.18009300000001,
      "address": "AT & P.O. KAIMAP.S, Dharmasala",
      "open_now": true
    },
    {
      "place_id": "ChIJ8awc9G1dGToRJbmA2OlaGZQ",
      "name": "IndianOil",
      "lat": 20.8020089,
      "lng": 86.1654018,
      "address": "Ground Floor, Subhadrapur",
      "open_now": true
    },
    {
      "place_id": "ChIJDS2vJtBbGToR2w6ngrxmOaI",
      "name": "IndianOil",
      "lat": 20.8025296,
      "lng": 86.1653086,
      "address": "Lock No Ig 197 104, 2 Sets, Kuakhia, Durgapur",
      "open_now": true
    },
    {
      "place_id": "ChIJFV6fT2FdGToRBNlpYy5Af9E",
      "name": "Bharat petrol pump with CNG",
      "lat": 20.7401212,
      "lng": 86.1457434,
      "address": "Badshahi Road, Dharmasala",
      "open_now": null
    },
    {
      "place_id": "ChIJt7q6r-5dGToRiT5N3YSNiVo",
      "name": "NAYARA Premium Pump - Omm Maa Bhubaneswari Fuels",
      "lat": 20.7353974,
      "lng": 86.14373839999999,
      "address": "Premium Pump ⛽, NH-16, Chennai - Kolkata Highway, Saroi, Neulpur",
      "open_now": true
    },
    {
      "place_id": "ChIJT4LRHdZbGToR4_P0swlZjTQ",
      "name": "IndianOil",
      "lat": 20.8058947,
      "lng": 86.175488,
      "address": "Ground Floor Prathamkhand, Areikana",
      "open_now": true
    },
    {
      "place_id": "ChIJO1HSXmVdGToRqgqp9vuAwJU",
      "name": "IndianOil",
      "lat": 20.7331335,
      "lng": 86.1417891,
      "address": "Ground Floor, Saroi,Arakhpur, Dhanmandal",
      "open_now": true
    },
    {
      "place_id": "ChIJfXpBZ-1nGToRn-E9KdyrsBE",
      "name": "Bharat Petroleum, Petrol Pump -Dolphin Petroleum",
      "lat": 20.6561076,
      "lng": 86.1129028,
      "address": "MANGULI BADCHANA- NH5 - CU, JAJPUR",
      "open_now": true
    },
    {
      "place_id": "ChIJ0W-Lno5nGToRKt4ZYDuksGs",
      "name": "IndianOil - SWAGAT",
      "lat": 20.661067,
      "lng": 86.11940799999999,
      "address": "Ground Floor, Chakdeulkur, Badachana, Deulkur",
      "open_now": true
    },
    {
      "place_id": "ChIJ1YKPLd1nGToRxnRkj6IGMt8",
      "name": "IndianOil",
      "lat": 20.6371125,
      "lng": 86.09360629999999,
      "address": "Inayat, Lock No Ig 185 102, 1 Set NH 5, Ngr, Bandala, Chhatia",
      "open_now": true
    },
    {
      "place_id": "ChIJuxjzkCRdGToRmh0TQ1DzMVA",
      "name": "Hindustan Petroleum Corporation Limited",
      "lat": 20.673542,
      "lng": 86.130195,
      "address": "Khata No 46, NH 16, Plot No 661, Bharchhan",
      "open_now": true
    },
    {
      "place_id": "ChIJD6lqiJ5pGToRm4REgEHuAmQ",
      "name": "Hindustan Petroleum Corporation Limited",
      "lat": 20.6230811,
      "lng": 86.0795886,
      "address": "Ground Floor NH 5, Bandalo Road, Chhatia",
      "open_now": true
    },
    {
      "place_id": "ChIJISraetptGToR9XEHV-yuXnc",
      "name": "Hindustan Petroleum Corporation Limited",
      "lat": 20.5512697,
      "lng": 85.98549589999999,
      "address": "Ground Floor, NH 16, Cuttack Chandikhol Road, Kairapari",
      "open_now": true
    },
    {
      "place_id": "ChIJzQJggWxsGToR_JmDUdm0bkw",
      "name": "Hindustan Petroleum Corporation Limited",
      "lat": 20.553071,
      "lng": 85.989511,
      "address": "Ground Floor Kairapari, Tangi",
      "open_now": true
    },
    {
      "place_id": "ChIJaRwAFQBtGToRBBoA0T4_rb0",
      "name": "GAIL CNG FILLING STATION",
      "lat": 20.553335,
      "lng": 85.9897535,
      "address": "HX3Q+8WJ, Kairapari",
      "open_now": null
    },
    {
      "place_id": "ChIJ8dvP0Q9sGToRkPDtwIFSaBU",
      "name": "IBP Petroleum Petrol Bunk",
      "lat": 20.5596757,
      "lng": 85.9998447,
      "address": "Eluru By pass Road 2, Tangi",
      "open_now": null
    },
    {
      "place_id": "ChIJtbzHOYlrGToRbFq7FWw34nw",
      "name": "Petrol Pump",
      "lat": 20.5756875,
      "lng": 85.9851875,
      "address": "Haduotta",
      "open_now": true
    },
    {
      "place_id": "ChIJhcOeCABtGToRnyRWdnL_D5Q",
      "name": "Basudev Filling Center",
      "lat": 20.5603949,
      "lng": 85.9497118,
      "address": "Nakhara, Chaudwar",
      "open_now": true
    },
    {
      "place_id": "ChIJF2AfYjZtGToRjowh0JHmq98",
      "name": "Maa Tarini Filling station",
      "lat": 20.5600344,
      "lng": 85.9494959,
      "address": "Nakhara",
      "open_now": true
    },
    {
      "place_id": "ChIJKTnUEFltGToRDcdsVscda-M",
      "name": "Hanuman Filling Station",
      "lat": 20.5301875,
      "lng": 85.9490625,
      "address": "Cuttack",
      "open_now": true
    },
    {
      "place_id": "ChIJ5TBJBydtGToR6MXxgMU27oI",
      "name": "Mirza Roadlines Room no-8",
      "lat": 20.5338177,
      "lng": 85.9406745,
      "address": "Chandi Filling station manguli",
      "open_now": null
    },
    {
      "place_id": "ChIJO75sz2UNGToRZ9fPPSaxxz0",
      "name": "Bharat Petroleum Petrol Station",
      "lat": 20.4638534,
      "lng": 85.9040083,
      "address": "FW74+93H, Gandarpur, Cuttack",
      "open_now": true
    },
    {
      "place_id": "ChIJ-0ez42ENGToRCpN5NDlvkmI",
      "name": "Hindustan Petroleum",
      "lat": 20.4733373,
      "lng": 85.90569510000002,
      "address": "Sikharpur, Near Gurudwara, NH 5, Sikharpur, Cuttack",
      "open_now": true
    },
    {
      "place_id": "ChIJhfuUNGENGToRyjl4ZfjfqLY",
      "name": "Essar Petrol Pump",
      "lat": 20.4673634,
      "lng": 85.9067891,
      "address": "Gandarpur, Cuttack",
      "open_now": true
    },
    {
      "place_id": "ChIJmR0ktoMNGToRMrmDqbSFhNo",
      "name": "Hardhik & co. (Bharat Petroleum Petrol Pump)",
      "lat": 20.4656149,
      "lng": 85.88663009999999,
      "address": "FV8P+6MR, Bajrakabati Road, Samanta Sahi, Siba Bazar, Cuttack",
      "open_now": true
    },
    {
      "place_id": "ChIJpakVAnkSGToR_R22wwnsNd8",
      "name": "Hindustan Petroleum Corporation Limited",
      "lat": 20.4760651,
      "lng": 85.8822457,
      "address": "Ground Floor, Maachhua Bazar, Cuttack",
      "open_now": true
    },
    {
      "place_id": "ChIJUd1_bJ8NGToR6GclmOflPQk",
      "name": "IndianOil",
      "lat": 20.450931,
      "lng": 85.886337,
      "address": "Lock, 11004, Ring Road, Khan Nagar, Arunodaya Colony, Cuttack",
      "open_now": true
    },
    {
      "place_id": "ChIJi1TNRbgSGToRSnsWKgX03ZM",
      "name": "IndianOil",
      "lat": 20.4967377,
      "lng": 85.9216976,
      "address": "Lock, 12001, NH 5, A D Market, Jagatpur",
      "open_now": true
    },
    {
      "place_id": "ChIJZUTZ1fINGToRll1JI_GP5kY",
      "name": "IndianOil",
      "lat": 20.4634686,
      "lng": 85.86831450000001,
      "address": "Ground Floor, Choudhury Bazar, Cuttack",
      "open_now": true
    },
    {
      "place_id": "ChIJnxOCkQsSGToRQXWmYSHKNLM",
      "name": "IndianOil",
      "lat": 20.4775299,
      "lng": 85.86546539999999,
      "address": "Mission Road, Buxi Bazaar, Cuttack",
      "open_now": true
    },
    {
      "place_id": "ChIJNb8OEKoNGToRHKW5VYr47PU",
      "name": "IndianOil",
      "lat": 20.43119,
      "lng": 85.8902367,
      "address": "Ground Floor, Bajrakabari Road, Srikoruan, Urali",
      "open_now": true
    },
    {
      "place_id": "ChIJS-OJzWYNGToRMzDwvE24vr0",
      "name": "NAYARA",
      "lat": 20.4673494,
      "lng": 85.9068125,
      "address": "India",
      "open_now": null
    },
    {
      "place_id": "ChIJGUID1mYNGToRu8CXiDNr6yU",
      "name": "TRUPTI MARUTI SERVICE STATION",
      "lat": 20.4672039,
      "lng": 85.9074363,
      "address": "India",
      "open_now": null
    },
    {
      "place_id": "ChIJNwUBIwANGToRggVQpyqfkBI",
      "name": "BPCL NRO sikharpur",
      "lat": 20.4658397,
      "lng": 85.9153484,
      "address": "FW88+84Q, kanheipur",
      "open_now": null
    },
    {
      "place_id": "ChIJ0VSyfUsNGToRFk8vDEAunAM",
      "name": "Hindustan Petroleum Corporation Limited",
      "lat": 20.4661437,
      "lng": 85.8966566,
      "address": "Ground Floor, College Square, Cuttack",
      "open_now": true
    },
    {
      "place_id": "ChIJm2-kvm4NGToRACMO8jEiOXk",
      "name": "OMP Petrol Bunk",
      "lat": 20.4567854,
      "lng": 85.9038806,
      "address": "Cuttack - Paradeep Road, Cuttack",
      "open_now": true
    },
    {
      "place_id": "ChIJ7RNsVnANGToRAHB9zo0pGwM",
      "name": "JAGANATH OIL",
      "lat": 20.4588955,
      "lng": 85.8973221,
      "address": "India",
      "open_now": null
    },
    {
      "place_id": "ChIJmZNVMr0NGToRxx4jm1B6kpU",
      "name": "IndianOil",
      "lat": 20.454592,
      "lng": 85.910934,
      "address": "Lock No 21007, Naya Bazaar, Cuttack",
      "open_now": true
    },
    {
      "place_id": "ChIJLW_Mnu8NGToRSMhUAeM6by4",
      "name": "Jay Jagannath Store",
      "lat": 20.4564989,
      "lng": 85.91728499999999,
      "address": "FW48+HWV, near SBI Atm, Naya Bazaar, Cuttack",
      "open_now": null
    },
    {
      "place_id": "ChIJc1p0olUTGToRGajQQpTcxb0",
      "name": "Jk Pvt Ltd",
      "lat": 20.4740959,
      "lng": 85.88962629999999,
      "address": "Behera Colony, Professors Colony, Cuttack",
      "open_now": null
    },
    {
      "place_id": "ChIJFxS7NoMNGToRxaNVE0M_O9k",
      "name": "Hindustan Petroleum Corporation Limited",
      "lat": 20.461701,
      "lng": 85.8860701,
      "address": "Ground Floor, Mahatab Road, Cuttack",
      "open_now": true
    },
    {
      "place_id": "ChIJbfQcYRAKGToRA-bN67qZpd8",
      "name": "IndianOil",
      "lat": 20.296764,
      "lng": 85.85999199999999,
      "address": "Lock No 21018 Mancheswar, Rasulgarh, Bhubaneswar",
      "open_now": true
    },
    {
      "place_id": "ChIJI_kJaRILGToRc5bx_H18Nno",
      "name": "Hindustan Petroleum Corporation Limited",
      "lat": 20.3503951,
      "lng": 85.9008729,
      "address": "Ground Floor, Nakhara, Phulnakhara",
      "open_now": true
    },
    {
      "place_id": "ChIJG8188tcKGToRk2te2P44sQk",
      "name": "IndianOil",
      "lat": 20.329908,
      "lng": 85.921021,
      "address": "Ground Floor, Panchabati Bazar Jagannathpur, Jayarsasan, Balianta, Bhubaneswar",
      "open_now": true
    },
    {
      "place_id": "ChIJT-iRl3egGToRerVssFZ01Lc",
      "name": "Bharat Petroleum, Petrol Pump -Ray Fuel Point",
      "lat": 20.2811965,
      "lng": 85.90062569999999,
      "address": "Balianta, KHORDHA",
      "open_now": true
    },
    {
      "place_id": "ChIJnwsCaqwLGToRySxlp6RXvbs",
      "name": "Hindustan Petroleum Corporation Limited",
      "lat": 20.3343071,
      "lng": 85.8832733,
      "address": "Ground Floor, NH 5, Pahala",
      "open_now": true
    },
    {
      "place_id": "ChIJJ4kDYj4KGToRlc1SUL12BDM",
      "name": "Shanaya Gas",
      "lat": 20.3089989,
      "lng": 85.8649172,
      "address": "8V57+HXV, Murali Marg, Satya Vihar, Rasulgarh, Bhubaneswar",
      "open_now": null
    },
    {
      "place_id": "ChIJBWVRXQALGToRLlavcz0ufME",
      "name": "Maa narayani gas store",
      "lat": 20.343587,
      "lng": 85.8871396,
      "address": "8VVP+CVJ, Pahala",
      "open_now": true
    },
    {
      "place_id": "ChIJHwdAzqYLGToRoYn8HYa9rrM",
      "name": "Hindustan Petroleum Corporation Limited",
      "lat": 20.3475301,
      "lng": 85.88659,
      "address": "Ground Floor, Phulnakhara",
      "open_now": true
    },
    {
      "place_id": "ChIJZTMkeSQKGToRROJL8a-Dtyg",
      "name": "Laxmi Gas Filling",
      "lat": 20.3120046,
      "lng": 85.85593039999999,
      "address": "India",
      "open_now": null
    },
    {
      "place_id": "ChIJt1ci3xAKGToRWNMU9cCL3Pk",
      "name": "ଜଗା ବଳିଆ ଚା ପାନ ଦୋକାନ",
      "lat": 20.2988271,
      "lng": 85.8612878,
      "address": "7VX6+GGM, Cuttack Road, Sector A, Mancheswar Industrial Estate, Bhubaneswar",
      "open_now": null
    },
    {
      "place_id": "ChIJCfBxVjgLGToR3gueH3B62tE",
      "name": "Bharat Petroleum, Petrol Pump -S K Rahaman & S F Rahaman",
      "lat": 20.29790269999999,
      "lng": 85.86033189999999,
      "address": "BHUBANESWAR",
      "open_now": true
    },
    {
      "place_id": "ChIJvVqPfAALGToRWfSdqC9cGag",
      "name": "Biswaswar fuling station",
      "lat": 20.3543071,
      "lng": 85.88964879999999,
      "address": "9V3Q+PVC, Bhubaneswar",
      "open_now": null
    },
    {
      "place_id": "ChIJPR9FVXULGToRwGWROvwc1qE",
      "name": "IndianOil",
      "lat": 20.354823,
      "lng": 85.889411,
      "address": "Ground Floor, Infront of Harley Davidson Showroom, National Highway 16, Balianta, Pahala",
      "open_now": true
    },
    {
      "place_id": "ChIJsc_pUx8LGToRyas2S75kB4w",
      "name": "Maa Magala Aquarium Shops",
      "lat": 20.2978687,
      "lng": 85.8522028,
      "address": "Maa Mangla aquarium Shops, Dalanai bazer Dalanai Bazer, Puri",
      "open_now": null
    },
    {
      "place_id": "ChIJt1Vv90YLGToR3bNmvQJIORw",
      "name": "Lic Premium Point",
      "lat": 20.2895319,
      "lng": 85.861526,
      "address": "Plot No. 1069, East Canal Road, Bomikhal, Rasulgarh, Bhubaneswar",
      "open_now": null
    },
    {
      "place_id": "ChIJ1UNAAYELGToR1l9jtvIP3w4",
      "name": "Fule Pump",
      "lat": 20.3620186,
      "lng": 85.889568,
      "address": "9V6Q+RR4, Nakhara 25, Cuttack",
      "open_now": null
    },
    {
      "place_id": "ChIJQ3T08r0LGToRH3knph8IwEI",
      "name": "GAS POINT",
      "lat": 20.28559719999999,
      "lng": 85.86117019999999,
      "address": "2972, near Shibani Enclave, Dayanandnagar, West Canal Road, Bomikhal, Jharapada, Bhubaneswar",
      "open_now": null
    },
    {
      "place_id": "ChIJn7sXbcsJGToRkp80lWPjdw4",
      "name": "Exal Life Style Pvt Ltd",
      "lat": 20.3039745,
      "lng": 85.8396655,
      "address": "8R3Q+HVM, Utkal Univarsity, Vani Vihar, Bhubaneswar",
      "open_now": null
    },
    {
      "place_id": "ChIJazvmfZGnGToRdFCkR3KP9ec",
      "name": "IndianOil",
      "lat": 20.26515,
      "lng": 85.79245759999999,
      "address": "National Highway 16, Baramunda, Bhubaneswar",
      "open_now": true
    },
    {
      "place_id": "ChIJhdmuyIanGToR4J2lmZgnF3Q",
      "name": "Hindustan Petroleum Corporation Limited",
      "lat": 20.276661,
      "lng": 85.801921,
      "address": "Ground Floor, Fire Station Road, Paika Nagar, Baramunda, Bhubaneswar",
      "open_now": true
    },
    {
      "place_id": "ChIJF554g9enGToRncGUqGCz-Is",
      "name": "IndianOil",
      "lat": 20.2435987,
      "lng": 85.76889949999999,
      "address": "National Highway 16, Patrapada, Bhubaneswar",
      "open_now": true
    },
    {
      "place_id": "ChIJY6NTFtEJGToRgBXeV_7N5oA",
      "name": "Bharat Petroleum: Krishna Filling Station",
      "lat": 20.2885914,
      "lng": 85.81452449999999,
      "address": "in front of ISKON Temple, 1060, NH 5, Nayapalli, Bhubaneswar",
      "open_now": true
    },
    {
      "place_id": "ChIJQzaM6EOnGToR2dZTyI793Ac",
      "name": "IndianOil",
      "lat": 20.264434,
      "lng": 85.832234,
      "address": "No IG193, Lock, 2, Unit 1, Bapuji Nagar, Bhubaneswar",
      "open_now": true
    },
    {
      "place_id": "ChIJH-DBn0anGToRwrNzwE-iK6I",
      "name": "Bharat Petroleum - Rajdhani Service Station",
      "lat": 20.2636743,
      "lng": 85.8345859,
      "address": "4, Raj Path, Unit-2, Ashok Nagar, Bhubaneswar",
      "open_now": true
    },
    {
      "place_id": "ChIJgxb0aN4JGToR9eqoDynWyUs",
      "name": "IndianOil",
      "lat": 20.2860267,
      "lng": 85.8264524,
      "address": "Lock No IG3784, Jayadev Vihar, Bhubaneswar",
      "open_now": true
    },
    {
      "place_id": "ChIJF4CpaG-nGToRfc3x3KlLu5Y",
      "name": "Bharat Petroleum, Petrol Pump-Khandagiri fuel station",
      "lat": 20.2549707,
      "lng": 85.78732289999999,
      "address": "Bhubaneswar",
      "open_now": true
    },
    {
      "place_id": "ChIJzZeezU2nGToR1PbFYPXWivg",
      "name": "CNG Gas station, GAIL",
      "lat": 20.2466552,
      "lng": 85.781466,
      "address": "6QWJ+MH6, Shreekhetra Vihar, Khandagiri, Bhubaneswar",
      "open_now": true
    },
    {
      "place_id": "ChIJyQfe9OynGToReYrwXSCJ5jQ",
      "name": "IndianOil",
      "lat": 20.267427,
      "lng": 85.801253,
      "address": "Ground Floor, Jagamara, Bhubaneswar",
      "open_now": true
    },
    {
      "place_id": "ChIJX3bU1_OnGToRQF-7F2ovH5c",
      "name": "IndianOil",
      "lat": 20.272111,
      "lng": 85.782111,
      "address": "Ghatikia, Khandagiri, Bhubaneswar",
      "open_now": true
    },
    {
      "place_id": "ChIJyywFhh6nGToRofRF1lZ6-D8",
      "name": "My Fuel",
      "lat": 20.2706351,
      "lng": 85.77731080000001,
      "address": "Maa Kali Building, Petrol Pump, Ghatikia, Bhubaneswar",
      "open_now": null
    },
    {
      "place_id": "ChIJ41yEqJynGToRCcibrlr4XnE",
      "name": "Petrol Station BP",
      "lat": 20.268196,
      "lng": 85.8027254,
      "address": "82, University Agriculture Farm Road, Soubhagya Nagar, Baramunda, Bhubaneswar",
      "open_now": true
    },
    {
      "place_id": "ChIJx8mvZWWnGToRvvTE8vOT-Jo",
      "name": "IndianOil",
      "lat": 20.2452,
      "lng": 85.7787,
      "address": "Lock No 23008, NH 5, 10/2, Aiginia, Kuber Puri, Bhubaneswar",
      "open_now": true
    },
    {
      "place_id": "ChIJUyc9osanGToR2fizalKDQec",
      "name": "Karan Mobile",
      "lat": 20.2751885,
      "lng": 85.7908999,
      "address": "Bus Stand, 136, RBI Colony, Baramunda, Bhubaneswar",
      "open_now": null
    },
    {
      "place_id": "ChIJsU1XBgCnGToRaZk8W56A_5M",
      "name": "Sumeet Security Service",
      "lat": 20.2704544,
      "lng": 85.8044547,
      "address": "7RC3+5QP, Lane 4, Satabdi Nagar, Baramunda, Bhubaneswar",
      "open_now": null
    },
    {
      "place_id": "ChIJjfC4-oinGToRxQmLuLdwBZY",
      "name": "Hindustan Petroleum Corporation Limited",
      "lat": 20.2769701,
      "lng": 85.7954201,
      "address": "Ground Floor, Baramunda, Bhubaneswar",
      "open_now": true
    },
    {
      "place_id": "ChIJWQuvVQCnGToRnXjZCyBbzN4",
      "name": "Kk",
      "lat": 20.2788292,
      "lng": 85.7947875,
      "address": "7QHV+GWM, Baramunda, Bhubaneswar",
      "open_now": null
    },
    {
      "place_id": "ChIJk-j6SXenGToRm2LNz_bY6pk",
      "name": "Sahoo babu",
      "lat": 20.2805591,
      "lng": 85.796087,
      "address": "L-197, Bhubaneswar",
      "open_now": true
    },
    {
      "place_id": "ChIJL02ZUrinGToRX7qtsSs5gBc",
      "name": "CNG FILLING GAIL POKHARIPUT",
      "lat": 20.2438207,
      "lng": 85.80991949999999,
      "address": "Pokhariput Main Road, Pokhariput, Bhubaneswar",
      "open_now": true
    },
    {
      "place_id": "ChIJfSKpypGrGToRlZNMN56Kdrs",
      "name": "Bharat Petroleum Kasi Motors",
      "lat": 20.1954634,
      "lng": 85.6562762,
      "address": "Kanjiama",
      "open_now": true
    },
    {
      "place_id": "ChIJUZMIfV6rGToRNmVGiotPxuo",
      "name": "Bharat Petroleum, Petrol Pump -Kasi Motor Service Station",
      "lat": 20.1865903,
      "lng": 85.6204834,
      "address": "KHURDA, Khordha",
      "open_now": true
    },
    {
      "place_id": "ChIJNU964WCpGToRnibaMNXXrPs",
      "name": "Hindustan Petroleum Corporation Limited",
      "lat": 20.2094501,
      "lng": 85.6881401,
      "address": "Ground Floor, Rajpath, Bhatakuri",
      "open_now": true
    },
    {
      "place_id": "ChIJLTCLypqrGToRefo9C-wqLXw",
      "name": "BPCL Petrol Pump - Bhagabati Highway Service Station, Khordha",
      "lat": 20.1941,
      "lng": 85.6524,
      "address": "National Highway 16, Pitapalli",
      "open_now": true
    },
    {
      "place_id": "ChIJZ3IzoJqrGToRgwfNvPQ-pH0",
      "name": "Hindustan Petroleum Corporation Limited",
      "lat": 20.1953801,
      "lng": 85.6536101,
      "address": "Ground Floor, Bypass Road, Khordha",
      "open_now": true
    },
    {
      "place_id": "ChIJO8gQOZCrGToRpR1e6JTD8gI",
      "name": "SHREE JAGANNATH OIL",
      "lat": 20.1952523,
      "lng": 85.65547049999999,
      "address": "5MW4+455, Khurdha Bypass Road, Khordha",
      "open_now": null
    },
    {
      "place_id": "ChIJGZefVGOrGToRnFvRQZwPjmA",
      "name": "IndianOil",
      "lat": 20.1872332,
      "lng": 85.6331471,
      "address": "Ground Floor, Main Road, Mukundaprasad, Bagheitangi",
      "open_now": true
    },
    {
      "place_id": "ChIJt-H4Q4GsGToRlVS49bUjz-k",
      "name": "RASUDEV OIL",
      "lat": 20.1768996,
      "lng": 85.63928609999999,
      "address": "India",
      "open_now": null
    },
    {
      "place_id": "ChIJ86mhYR-tGToRvpiSB8fyNlI",
      "name": "Jio-bp",
      "lat": 20.176364,
      "lng": 85.640126,
      "address": "Plot No, 31/A, National Highway 16, Industrial Area, Mukundaprasad, Khordha",
      "open_now": true
    },
    {
      "place_id": "ChIJ5wrL8WerGToRo_fj_RNyKT4",
      "name": "Binod Bihari KSK",
      "lat": 20.1922752,
      "lng": 85.6235066,
      "address": "5JRF+WC6, Gurujanga, Khordha",
      "open_now": true
    },
    {
      "place_id": "ChIJyyAzO2qrGToRTu8Ldp2zchU",
      "name": "NISAMANI TRADERS",
      "lat": 20.1999344,
      "lng": 85.624646,
      "address": "5JXF+XVC, Gurujanga - Kumbharbasta Road, Gurujanga, Khordha",
      "open_now": null
    },
    {
      "place_id": "ChIJ2dPm8GerGToRYsEfClFYKAg",
      "name": "IndianOil",
      "lat": 20.192001,
      "lng": 85.6233767,
      "address": "Ground Floor Gurujang, Bagheitangi",
      "open_now": true
    },
    {
      "place_id": "ChIJ0SImCgCtGToRzXfPBYGQlBQ",
      "name": "PRAYAGA AGENCY",
      "lat": 20.1739134,
      "lng": 85.6714179,
      "address": "5MFC+HH7, Jatni - Pipili Road, Pipili",
      "open_now": null
    },
    {
      "place_id": "ChIJMVLuJuKtGToR2EzHmRp2JIU",
      "name": "IndianOil",
      "lat": 20.17291999999999,
      "lng": 85.62761499999999,
      "address": "near Gada Khordha, Ground Floor Nh 16, Jagannathpur, near Gada Khordha, Chaka, Khordha",
      "open_now": true
    },
    {
      "place_id": "ChIJJ7YNMgCrGToRqLpZQrYF6To",
      "name": "Nayara Energy -Gini Trading",
      "lat": 20.1888082,
      "lng": 85.60971550000001,
      "address": "5JQ5+FPC, New Medical Road, Khordha",
      "open_now": null
    },
    {
      "place_id": "ChIJ0SCZr02rGToRYlrJJvtrhIk",
      "name": "Sahil",
      "lat": 20.2239546,
      "lng": 85.6722219,
      "address": "Farang",
      "open_now": null
    },
    {
      "place_id": "ChIJNbRJTUStGToRivm3MzVdMqQ",
      "name": "IndianOil",
      "lat": 20.17827639999999,
      "lng": 85.61090220000001,
      "address": "Ground Floor, Sanapalla, Kalyanpur",
      "open_now": true
    },
    {
      "place_id": "ChIJt_oVOwCpGToR8LRhuuGDBXk",
      "name": "BPC bunk truck parking",
      "lat": 20.2076156,
      "lng": 85.68752719999999,
      "address": "6M5Q+22R, Odisha Mouza - Bhatakhuri, Gangapada",
      "open_now": null
    },
    {
      "place_id": "ChIJZwvBo9ipGToRUTMcEbyhqS8",
      "name": "AROHI ENTERPRISES",
      "lat": 20.2080549,
      "lng": 85.6874361,
      "address": "Odisha Mouza - Bhatakhuri, Gangapada",
      "open_now": true
    },
    {
      "place_id": "ChIJ98xz82CpGToRYL9f35-2oFk",
      "name": "Petroleum",
      "lat": 20.2083168,
      "lng": 85.6875295,
      "address": "India",
      "open_now": null
    },
    {
      "place_id": "ChIJ7SzC49ysGToRt2fKiBmOWl4",
      "name": "IndianOil",
      "lat": 20.142987,
      "lng": 85.619925,
      "address": "Khata No 95/77, Plot No 311 Shialiapatna, Khordha, Bangida",
      "open_now": true
    },
    {
      "place_id": "ChIJC5pWp5dTGDoRnCR1App0Dhs",
      "name": "Khurdha",
      "lat": 20.1219986,
      "lng": 85.5792051,
      "address": "4HCH+RJ8, Dadhimachhagadia",
      "open_now": null
    },
    {
      "place_id": "ChIJ-f9adyBTGDoRCir1hQ2sLBM",
      "name": "Hindustan Petroleum Corporation Limited",
      "lat": 20.12217069999999,
      "lng": 85.5787826,
      "address": "Ground Floor, NH 16, Dadhimachhagadia",
      "open_now": true
    },
    {
      "place_id": "ChIJ9XeE0-dSGDoRSJmbcbTrArg",
      "name": "IndianOil",
      "lat": 20.1212898,
      "lng": 85.57933829999999,
      "address": "Ground Floor, Kuradhamalla",
      "open_now": true
    },
    {
      "place_id": "ChIJYb6f0-dSGDoRJPSz2sEZuSE",
      "name": "Inland",
      "lat": 20.1212541,
      "lng": 85.5793856,
      "address": "India",
      "open_now": null
    },
    {
      "place_id": "ChIJeww5LilTGDoRu0QexGXMYOg",
      "name": "Hindustan Petroleum Corporation Limited",
      "lat": 20.138656,
      "lng": 85.59473899999999,
      "address": "Ground Floor, NH 15, Dalaiput",
      "open_now": true
    },
    {
      "place_id": "ChIJj7KrPZ9TGDoRdZugJ-SfZvI",
      "name": "IndianOil",
      "lat": 20.13751169999999,
      "lng": 85.56073669999999,
      "address": "Ground Floor Deulatangi, Dadhimachhagadia",
      "open_now": true
    },
    {
      "place_id": "ChIJkY-_hR2tGToRzmOAbvP_m7A",
      "name": "HIGHWAY FILLING STATION",
      "lat": 20.1513875,
      "lng": 85.60291989999999,
      "address": "5J23+H53, near Madina Dhaba, Daleiput Road, Dalaiput",
      "open_now": true
    },
    {
      "place_id": "ChIJB1L9UcusGToRQKOtrbxo_vI",
      "name": "Bharat Petroleum",
      "lat": 20.1518338,
      "lng": 85.60272479999999,
      "address": "India",
      "open_now": null
    },
    {
      "place_id": "ChIJm69teQBTGDoRWcm7MipiqgE",
      "name": "DEF adblue यूरिया पम्प",
      "lat": 20.0945878,
      "lng": 85.5693823,
      "address": "3HV9+VRX, Katikata - Jaipur Road, Kiajhari",
      "open_now": true
    },
    {
      "place_id": "ChIJUYSyQMusGToRgyhhuHErQ5o",
      "name": "THE ORIGINAL ENGINE OIL",
      "lat": 20.1540474,
      "lng": 85.60399129999999,
      "address": "India",
      "open_now": null
    },
    {
      "place_id": "ChIJoycRHTFTGDoRnD78RWXbFTU",
      "name": "IndianOil",
      "lat": 20.0892518,
      "lng": 85.56622329999999,
      "address": "Ground Floor, NH 16, Malipada",
      "open_now": true
    },
    {
      "place_id": "ChIJ3WYxQL6tGToRasccynqB7uc",
      "name": "Meghdoot filling station (Indian Oil)",
      "lat": 20.1597904,
      "lng": 85.60754070000002,
      "address": "near Ex Military kitchen, National Highway 16, Palla",
      "open_now": true
    },
    {
      "place_id": "ChIJE0YROqNTGDoRhDP-hoY5G08",
      "name": "Hindustan Petroleum Corporation Limited",
      "lat": 20.169651,
      "lng": 85.582386,
      "address": "Ground Floor, near AAA School Road, Khordha",
      "open_now": true
    },
    {
      "place_id": "ChIJ8Z4Yg89NGDoRF37LS7wmCBQ",
      "name": "Bharat Petroleum Annapurna Filling Station",
      "lat": 20.0476647,
      "lng": 85.5326566,
      "address": "2GXM+337, National Highway 16, Kalibati",
      "open_now": true
    },
    {
      "place_id": "ChIJQePyUZBOGDoRjmdZQ5tFHu8",
      "name": "IndianOil",
      "lat": 20.02153,
      "lng": 85.50754669999999,
      "address": "Ground Floor Birakesharpur, Jankia, Chouk, Rameswar",
      "open_now": true
    },
    {
      "place_id": "ChIJkbYSE-JPGDoRfTMmxGFfYF8",
      "name": "Hindustan Petroleum Corporation Limited",
      "lat": 20.0466083,
      "lng": 85.4969083,
      "address": "Ground Floor, Hanumantpur, Jankia",
      "open_now": true
    },
    {
      "place_id": "ChIJ-fo7MABPGDoRNLsb4QzwnEE",
      "name": "Maa Ugratara DPS Filling Station- Nayara",
      "lat": 20.0163264,
      "lng": 85.5022231,
      "address": "2G82+GVQ, Bagheiput",
      "open_now": null
    },
    {
      "place_id": "ChIJAUrK-hlMGDoRrf6QW95RNos",
      "name": "Samantaray filling station",
      "lat": 20.0073741,
      "lng": 85.5297691,
      "address": "Padmapur U.P School, Nua Jagannath Sadak, Nirakarpur",
      "open_now": true
    },
    {
      "place_id": "ChIJC0DpMEVOGDoRfBvVrUJzUyc",
      "name": "HP Petrol Pump",
      "lat": 20.0479671,
      "lng": 85.49225539999999,
      "address": "At/po Olosingh Hanumathpur, PS: Jankia Dist:, Bhubaneshwar",
      "open_now": true
    },
    {
      "place_id": "ChIJ7-VnYMtNGDoRVmH6ipEipJ4",
      "name": "Bharat Petroleum, Petrol Pump -Annapurna Filling Station",
      "lat": 20.0594689,
      "lng": 85.54784459999999,
      "address": "NH5-JANKIA-KHURDA, Khordha",
      "open_now": true
    },
    {
      "place_id": "ChIJa995Mw5NGDoR_AfHnQl02E8",
      "name": "IndianOil",
      "lat": 20.0667537,
      "lng": 85.5497615,
      "address": "Ground Floor, NH 16, Jankia",
      "open_now": true
    },
    {
      "place_id": "ChIJHTAzlNxOGDoRGkVcOdgJyq8",
      "name": "Bharat Petroleum",
      "lat": 20.0067426,
      "lng": 85.4876049,
      "address": "India",
      "open_now": null
    },
    {
      "place_id": "ChIJHeDYoJxPGDoRXEcUoef5xpM",
      "name": "GAIL CNG Kuber Filling Station",
      "lat": 20.0066785,
      "lng": 85.48761789999999,
      "address": "2F4Q+M2H, Katikata - Jaipur Road, Ratamati",
      "open_now": null
    },
    {
      "place_id": "ChIJBWAVLAxHGDoRY3s7q8H3plE",
      "name": "IndianOil",
      "lat": 19.9189737,
      "lng": 85.3878015,
      "address": "Ground Floor, Tangi",
      "open_now": true
    },
    {
      "place_id": "ChIJQYR6I0xHGDoRZul9_Q_Z2vU",
      "name": "IndianOil",
      "lat": 19.9548976,
      "lng": 85.4021942,
      "address": "Ground Floor, Kandhanayagarh",
      "open_now": true
    },
    {
      "place_id": "ChIJC5pE86dHGDoRAAAAMPIPv2g",
      "name": "RAGHUNATH FUEL POINT",
      "lat": 19.924608,
      "lng": 85.3966464,
      "address": "W9FW+RMR, Tangi",
      "open_now": null
    },
    {
      "place_id": "ChIJ0TydT65JGDoRAwRDfBXaH0Y",
      "name": "IndianOil",
      "lat": 19.93364279999999,
      "lng": 85.4490235,
      "address": "Ground Floor, Road, Sundarpur, Mangalajodi",
      "open_now": true
    },
    {
      "place_id": "ChIJ1_247OoVGDoR0naMcvd4U_o",
      "name": "Prabhukrupa Fuels ksk",
      "lat": 19.79409979999999,
      "lng": 85.24170819999999,
      "address": "Q6VR+JMP, Old Asian Highway 45, Gamei",
      "open_now": true
    },
    {
      "place_id": "ChIJGUXZy8gVGDoR-J6HJB15kHs",
      "name": "IndianOil",
      "lat": 19.7949488,
      "lng": 85.2428139,
      "address": "Plot No 1237, Khata No 578/159, Brahmanakusadihi, Balugaon, Ankulachati",
      "open_now": true
    },
    {
      "place_id": "ChIJ1WpQ090WGDoREVE2ouzJoik",
      "name": "Bharat Petroleum D. Ramamurty. Patra & Sons",
      "lat": 19.7492704,
      "lng": 85.2076546,
      "address": "Main Road, Balugaon",
      "open_now": true
    },
    {
      "place_id": "ChIJc-lZLNwWGDoRQoSHwOtDFFQ",
      "name": "Hindustan Petroleum Corporation Limited",
      "lat": 19.74923009999999,
      "lng": 85.20700099999999,
      "address": "Ground Floor, NH 5, Balugaon",
      "open_now": true
    },
    {
      "place_id": "ChIJb09FRD0XGDoRReHYKFUlE_I",
      "name": "Shree Krishna filling station",
      "lat": 19.7477665,
      "lng": 85.2066373,
      "address": "P6X4+4M2, Balugaon",
      "open_now": null
    },
    {
      "place_id": "ChIJBepc55QXGDoR-segc8AzCd8",
      "name": "HP Gas Office",
      "lat": 19.74638299999999,
      "lng": 85.2072372,
      "address": "4r, Bidyadharpur Road, Bidyadharpur, Cuttack",
      "open_now": null
    },
    {
      "place_id": "ChIJndxii7QTGDoRrbW6vM4NaVw",
      "name": "Dilip Kumar Das",
      "lat": 19.78643,
      "lng": 85.1751938,
      "address": "Pretol Pump, Banapur",
      "open_now": null
    },
    {
      "place_id": "ChIJoyA12lgRGDoRmDmkcGoJX64",
      "name": "Banapur Petrol Pump",
      "lat": 19.7870073,
      "lng": 85.1746634,
      "address": "Q5MF+GGJ, Pandiripadar, Banapur",
      "open_now": true
    },
    {
      "place_id": "ChIJ0zFxUhgVGDoR-ef3I4KCRSw",
      "name": "IndianOil",
      "lat": 19.800424,
      "lng": 85.245841,
      "address": "Ground Floor, Near Solari Dhaba, Bypass, Balugaon",
      "open_now": true
    },
    {
      "place_id": "ChIJEcniGQARGDoRvu3_8bmuhpc",
      "name": "Annu",
      "lat": 19.7800296,
      "lng": 85.1696971,
      "address": "Indian oil petrol pump, Banapur",
      "open_now": null
    },
    {
      "place_id": "ChIJGep_O4cRGDoR7oU33h_axfE",
      "name": "Lingeswar special chaat",
      "lat": 19.7800296,
      "lng": 85.1696971,
      "address": "petrol pump, Banapur",
      "open_now": false
    },
    {
      "place_id": "ChIJ955u-esRGDoRBhKJIuCeOyY",
      "name": "IndianOil",
      "lat": 19.7458124,
      "lng": 85.1835294,
      "address": "NH 16, Balugaon",
      "open_now": true
    },
    {
      "place_id": "ChIJAQAAABsaGDoRZgjJasG6Zqk",
      "name": "IndianOil",
      "lat": 19.68017099999999,
      "lng": 85.173885,
      "address": "Ground Floor, Narayani Road, Chhak, Aitipur",
      "open_now": true
    },
    {
      "place_id": "ChIJI7o-IuIbGDoRNFocC24wjdI",
      "name": "BHAGIRATHI MOBILITY STATION",
      "lat": 19.6729948,
      "lng": 85.16821639999999,
      "address": "RELIANCE PETROL PUMP, PATHARAKATA, PLOT NO 862/1690, PLOT NO 862/1689 KHALIKOT, LANGALESWAR, KESHPUR, DIST, Khallikot",
      "open_now": null
    },
    {
      "place_id": "ChIJlx2Mc_sbGDoRD4ByrzBVRWk",
      "name": "Jio-bp",
      "lat": 19.6730582,
      "lng": 85.1679035,
      "address": "Ground Floor, Patharakata",
      "open_now": true
    },
    {
      "place_id": "ChIJZYqKWrAFGDoRxCK-BvVMxUE",
      "name": "Lingraj Fuels-Nayara Energy",
      "lat": 19.6076181,
      "lng": 85.1060528,
      "address": "in front of Exercise office, Keshpur Road, Khallikot",
      "open_now": true
    },
    {
      "place_id": "ChIJo6fxQhUbGDoRhmMGA3dEWZ4",
      "name": "IndianOil",
      "lat": 19.6237972,
      "lng": 85.1286013,
      "address": "Ground Floor, Keshpur",
      "open_now": true
    },
    {
      "place_id": "ChIJqeJbOgADGDoRp9URWimrHk8",
      "name": "Ramadevi Filling Satation - Nayara Energy",
      "lat": 19.5670781,
      "lng": 85.0947477,
      "address": "H38V+RVQ, Khallikot",
      "open_now": null
    },
    {
      "place_id": "ChIJqZCH5J35FzoR4W782a14c_k",
      "name": "IndianOil",
      "lat": 19.43040839999999,
      "lng": 85.07053909999999,
      "address": "Ground Floor, Rambha",
      "open_now": true
    },
    {
      "place_id": "ChIJSQ7YYjn7FzoRMBrX5PMP_kM",
      "name": "IndianOil",
      "lat": 19.39451,
      "lng": 85.065968,
      "address": "Ground Floor Nh 16, Pallibandha",
      "open_now": true
    },
    {
      "place_id": "ChIJFRBSXxf5FzoRhMeHWDemlWc",
      "name": "Omkar Dinbandhu Filling Station",
      "lat": 19.4578125,
      "lng": 85.0811875,
      "address": "F35J+4F, NH16, Subalaya",
      "open_now": true
    },
    {
      "place_id": "ChIJcQPzfwb9FzoRGxMI_R9mTeQ",
      "name": "IndianOil",
      "lat": 19.3507367,
      "lng": 84.9738783,
      "address": "Ground Floor NH 5, Chhatrapur, Agasti Nuagam",
      "open_now": true
    },
    {
      "place_id": "ChIJ26iMhwb9FzoRSWvd1EYrREU",
      "name": "OMM OILS",
      "lat": 19.3514986,
      "lng": 84.9739735,
      "address": "9X2F+HHX, Service Road, Chatrapur",
      "open_now": null
    },
    {
      "place_id": "ChIJKQjHU3L9FzoR6Ghw7TMo6bo",
      "name": "Bharat Petroleum, Petrol Pump -Maa Adishakti Filling Station",
      "lat": 19.3471,
      "lng": 84.9580016,
      "address": "NH-5,GANJAM Dist., Chatrapur",
      "open_now": true
    },
    {
      "place_id": "ChIJhd263xr9FzoRXsP5TAzmkLM",
      "name": "Bharat Petroleum, Petrol Pump -Orissa Pisciculture Dev. Corpn. Ltd",
      "lat": 19.3520376,
      "lng": 84.9851162,
      "address": "HIGH SCHOOL SQ., CHATRAP, Ganjam",
      "open_now": true
    },
    {
      "place_id": "ChIJ5ah3gc_9FzoR06_4jEa8yNE",
      "name": "IndianOil",
      "lat": 19.364285,
      "lng": 85.00769199999999,
      "address": "Ground Floor NH 16, Humuri, Chatrapur, Agastinuagam",
      "open_now": true
    },
    {
      "place_id": "ChIJwUBTzEVXPToR4aAMiFf8GWc",
      "name": "IndianOil",
      "lat": 19.3231993,
      "lng": 84.868123,
      "address": "Ground Floor, Narendrapur, Jaganathpur",
      "open_now": true
    },
    {
      "place_id": "ChIJ8Tbnz0VXPToRTeRj4NMUtCM",
      "name": "Bharat Petroleum, CNG & Petrol Pump -Bhambra Highway Service Station",
      "lat": 19.3235139,
      "lng": 84.8692829,
      "address": "BERHAMPUR, GANJAM",
      "open_now": true
    },
    {
      "place_id": "ChIJxbMNhahQPToR6V0Lh7xOckg",
      "name": "IndianOil",
      "lat": 19.309402,
      "lng": 84.84700149999999,
      "address": "Ground Floor Gopalpur Jn, Badakusasthali, Berhampur",
      "open_now": true
    },
    {
      "place_id": "ChIJ-THkyOFXPToR858_4A5II8Q",
      "name": "M/s Pankaj Filling Station",
      "lat": 19.3219067,
      "lng": 84.86512809999999,
      "address": "NH 16, Jagannathpur Pukudibanha Junction",
      "open_now": null
    },
    {
      "place_id": "ChIJvYpquOFRPToRu0oGw8f0Yn8",
      "name": "TULASI FILLING STATION NAYARA",
      "lat": 19.3142427,
      "lng": 84.8550722,
      "address": "8V74+V9X, Dura Bahadurpetta",
      "open_now": true
    },
    {
      "place_id": "ChIJQwZ1eWxXPToRg52j8fQ_OKk",
      "name": "Reliance Petroleum",
      "lat": 19.32719639999999,
      "lng": 84.88329499999999,
      "address": "Narendrapur, Antarbatia",
      "open_now": true
    },
    {
      "place_id": "ChIJfTvaYwBRPToRW4bZMJz5740",
      "name": "Devika Filling Station - Nayara",
      "lat": 19.3146659,
      "lng": 84.8451185,
      "address": "8R7W+V29, Bima Nagar, Brahmapur",
      "open_now": true
    },
    {
      "place_id": "ChIJpZVzWmxXPToRVUj37pery8s",
      "name": "IndianOil",
      "lat": 19.32715,
      "lng": 84.88468,
      "address": "Ground Floor, Nh 5, Raghunathapur",
      "open_now": true
    },
    {
      "place_id": "ChIJYxugwt1ZPToRA6TQ2OnF3-k",
      "name": "IndianOil",
      "lat": 19.2983057,
      "lng": 84.8671864,
      "address": "Berhampur - Gopalpur Road, Dura Bahadurpetta",
      "open_now": true
    },
    {
      "place_id": "ChIJk57DksFXPToR_pAhEYcrJxI",
      "name": "Nayara petrol pump (Aditya Fuel Station)",
      "lat": 19.3472461,
      "lng": 84.8702843,
      "address": "in front of Tata colony, Narendrapur, Tata Colony, Brahmapur",
      "open_now": true
    },
    {
      "place_id": "ChIJHfZwKp9QPToROXo8glGZ3bI",
      "name": "IndianOil",
      "lat": 19.31135829999999,
      "lng": 84.8333017,
      "address": "Ground Floor, Khodasinghi, Ankuli, Brahmapur",
      "open_now": true
    },
    {
      "place_id": "ChIJkYzqUb1XPToRojlrIIcRiBo",
      "name": "Hindustan Petroleum Corporation Limited",
      "lat": 19.3321536,
      "lng": 84.9100654,
      "address": "Ground Floor, NH 5, Chamakhandi",
      "open_now": true
    },
    {
      "place_id": "ChIJdTGfwypFPToRAMm2yjJ3NHw",
      "name": "IndianOil",
      "lat": 19.25867629999999,
      "lng": 84.77270949999999,
      "address": "Ground Floor, Golanthara, Kanisi",
      "open_now": true
    },
    {
      "place_id": "ChIJeU06EWNDPToRIpFW1mEwAZU",
      "name": "IndianOil",
      "lat": 19.2043349,
      "lng": 84.7437381,
      "address": "Ground Floor, NH 5 Ganjam, Tamarapalli, Girisola",
      "open_now": true
    },
    {
      "place_id": "ChIJu4VTumRDPToRjFljufh4Cwk",
      "name": "TRINATH FILLING STATION NAYARA PETROL PUMP",
      "lat": 19.20112109999999,
      "lng": 84.74303689999999,
      "address": "6P2V+C6V, Brahmapur",
      "open_now": true
    },
    {
      "place_id": "ChIJUS7ro0dFPToR_c5Owe0eS6Y",
      "name": "Pandit service centre",
      "lat": 19.2435253,
      "lng": 84.76604189999999,
      "address": "6QV8+CC7, Unnamed Road, Konisi",
      "open_now": null
    },
    {
      "place_id": "ChIJTWfd481aPToRrdrO8lfhBeA",
      "name": "Hindustan Petroleum Corporation Limited",
      "lat": 19.2693589,
      "lng": 84.7783091,
      "address": "Ground Floor Haldiapadar, opposite Auto Nagar, Ralaba",
      "open_now": true
    },
    {
      "place_id": "ChIJlyZBrlZDPToR-N3-I6Nefvg",
      "name": "Prabha Filling Station",
      "lat": 19.1893686,
      "lng": 84.7562123,
      "address": "Golanthra Biswanathpur Road Haradanga Village Land mark, Bhairavi Temple Road, Brahmapur",
      "open_now": true
    },
    {
      "place_id": "ChIJr7Nf8-JDPToRizDOybjRjd8",
      "name": "Reliance Petroleum",
      "lat": 19.1956336,
      "lng": 84.7346513,
      "address": "in front of ROLLAND INSTITUTE OF ENGINEERING, NH-5, BHALIGARH",
      "open_now": true
    },
    {
      "place_id": "ChIJV2UCL31DPToRcUUE38stZUg",
      "name": "Jio-bp",
      "lat": 19.1953041,
      "lng": 84.7342498,
      "address": "Ground Floor, Valiagad, NH 5, Girisola",
      "open_now": true
    },
    {
      "place_id": "ChIJP101mndDPToRJuzC7ZpZt9o",
      "name": "Girisola Mini Depot",
      "lat": 19.1948528,
      "lng": 84.7336737,
      "address": "5PVM+WFV, Girisola",
      "open_now": null
    },
    {
      "place_id": "ChIJxdMClLZDPToRENlDfZZCsDA",
      "name": "Bharat Petrol Pump",
      "lat": 19.1668031,
      "lng": 84.7142891,
      "address": "5P87+PPF, Ganjam",
      "open_now": true
    },
    {
      "place_id": "ChIJKWXqtaNDPToR4qOIkw3_ryE",
      "name": "Bharat Petroleum Ghar COCO",
      "lat": 19.180514,
      "lng": 84.724947,
      "address": "Chennai - Kolkata Highway, Brahmapur",
      "open_now": true
    },
    {
      "place_id": "ChIJ___PDZ9DPToRzMBxefB4bBE",
      "name": "HPCL Coco Girisola",
      "lat": 19.1856704,
      "lng": 84.7284876,
      "address": "5PPH+799, BH 5, Girisola",
      "open_now": true
    },
    {
      "place_id": "ChIJLxlzEQBDPToRq3V_B1nfN_g",
      "name": "Shree Ram Nayara",
      "lat": 19.133154,
      "lng": 84.70525599999999,
      "address": "4PM4+74, Suvani",
      "open_now": null
    },
    {
      "place_id": "ChIJDZmEYDBDPToRhZPv-iZl0DE",
      "name": "Kamakshi Filling Station",
      "lat": 19.1315101,
      "lng": 84.7051534,
      "address": "Suvani",
      "open_now": true
    },
    {
      "place_id": "ChIJ_6r4fgBDPToR5AL5kO7uwco",
      "name": "Hindustan Petroleum Corporation Limited",
      "lat": 19.128281,
      "lng": 84.703948,
      "address": "Ground Floor, National Highway 16, Subhani",
      "open_now": true
    },
    {
      "place_id": "ChIJGSK5XwBDPToRvZBKzfdga6I",
      "name": "Shyam Sundar Highway Unit",
      "lat": 19.1272783,
      "lng": 84.7043923,
      "address": "NH16, R Subani",
      "open_now": true
    },
    {
      "place_id": "ChIJWUJoxlFDPToRbLyTGtppp0E",
      "name": "IndianOil",
      "lat": 19.12697,
      "lng": 84.705075,
      "address": "Ground Floor Kalabada, Chikiti Badapalanka",
      "open_now": true
    },
    {
      "place_id": "ChIJqefb8mRBPToRLU7Irjw90pI",
      "name": "Bharat Petroleum",
      "lat": 19.1240288,
      "lng": 84.6884821,
      "address": "4MFQ+J99, Ichapuram Main Road, Ichchapuram",
      "open_now": null
    },
    {
      "place_id": "ChIJeUhZ3MVDPToRcPVK8w_yeDM",
      "name": "IndianOil",
      "lat": 19.1788954,
      "lng": 84.7234525,
      "address": "Ground Floor, near Balangir Court, Chennai - Kolkata Highway, Balangir",
      "open_now": true
    },
    {
      "place_id": "ChIJ_QhjcqNDPToR79TGebXriz8",
      "name": "Samalai Filling Station Indian Oil Petrol Pump",
      "lat": 19.179071,
      "lng": 84.723117,
      "address": "Girisola, Ganjam, NH-5, Baharagora Chennai Highway, Berhampur, Brahmapur",
      "open_now": true
    },
    {
      "place_id": "ChIJuX1cvERBPToRoZIj4eoqxLU",
      "name": "SAPPA VAIKUNTA RAO",
      "lat": 19.1186803,
      "lng": 84.6805311,
      "address": "Railway Gate, Ichchapuram",
      "open_now": null
    },
    {
      "place_id": "ChIJ55NmNotDPToRMWiZpCTWVig",
      "name": "Bharat petroleum and restaurant",
      "lat": 19.18092499999999,
      "lng": 84.725205,
      "address": "AH45",
      "open_now": null
    },
    {
      "place_id": "ChIJ9UMM6KFDPToRAJ2PAsoKy4w",
      "name": "BPCL Petroleum Shakti filling station",
      "lat": 19.18332999999999,
      "lng": 84.7275634,
      "address": "Girisola",
      "open_now": true
    },
    {
      "place_id": "ChIJVx8m9klDPToRENbZRTqsdsM",
      "name": "Hindustan Petroleum Corporation Limited",
      "lat": 19.185941,
      "lng": 84.728312,
      "address": "Ground Floor, NH 16, Girisola",
      "open_now": true
    },
    {
      "place_id": "ChIJp4vuOgBBPToRNecN-CfKuSw",
      "name": "General store",
      "lat": 19.1180312,
      "lng": 84.68054149999999,
      "address": "4M9J+667, Ichapuram - Buddipeta Road, Ichchapuram",
      "open_now": null
    },