{
  "from": "Porbandar",
  "to": "Silchar",
  "count": 1464,
  "pumps": [
    {
      "place_id": "ChIJWcpYm-U0VjkReyTrEPsAuic",
      "name": "IndianOil",
      "lat": 21.644994,
      "lng": 69.636713,
      "address": "Ground Floor, Grain Market, Dharampur",
      "open_now": true
    },
    {
      "place_id": "ChIJR33p6vU0VjkR-4iyje63tX0",
      "name": "Shree Parshva Petroleum",
      "lat": 21.6354195,
      "lng": 69.622829,
      "address": "Rajiv Gandhi Road, Khijadi Plot, Panch Hatdi, Porbandar",
      "open_now": true
    },
    {
      "place_id": "ChIJCYPYX-M0VjkRz9Ubqu_I0fE",
      "name": "MAHAVIR OIL AGENCY",
      "lat": 21.6497703,
      "lng": 69.6348606,
      "address": "India",
      "open_now": null
    },
    {
      "place_id": "ChIJ2XVOiP40VjkRwgEWpv5QMFg",
      "name": "Shyam Petroleum-Dealer Bharat Petroleum.",
      "lat": 21.6517493,
      "lng": 69.6263561,
      "address": "near Siddhi Restaurant & Rokadiya Hanuman Mandir, Porbandar-Dwarka Bypass Highway, near Siddhi Restaurant & Rokadiya Hanuman Mandir, New Porbandar, Porbandar",
      "open_now": true
    },
    {
      "place_id": "ChIJr2PAgVk0VjkRB8oES3HayYA",
      "name": "IndianOil",
      "lat": 21.638702,
      "lng": 69.615785,
      "address": "Ground Floor, MG Road, Porbandar",
      "open_now": true
    },
    {
      "place_id": "ChIJhQlQMVo0VjkRY-5J8ir_kQQ",
      "name": "Hindustan Petroleum Corporation Limited",
      "lat": 21.6389072,
      "lng": 69.6143756,
      "address": "Ground Floor, Mahatma Gandhi Road, Porbandar",
      "open_now": true
    },
    {
      "place_id": "ChIJ61yzNcM0VjkRqsGmzoDMYrc",
      "name": "IndianOil",
      "lat": 21.6455012,
      "lng": 69.64949399999999,
      "address": "Ground Floor, NH 8B, near Polytechnic College, Chhaya, Porbandar",
      "open_now": true
    },
    {
      "place_id": "ChIJtZckGds1VjkR35Ik1JzJgZk",
      "name": "Indian oil Indane gas",
      "lat": 21.6283741,
      "lng": 69.6457719,
      "address": "JJHW+88R, Unnamed Road, Siddheshwar Park, Chhaya, Porbandar",
      "open_now": null
    },
    {
      "place_id": "ChIJA3AtD080VjkR0XQMC21NOrc",
      "name": "National Petroleum",
      "lat": 21.6423031,
      "lng": 69.6061422,
      "address": "JJR4+WFC, near Sudama Temple, PORBANDAR, Sudama Puri, Bhatia Bazar Old, Porbandar",
      "open_now": true
    },
    {
      "place_id": "ChIJW2ADOdo1VjkRLISYbk4jXOw",
      "name": "Nayara Petrol Pump",
      "lat": 21.6607867,
      "lng": 69.6183564,
      "address": "MJ69+889, Khapat, New Porbandar, Porbandar",
      "open_now": true
    },
    {
      "place_id": "ChIJP7IpEU80VjkR4Ca_KxhLFU0",
      "name": "Deep Petroleum. (Ioc-Dealer )",
      "lat": 21.6421357,
      "lng": 69.60557399999999,
      "address": "near Sudama Temple, Sudama Puri, Bhatia Bazar Old, Porbandar",
      "open_now": true
    },
    {
      "place_id": "ChIJ7xDAwPQ1VjkRKFcqOdcL2E0",
      "name": "IndianOil",
      "lat": 21.64219,
      "lng": 69.605397,
      "address": "Ground Floor, near Sudama Temple, Sudama Puri, Porbandar",
      "open_now": true
    },
    {
      "place_id": "ChIJ6TId7kU0VjkRD1P8YG-I-VY",
      "name": "Reliance Gas",
      "lat": 21.6393942,
      "lng": 69.6046523,
      "address": "India",
      "open_now": null
    },
    {
      "place_id": "ChIJa09Grl81VjkRE-6XhHuz56w",
      "name": "PORBANDAR MOTOR TRANSPORT",
      "lat": 21.6435193,
      "lng": 69.6045498,
      "address": "Shitla Chock, Sardar Vallabh Patel Road, Porbandar",
      "open_now": null
    },
    {
      "place_id": "ChIJzZJL-ZBFVjkRyRC-2nyLWAg",
      "name": "IndianOil",
      "lat": 21.6472065,
      "lng": 69.6036065,
      "address": "Ward No 5, Jamnagar, Gadu, 8/163, Jamnagar",
      "open_now": true
    },
    {
      "place_id": "ChIJnVPq0ho1VjkRKmuhsSaCwKY",
      "name": "SHREE AAVAL PETROLEUM(B.P.C.L)",
      "lat": 21.6679587,
      "lng": 69.6259204,
      "address": "MJ8G+WJ6, Porbandar - Adityana Road, Pandavadar",
      "open_now": null
    },
    {
      "place_id": "ChIJiT2880o0VjkRICHMQEZD8Z4",
      "name": "GFCCA DIESEL PUMP",
      "lat": 21.6484337,
      "lng": 69.59936569999999,
      "address": "Lakdi Bandar, PGVCL Udhyog Nagar, New Kumbharwada, Bhatia Bazar Old, Porbandar",
      "open_now": null
    },
    {
      "place_id": "ChIJ7-87s9A1VjkRUtf-glrlG9g",
      "name": "Hindustan Petroleum Corporation Limited",
      "lat": 21.6615264,
      "lng": 69.6065946,
      "address": "Ground Floor, Bus Stand, near Bokhira, Oum Nagar, Porbandar",
      "open_now": true
    },
    {
      "place_id": "ChIJKbL9SAA1VjkRj_6LG3Ux18w",
      "name": "Jiobp Porbandar",
      "lat": 21.6615211,
      "lng": 69.6061519,
      "address": "MJ64+JF2, Bokhira, Porbandar",
      "open_now": null
    },
    {
      "place_id": "ChIJ18wzjbA1VjkRVURPKMMecEw",
      "name": "Reliance",
      "lat": 21.6616306,
      "lng": 69.6059442,
      "address": "India",
      "open_now": null
    },
    {
      "place_id": "ChIJRT-JG-HIVzkR_nMdn82eWZQ",
      "name": "Jio-bp",
      "lat": 21.6587102,
      "lng": 69.81603059999999,
      "address": "NH 8B, Rajkot Highway, Vadala, Porbandar",
      "open_now": true
    },
    {
      "place_id": "ChIJbZ-yN0rJVzkRrIdXi7gUuqc",
      "name": "IndianOil",
      "lat": 21.6596838,
      "lng": 69.81020889999999,
      "address": "Ground Floor, NH 8B, Ranavav",
      "open_now": true
    },
    {
      "place_id": "ChIJ0YC-chDJVzkRN8V28sqfaoE",
      "name": "Bharat Petroleum Petrol Pump",
      "lat": 21.6633279,
      "lng": 69.79950269999999,
      "address": "MQ7X+8RJ, Bhod",
      "open_now": null
    },
    {
      "place_id": "ChIJUcqAFh7JVzkRqhdXRkCaGv8",
      "name": "Hindustan Petroleum Corporation Limited",
      "lat": 21.6669656,
      "lng": 69.7923285,
      "address": "Survey No 347/P3 NH 27, Rajkot Porbandar Hwy, Ranavav, Bhod",
      "open_now": true
    },
    {
      "place_id": "ChIJiYYpZ53JVzkRpC_w-5aDeE0",
      "name": "Hindustan Petroleum Corporation Limited",
      "lat": 21.673691,
      "lng": 69.77787099999999,
      "address": "Survey No 180 P2, NH 27, Porbandar Rajkot Hwy, Ranavav",
      "open_now": true
    },
    {
      "place_id": "ChIJNQ1Ob0vCVzkRh-fvoyhJurg",
      "name": "Petrol Pump",
      "lat": 21.6286518,
      "lng": 70.0045623,
      "address": "J2H3+FR7, Porbandar",
      "open_now": true
    },
    {
      "place_id": "ChIJOYeb9rPDVzkR2t4HwJmcTtQ",
      "name": "Bharat Petroleum Corporation Limited Matruashish PETROLEUM",
      "lat": 21.6266034,
      "lng": 69.9963946,
      "address": "Kutiyana",
      "open_now": true
    },
    {
      "place_id": "ChIJczDWOgDDVzkRnX5jcavWHEM",
      "name": "Shiv petroleum HP",
      "lat": 21.6320193,
      "lng": 70.02983309999999,
      "address": "Krishna bulding matiruls, near Chauta, Chauta",
      "open_now": true
    },
    {
      "place_id": "ChIJNZdnIQDDVzkR87rqoGeV0Is",
      "name": "Shiv Petroleum",
      "lat": 21.63656559999999,
      "lng": 70.0398934,
      "address": "J2PQ+JXC, Chauta",
      "open_now": null
    },
    {
      "place_id": "ChIJyWC9ppLDVzkRE_Mvdp1neMU",
      "name": "Shree Ram Petrolium Adani Gas CNG Station",
      "lat": 21.631345,
      "lng": 70.01709579999999,
      "address": "J2J9+62G, Thepada",
      "open_now": true
    },
    {
      "place_id": "ChIJ0UyWW0bCVzkRGM2kE7E2Ao4",
      "name": "IndianOil",
      "lat": 21.63124999999999,
      "lng": 70.017074,
      "address": "Plot No 98 Part Porbandar Rajkot Highway,Chikhlodra, Kutiyana",
      "open_now": true
    },
    {
      "place_id": "ChIJWdQzmb_DVzkR8-sE9cAgceM",
      "name": "Hindustan Petroleum Corporation Limited",
      "lat": 21.629774,
      "lng": 70.01253849999999,
      "address": "Ground Floor, NH 27, Teri, Kutiyana",
      "open_now": true
    },
    {
      "place_id": "ChIJT53S0HTCVzkRQ09239cx1Fw",
      "name": "Maa Mogal Krupa Petroleum NAYARA Oil&gas",
      "lat": 21.638291,
      "lng": 70.046956,
      "address": "J2QW+8Q8, Kutiyana",
      "open_now": null
    },
    {
      "place_id": "ChIJo7iUElDpVzkRBtvrdjO3ZJk",
      "name": "Friendship Petroleum",
      "lat": 21.64702,
      "lng": 70.06683749999999,
      "address": "J3W8+RP4, National Highway 27, Roghada",
      "open_now": true
    },
    {
      "place_id": "ChIJOQFB9LnDVzkRZPaCIYoFTw4",
      "name": "Hindustan Petroleum Corporation Limited",
      "lat": 21.6262524,
      "lng": 69.9895007,
      "address": "Survey No 1, Paiki 1, Khageshri Road, Kutiyana",
      "open_now": true
    },
    {
      "place_id": "ChIJI2dCBgDDVzkRCp9QesV5R3A",
      "name": "Shiv petroleum HP",
      "lat": 21.6238149,
      "lng": 69.9833215,
      "address": "JXFM+G8G, Kutiyana",
      "open_now": null
    },
    {
      "place_id": "ChIJH5d9bADzVzkRttp1GOJhDf4",
      "name": "Nayara Energy Manmit Petroleum",
      "lat": 21.7298006,
      "lng": 70.2489608,
      "address": "P6HX+WR4, Upleta",
      "open_now": null
    },
    {
      "place_id": "ChIJ05MChGHyVzkR-E9hAKSaOOs",
      "name": "Balaji Petroleums",
      "lat": 21.7324728,
      "lng": 70.2662513,
      "address": "P7J8+XGJ, Porbandar Road, Upleta",
      "open_now": true
    },
    {
      "place_id": "ChIJ_00wkwD1VzkR3qJk-Fb0-qA",
      "name": "IndianOil",
      "lat": 21.760077,
      "lng": 70.379239,
      "address": "Ground Floor, Superdi, Dhoraji,Kharachiya, Supedi",
      "open_now": true
    },
    {
      "place_id": "ChIJv5K7Bb0ZWDkRPBsdVwa-Sdg",
      "name": "Hindustan Petroleum Corporation Limited",
      "lat": 21.753519,
      "lng": 70.5884138,
      "address": "Ground Floor, NH 27, near Rajkot Porbandar Highway, Dasi Jivan Para, Jetpur",
      "open_now": true
    },
    {
      "place_id": "ChIJBY4_L8cZWDkRb5trgzLEf8I",
      "name": "Gujrat gas",
      "lat": 21.75921229999999,
      "lng": 70.6004205,
      "address": "India",
      "open_now": null
    },
    {
      "place_id": "ChIJJxjVRQAZWDkRlANbtvzABrQ",
      "name": "Kantiben vikani",
      "lat": 21.7560961,
      "lng": 70.6070439,
      "address": "QJ44+CRM, Patel Nagar, Jetpur",
      "open_now": null
    },
    {
      "place_id": "ChIJzcuxeiQaWDkRXbGwsYFANMc",
      "name": "Maruti Petroleum - Bharat Petroleum (Petrol, Diesel & CNG & EV)",
      "lat": 21.7193585,
      "lng": 70.590519,
      "address": "246/2, NH8D, Near Jetpur Bypass, Jetalsar Road, Jetpur",
      "open_now": true
    },
    {
      "place_id": "ChIJDcspszoaWDkRnIFO4O8nCKA",
      "name": "IndianOil",
      "lat": 21.7158358,
      "lng": 70.585256,
      "address": "Rajkot, Survey No 304 Jetalsar, Ambardi,Jetpur",
      "open_now": true
    },
    {
      "place_id": "ChIJF1goIAAZWDkRfB3n27XGqVk",
      "name": "Reliance Petroleum",
      "lat": 21.749074,
      "lng": 70.6157253,
      "address": "opposite Collage, Jetpur Junagadh State Highway Junaghadh Road, opposite Collage, Jetpur - Junagadh Highway, Jetpur",
      "open_now": true
    },
    {
      "place_id": "ChIJUSDpUuEZWDkRfI6or2s7yjw",
      "name": "Nayara Petrol Pump - Parv Petroleum",
      "lat": 21.7493665,
      "lng": 70.6157935,
      "address": "opp. bosmia college, Junagadh Road, Junagadh, Jetpur",
      "open_now": true
    },
    {
      "place_id": "ChIJ9Z6PdNQ9WDkRU3E2pliq5mc",
      "name": "Hindustan Petroleum Corporation Limited",
      "lat": 21.87612,
      "lng": 70.71122,
      "address": "Ground Floor, NH 27, Rajkot Porbandar Road, Gomta",
      "open_now": true
    },
    {
      "place_id": "ChIJ6dQA_y4WWDkRhJUR3N-s--8",
      "name": "Bharat Petroleum (BPCL) - Swapna Petroleum",
      "lat": 21.8219121,
      "lng": 70.6779818,
      "address": "NH-27 Near kagwad Patiya Jetpur Road, Kagvad Road, Virpur",
      "open_now": true
    },
    {
      "place_id": "ChIJS4iMNS4WWDkRv5xde-fH3qk",
      "name": "IndianOil",
      "lat": 21.8204586,
      "lng": 70.67787919999999,
      "address": "Ground Floor, NH 8B, Kagvad",
      "open_now": true
    },
    {
      "place_id": "ChIJixUD2C09WDkRkd0yQ9x6u7s",
      "name": "Jay Parshuram Enterprise",
      "lat": 21.8340768,
      "lng": 70.6876475,
      "address": "RMMQ+J3J, Virpur",
      "open_now": true
    },
    {
      "place_id": "ChIJgX5vVxY9WDkRwcdBuke8_J8",
      "name": "Gujarat Gas CNG",
      "lat": 21.8655641,
      "lng": 70.707062,
      "address": "VP84+6R, Virpur",
      "open_now": true
    },
    {
      "place_id": "ChIJRREnD3kXWDkRYDYLP0pv41k",
      "name": "SHREE DWARKESH PETROLEUM BPCL",
      "lat": 21.8305939,
      "lng": 70.6848097,
      "address": "opp. KING WATER PARK, NH-27, JETPUR, opp. KING WATER PARK, opp. HOTEL AMARDEEP, HIGHWAY, Virpur",
      "open_now": true
    },
    {
      "place_id": "ChIJ3zdyvZA9WDkRKnlcgEenMek",
      "name": "Hindustan Petroleum Corporation Limited",
      "lat": 21.871073,
      "lng": 70.708317,
      "address": "Ground Floor, National Highway 27, Gomta, Rajkot",
      "open_now": true
    },
    {
      "place_id": "ChIJp48S-mkXWDkRswKlWM7uCXQ",
      "name": "Gujarat Gas CNG Station - Kishan Trade Co.",
      "lat": 21.8172563,
      "lng": 70.6734331,
      "address": "Porbandar - Veraval Highway, Kagvad",
      "open_now": true
    },
    {
      "place_id": "ChIJSW8iApU4WDkRb9ThK8BuyA0",
      "name": "HP PETROL PUMP - SHRI KHODIYAR PETROLEUM",
      "lat": 21.9609423,
      "lng": 70.79078919999999,
      "address": "Survey NO. 476/2 Paiki Plot NO. 11 ON Road, Gondal, Gundala Road, Gundala, Rajkot",
      "open_now": true
    },
    {
      "place_id": "ChIJE6ALfok4WDkRgQ08-UDBFOo",
      "name": "IndianOil",
      "lat": 21.994843,
      "lng": 70.796719,
      "address": "Ground Floor, NH 8B, Ambardi, Gondal",
      "open_now": true
    },
    {
      "place_id": "ChIJaU13zqY4WDkRf8qYciUgD8k",
      "name": "Hindustan Petroleum Corporation Limited",
      "lat": 21.954473,
      "lng": 70.8083051,
      "address": "Plot No 1 & 2, Moviya Road, Gondal",
      "open_now": true
    },
    {
      "place_id": "ChIJ82xBGIBHWDkRLdYzaGpiecQ",
      "name": "SHREE PETROLEUM",
      "lat": 21.9587567,
      "lng": 70.8192407,
      "address": "Gondal Atkot State Haiway Ghoghavadar, Road, Gondal",
      "open_now": null
    },
    {
      "place_id": "ChIJcaZMYXk5WDkR-eJcRTs6e20",
      "name": "Jio-bp",
      "lat": 21.9538685,
      "lng": 70.801671,
      "address": "Prakash Bhavan, Palace Road, Gondal",
      "open_now": true
    },
    {
      "place_id": "ChIJz8QhmFxHWDkR24YY63jpovg",
      "name": "Hindustan Petroleum Corporation Limited",
      "lat": 21.95718399999999,
      "lng": 70.823088,
      "address": "Ground Floor, SH 1, Gondal-Atkot Highway, Ghoghavadar",
      "open_now": true
    },
    {
      "place_id": "ChIJxRPNw-A5WDkRdzi1Zk93cZ0",
      "name": "V. H. Kanji Petrol Pump , BPCL",
      "lat": 21.9620157,
      "lng": 70.7987315,
      "address": "XQ6X+RF5, Mahadev Bari, Gondal",
      "open_now": true
    },
    {
      "place_id": "ChIJv3xrCpA4WDkR8UbKxxiXKwA",
      "name": "Hindustan Petroleum Corporation Limited",
      "lat": 21.9683631,
      "lng": 70.8011016,
      "address": "Ground Floor, College Chowk, opposite Garasia School, Gondal",
      "open_now": true
    },
    {
      "place_id": "ChIJEzXQsi05WDkRY5p_03Oz-HA",
      "name": "Bharat Petroleum Corp. Ltd. Depot",
      "lat": 21.95009139999999,
      "lng": 70.8007901,
      "address": "XR22+28M, Dariyapir Street, Bhojrajpara, Gondal",
      "open_now": null
    },
    {
      "place_id": "ChIJLYSuMrxHWDkR_uNMSBccem4",
      "name": "IndianOil",
      "lat": 21.95748,
      "lng": 70.8265047,
      "address": "Ground Floor, Ambardi, Gondal",
      "open_now": true
    },
    {
      "place_id": "ChIJGfydeQA5WDkR9crLqVoLePg",
      "name": "Bharat Petroleum - College Chowk",
      "lat": 21.9697125,
      "lng": 70.8000469,
      "address": "XR92+V2M, Yogi Nagar, Gondal",
      "open_now": null
    },
    {
      "place_id": "ChIJOy9gHkhHWDkRn6Yk8wS1TOI",
      "name": "Shree Ram Agro Fuels",
      "lat": 21.957469,
      "lng": 70.8265071,
      "address": "Dhareshwar, road, Chokdi, Ghoghvadar",
      "open_now": true
    },
    {
      "place_id": "ChIJsdBrzF85WDkRZ9IPlvSlm9c",
      "name": "Adhiya & Sons",
      "lat": 21.9700254,
      "lng": 70.7996859,
      "address": "College Chowk, Yogi Nagar, Gondal",
      "open_now": true
    },
    {
      "place_id": "ChIJYVCIAZU4WDkRxTkEoKqaxqQ",
      "name": "Hindustan Petroleum Corporation Limited",
      "lat": 21.9612801,
      "lng": 70.79078009999999,
      "address": "Plot No 11, Gundala Road, Gondal",
      "open_now": true
    },
    {
      "place_id": "ChIJL0WPxb84WDkRcWlCbq5WPOU",
      "name": "માટેલ કેરી ફાર્મ",
      "lat": 21.9575278,
      "lng": 70.7904132,
      "address": "India",
      "open_now": null
    },
    {
      "place_id": "ChIJ4c60GwA5WDkRspSq4oCA2YQ",
      "name": "NIJANAND PETROLIUME ( NAYRA ENERGY )",
      "lat": 21.9539514,
      "lng": 70.7899185,
      "address": "XQ3Q+HXM, Jetpur Road, Shankar Wadi, Gita Nagar, Gondal",
      "open_now": true
    },
    {
      "place_id": "ChIJj_LWTnE5WDkRDdw10PqPyOY",
      "name": "IndianOil",
      "lat": 21.960905,
      "lng": 70.785849,
      "address": "near Shree Ram Bunglow, Ground Floor Gondal, Ambardi, near Shree Ram Bunglow, Gondal",
      "open_now": true
    },
    {
      "place_id": "ChIJP2BHfIk4WDkRG5yJ_sVFqIw",
      "name": "IndianOil",
      "lat": 21.9786,
      "lng": 70.79429999999999,
      "address": "Ground Floor, NH 27, Ambardi, Gondal",
      "open_now": true
    },
    {
      "place_id": "ChIJvWncu-04WDkR5hunklSr3cQ",
      "name": "Reliance Petroleum",
      "lat": 21.9672128,
      "lng": 70.7835848,
      "address": "Survey No 485/2, P NH 8B, near Marketing Yard, Gondal - Jamkandorana Road, Gondal",
      "open_now": true
    },
    {
      "place_id": "ChIJAYePp7NHWDkRii2mal7f27o",
      "name": "Hindustan Petroleum Corporation Limited",
      "lat": 21.9866775,
      "lng": 70.8133543,
      "address": "No 20/2/2, Kotda Sangani Road, Gondal",
      "open_now": true
    },
    {
      "place_id": "ChIJwZ1ldgBFWDkRX4e9o0sCWvo",
      "name": "Rameswar petroliyam",
      "lat": 21.96644179999999,
      "lng": 70.9279301,
      "address": "XW8H+H5F, Ramod",
      "open_now": null
    },
    {
      "place_id": "ChIJg7RiMI5FWDkRnNr4_c3OySA",
      "name": "Bharat Petroleum, Petrol Pump -Rathod Petroleum",
      "lat": 21.9681973,
      "lng": 70.926018,
      "address": "Ramod Road",
      "open_now": null
    },
    {
      "place_id": "ChIJQTU5C6VFWDkRo3-va49g3v0",
      "name": "VARNI PETROLEUM",
      "lat": 21.9683153,
      "lng": 70.9194595,
      "address": "near Ramod, Gondal-Atkot Highway, Ramod",
      "open_now": true
    },
    {
      "place_id": "ChIJxXze0qBGWDkRm8qBAHnNATI",
      "name": "Anil Filling Station Indian Oil Petrol Pump",
      "lat": 21.966598,
      "lng": 70.904729,
      "address": "Ghoghavadar, Rajkot, SH-1, Gondal Atkot Highway, Bhavnagar, Bhavnagar",
      "open_now": true
    },
    {
      "place_id": "ChIJeXEXshxZWDkR9hdhb5aCcrI",
      "name": "Bharat Petroleum Petrol Pump and CNG SATYASAI PETROLEUM",
      "lat": 22.0235024,
      "lng": 71.1251968,
      "address": "South Atkot, Near, Gondal Road, Gondal Cross roads, Jasdan",
      "open_now": true
    },
    {
      "place_id": "ChIJPSAeDgBZWDkRezR-g8gUMqU",
      "name": "NAYARA(RADADIYA PETROLEUM)",
      "lat": 22.024062,
      "lng": 71.1252925,
      "address": "24FG+J4F, Virnagar",
      "open_now": true
    },
    {
      "place_id": "ChIJMYdttOJYWDkROSJ-WjYXSYA",
      "name": "IndianOil",
      "lat": 22.0122504,
      "lng": 71.1459946,
      "address": "Ground Floor, opposite Police Station, SH 25, Bhavnagar - Rajkot Road, Rajkot",
      "open_now": true
    },
    {
      "place_id": "ChIJ2TAdJuNYWDkRK5n9D1XcZc0",
      "name": "Hindustan Petroleum Corporation Limited",
      "lat": 22.011901,
      "lng": 71.14840099999999,
      "address": "Ground Floor, Atkot",
      "open_now": true
    },
    {
      "place_id": "ChIJVypBX-NYWDkRY9sac8bOnjA",
      "name": "Patel Trector Garage",
      "lat": 22.0119274,
      "lng": 71.15071209999999,
      "address": "2562+Q7G, Near Atkot Circle, R.B. Highway, Atkot City, Jasdan",
      "open_now": null
    },
    {
      "place_id": "ChIJ406MH-VYWDkRdfB4_-RhNiM",
      "name": "Hindustan Petroleum Corporation Limited",
      "lat": 22.0118577,
      "lng": 71.1539066,
      "address": "Ground Floor SH 1, Jasdan Road, Atkot",
      "open_now": true
    },
    {
      "place_id": "ChIJh0-kJeNYWDkRposehLDyx8Q",
      "name": "HP PETROL PUMP GURUKRUPA PETROLEUM",
      "lat": 22.0362415,
      "lng": 71.1136436,
      "address": "S/No. 360 Paiki 2, Vill. Atkot, Taluk Jasdan, Shop No.1, Rajkot",
      "open_now": true
    },
    {
      "place_id": "ChIJW29SOd1YWDkRPAoCsCQxMAw",
      "name": "Vanaz LPG Pump",
      "lat": 22.0004341,
      "lng": 71.155635,
      "address": "2524+57C, Atkot",
      "open_now": true
    },
    {
      "place_id": "ChIJ-9WPqJZZWDkRKneCLXfCKx0",
      "name": "IndianOil",
      "lat": 22.000446,
      "lng": 71.155711,
      "address": "Survey No 239, Paiki 1 Jasdan, Atkot, Dabholi, Surat",
      "open_now": true
    },
    {
      "place_id": "ChIJjbCbxltZWDkRBSQzkBfU0Og",
      "name": "BHARAT PETROLEUM",
      "lat": 21.9985042,
      "lng": 71.1584803,
      "address": "Bhavnagar - Rajkot Road, Atkot",
      "open_now": true
    },
    {
      "place_id": "ChIJeb4U4L73WDkR1OmjxrjsvuI",
      "name": "Gujarat Gas CNG Station",
      "lat": 22.051314,
      "lng": 71.2190315,
      "address": "Jasdan",
      "open_now": null
    },
    {
      "place_id": "ChIJfSsE43D3WDkRrbjXhpRqKdA",
      "name": "BHAVANI PETROLEUM (KHANDA) HADMATIYA",
      "lat": 22.0783537,
      "lng": 71.2536394,
      "address": "Gujarat State Highway 1, Hadmatiya khanda",
      "open_now": true
    },
    {
      "place_id": "ChIJp25NNs73WDkR2uyphJ6zit4",
      "name": "GANGESHWAR PETROLEUM",
      "lat": 22.0444438,
      "lng": 71.24614919999999,
      "address": "Gangeshwar petroleum, gelasomnath road, AT:Shivrajpur TA:Jasdan, Jasdan",
      "open_now": true
    },
    {
      "place_id": "ChIJddvlHr_3WDkRlLu7S20ucnM",
      "name": "Hindustan Petroleum Corporation Limited",
      "lat": 22.051431,
      "lng": 71.218861,
      "address": "SH 1, Ground Floor, Jasdan - Vinchhiya Road, Jasdan",
      "open_now": true
    },
    {
      "place_id": "ChIJRVA5I7_3WDkRjTL4XBwgIlM",
      "name": "IndianOil",
      "lat": 22.0508558,
      "lng": 71.2184791,
      "address": "No 755/P1, S, Jasdan",
      "open_now": true
    },
    {
      "place_id": "ChIJI5Wlxar3WDkRUHkC4ayMaHI",
      "name": "IndianOil",
      "lat": 22.0535493,
      "lng": 71.2149408,
      "address": "Ground Floor, Bakhalvad",
      "open_now": true
    },
    {
      "place_id": "ChIJb7Dcx1j3WDkRH3-kA3L1L0A",
      "name": "IndianOil",
      "lat": 22.041207,
      "lng": 71.2218541,
      "address": "Survey No 860/1 P3, Bakhalvad",
      "open_now": true
    },
    {
      "place_id": "ChIJ152zWr_3WDkRTOn660Dfwis",
      "name": "SOMNATH PETROLEUM",
      "lat": 22.0407033,
      "lng": 71.2212423,
      "address": "Jasdan Bypass Road, Chowkdi, Ghela Somnath",
      "open_now": null
    },
    {
      "place_id": "ChIJwYPLKwD3WDkRaTEpIqVOTC4",
      "name": "Gas Godown",
      "lat": 22.0381283,
      "lng": 71.2146558,
      "address": "In Press Ground, Lati Plot, Jasdan",
      "open_now": null
    },
    {
      "place_id": "ChIJQ9qV-bP8WDkRrnzha28CjKc",
      "name": "IndianOil",
      "lat": 22.205747,
      "lng": 71.377268,
      "address": "Ground Floor, Jasdan, SH 17, Rd, Vinchhiya",
      "open_now": true
    },
    {
      "place_id": "ChIJVX5gnLX8WDkRjF0KnCMsKOk",
      "name": "ગુજરાત પેટ્રોલિયમ",
      "lat": 22.2111264,
      "lng": 71.3791894,
      "address": "India",
      "open_now": null
    },
    {
      "place_id": "ChIJv7jNU0vjWDkR-L2rrKhS2uw",
      "name": "Shree Suryanarayan Petrolium",
      "lat": 22.20724,
      "lng": 71.38275449999999,
      "address": "State highway 119, Jasdan - Vinchhiya Road, Vinchhiya",
      "open_now": true
    },
    {
      "place_id": "ChIJm2SnbgDjWDkRBKZxDBtAv7U",
      "name": "Hindustan Petroleum Corporation Limited",
      "lat": 22.210237,
      "lng": 71.390514,
      "address": "SH 1, Ground Floor, Jasdan - Vinchhiya Road, Vinchhiya",
      "open_now": true
    },
    {
      "place_id": "ChIJNTE84_jjWDkRzVET6UJ7Fxo",
      "name": "Bharat Petroleum Petrol Pump , SURYADEEP PETROLEUM and CNG Pump",
      "lat": 22.2099898,
      "lng": 71.391772,
      "address": "VINCHHIYA TOWN, 1, Vinchhiya",
      "open_now": true
    },
    {
      "place_id": "ChIJGYQya2TjWDkRvTm0fqimyvo",
      "name": "પાન સેન્ટર",
      "lat": 22.1990084,
      "lng": 71.4150583,
      "address": "India",
      "open_now": null
    },
    {
      "place_id": "ChIJQ1n_biHjWDkRr-OymTtDC3Y",
      "name": "Indian Oil Petrol Pump",
      "lat": 22.2128748,
      "lng": 71.4182273,
      "address": "6C79+47X, Thoriyali Bus Stop, thoriyali,jasdan, Gujarat State Highway 1, gujarat, Thoriyali",
      "open_now": true
    },
    {
      "place_id": "ChIJT0f9iZX7WDkRLVNGDN6w0LM",
      "name": "Hindustan Petroleum Corporation Limited",
      "lat": 22.173387,
      "lng": 71.353303,
      "address": "SH 1, Ground Floor, Jasdan - Vinchhiya Road, Amrapur",
      "open_now": true
    },
    {
      "place_id": "ChIJQUdfQofgWDkRJ3UL_-CVfto",
      "name": "Bharat Petroleum",
      "lat": 22.2558993,
      "lng": 71.56508889999999,
      "address": "7H48+924",
      "open_now": null
    },
    {
      "place_id": "ChIJxRa8hfPgWDkR2uDlcrEEPvA",
      "name": "IndianOil",
      "lat": 22.248366,
      "lng": 71.54498099999999,
      "address": "Ground Floor Vinchiya Paliyad, Highway, Bhadla Nana",
      "open_now": true
    },
    {
      "place_id": "ChIJETiIZFPhWDkRKALHE9tkNsc",
      "name": "OM SHREE PETROLIUM",
      "lat": 22.2305509,
      "lng": 71.4846726,
      "address": "Om shree petroleum, opp. Chamunda enterprises, Vinchhiya Road, Paliyad",
      "open_now": null
    },
    {
      "place_id": "ChIJedTXtn_gWDkRHAd_n98kHTI",
      "name": "HP PETROL PUMP - SATYAVIJAY AUTO SERVICE",
      "lat": 22.2585074,
      "lng": 71.56875990000002,
      "address": "HP Petrol Pump Babarkot Paliyad, Ahmedabad",
      "open_now": true
    },
    {
      "place_id": "ChIJ0_4-PT8nWTkRU3iExdsDFaM",
      "name": "VISAT CNG Station (ADANI GAS)",
      "lat": 22.3314673,
      "lng": 71.7048387,
      "address": "8PJ3+HW, Alampur",
      "open_now": true
    },
    {
      "place_id": "ChIJUeaphX8nWTkRRpuAUtOh8FE",
      "name": "Shiv Shakti Petroleum-RAJPURA",
      "lat": 22.3317113,
      "lng": 71.70500779999999,
      "address": "Survey no 151 paiky 1, Paliyad Road, Rajapara, Ranpur",
      "open_now": true
    },
    {
      "place_id": "ChIJp-R7A4QnWTkRL_ao2M1AQMY",
      "name": "Hindustan Petroleum Corporation Limited",
      "lat": 22.346171,
      "lng": 71.723801,
      "address": "Survey No 624/1, Khata No 289, Paiki 2 Ranpur Paliyad Road, SH 1, Dhandhuka - Ranpur Road, Ahmedabad",
      "open_now": true
    },
    {
      "place_id": "ChIJZ9o669MrWTkRhOqv1hVLPqg",
      "name": "Hindustan Petroleum Corporation Limited",
      "lat": 22.370134,
      "lng": 71.931918,
      "address": "Survey No 172, P SH 1, Dhandhuka - Ranpur Road, Kotada",
      "open_now": true
    },
    {
      "place_id": "ChIJNUhakWwrWTkRpuOI9YP5mRE",
      "name": "Bharat Petroleum Petrol Pump , VISHVAS PETROLEUM",
      "lat": 22.373407,
      "lng": 71.94350399999999,
      "address": "Paliyad Road, Botad",
      "open_now": true
    },
    {
      "place_id": "ChIJxZRKHokrWTkR1Cd7rUO6mLY",
      "name": "Bharat Petroleum Petrol Pump , OM PETROLEUM",
      "lat": 22.36013,
      "lng": 71.87339399999999,
      "address": "VILLAGE- VAGADDHANDHUKA, HIGHWAY, Raipur, Ahmedabad",
      "open_now": true
    },
    {
      "place_id": "ChIJc27EKLPXXjkRyk10Ja3ux60",
      "name": "IndianOil",
      "lat": 22.421333,
      "lng": 72.057656,
      "address": "Survey No 35 Khadol, Adval",
      "open_now": true
    },
    {
      "place_id": "ChIJgUevCl3aXjkRd-7jVZsfjsA",
      "name": "Hindustan Petroleum Corporation Limited",
      "lat": 22.50076499999999,
      "lng": 72.166977,
      "address": "Survey No 246, SH 01, Ahmedabad Dhanduka, Loliya",
      "open_now": true
    },
    {
      "place_id": "ChIJQ48d_j3aXjkRzjpd2agSJks",
      "name": "Gujarat Gas CNG",
      "lat": 22.4811536,
      "lng": 72.1656168,
      "address": "F5J8+F69, Dhandhuka",
      "open_now": true
    },
    {
      "place_id": "ChIJ7wzC2R3aXjkRzvAqtDgrts4",
      "name": "Indian Oil",
      "lat": 22.465253,
      "lng": 72.1591085,
      "address": "India",
      "open_now": null
    },
    {
      "place_id": "ChIJhcVwRVbEXjkR0hJHM40AZO4",
      "name": "Hindustan Petroleum Corporation Limited",
      "lat": 22.6076353,
      "lng": 72.1972803,
      "address": "Survey No 17, SH 1, Gundanapara, Bamsara",
      "open_now": true
    },
    {
      "place_id": "ChIJmx71WuTEXjkRZN2dbYhrkmE",
      "name": "DEEPKAR PETROLEUM",
      "lat": 22.5903898,
      "lng": 72.1972806,
      "address": "Gujarat State Highway 8, Bagodara",
      "open_now": null
    },
    {
      "place_id": "ChIJrVSIEcfFXjkREajZq2i_K68",
      "name": "Reliance Petroleum",
      "lat": 22.6280879,
      "lng": 72.1735236,
      "address": "Survey No 638 Bagodara, Near Toll Naka, NH 8A, Bavla",
      "open_now": true
    },
    {
      "place_id": "ChIJ3wLiyC_EXjkREiUfUnqeYvc",
      "name": "Hamara Hindustan Petroleum",
      "lat": 22.641407,
      "lng": 72.198442,
      "address": "Bagodara, NH-8A, Ahmedabad Road,, Ahmedabad",
      "open_now": true
    },
    {
      "place_id": "ChIJH1p5XiTEXjkReCR3OJBpiEM",
      "name": "HP Petrol Pump",
      "lat": 22.644193,
      "lng": 72.2051287,
      "address": "J6V4+M3C, Bagodara",
      "open_now": null
    },
    {
      "place_id": "ChIJuahs_iPEXjkRWWFcrtTE8wU",
      "name": "Hindustan Petroleum Corporation Limited",
      "lat": 22.6468601,
      "lng": 72.2070701,
      "address": "Survey No 257/2P, near Nutan Hotel, NH No 8A, Bagodara - Vataman Road, Ahmedabad",
      "open_now": true
    },
    {
      "place_id": "ChIJWzJEcgbFXjkR18SkfO_Iiq4",
      "name": "Atul Petrroleum",
      "lat": 22.5903946,
      "lng": 72.1973448,
      "address": "Survey No. 391, Bagodara, Fedra Road, Dhingda",
      "open_now": true
    },
    {
      "place_id": "ChIJ5U80_g_FXjkRbDawnqUd0kM",
      "name": "Universal Petroleum",
      "lat": 22.6250153,
      "lng": 72.17079249999999,
      "address": "J5GC+283, Rajkot - Ahmedabad Highway, Bagodara",
      "open_now": true
    },
    {
      "place_id": "ChIJy5HKWL_FXjkRsuE_Bd1VqEo",
      "name": "IndianOil",
      "lat": 22.625028,
      "lng": 72.1707938,
      "address": "Survey No 669, near Toll Tex, NH 8, Bavla, Bagodara",
      "open_now": true
    },
    {
      "place_id": "ChIJc4wFGgDFXjkRJGRfR7nU9Ps",
      "name": "Diesel Pump ⛽",
      "lat": 22.6262171,
      "lng": 72.1713164,
      "address": "Rajkot - Ahmedabad Highway, Bagodara",
      "open_now": true
    },
    {
      "place_id": "ChIJgeC-3y_EXjkRpkIVth0rmIQ",
      "name": "SOMNATH PETROLEUM",
      "lat": 22.6404154,
      "lng": 72.19926,
      "address": "J5RX+5P6, Bagodara",
      "open_now": null
    },
    {
      "place_id": "ChIJOfUIUWnFXjkRtHxecH6BZDo",
      "name": "Hindustan Petroleum Corporation Limited",
      "lat": 22.6409964,
      "lng": 72.1998062,
      "address": "SR No 197/A2, NH 47, Jasdan - Ahmedabad Highway, Bagodara",
      "open_now": true
    },
    {
      "place_id": "ChIJpUF47xvFXjkR0kYX07JGs7w",
      "name": "AARYA PETROLEUM",
      "lat": 22.5865901,
      "lng": 72.19810509999999,
      "address": "SH NO.1 BHAVNAGAR AMRELI ROAD AT, Dhingda",
      "open_now": null
    },
    {
      "place_id": "ChIJdcGyGQDFXjkRYhjJjtESBLo",
      "name": "Bagodara vataman road",
      "lat": 22.6424187,
      "lng": 72.2092831,
      "address": "CNG Fuel Station, Bagodara",
      "open_now": null
    },
    {
      "place_id": "ChIJGz6sVQDFXjkRgw4U56dw_Uc",
      "name": "Keval petroleum Indian oil",
      "lat": 22.6428934,
      "lng": 72.20857769999999,
      "address": "J6V5+5C4, Bagodara",
      "open_now": true
    },
    {
      "place_id": "ChIJuU3RjZbFXjkRzl38scv3cv4",
      "name": "Anthem Gas Station",
      "lat": 22.6430444,
      "lng": 72.2084704,
      "address": "At, Bagodara Road, Tarapur, Bagodara",
      "open_now": true
    },
    {
      "place_id": "ChIJEbYbKHjEXjkRcAZ2O6-Eqhk",
      "name": "Indian Oil- Divyesh Petroleum",
      "lat": 22.6212319,
      "lng": 72.2340949,
      "address": "Divyesh petroleum Bagodara tarapur highway, Memar",
      "open_now": true
    },
    {
      "place_id": "ChIJl_B7P2KVXjkRXxtSXxMycA0",
      "name": "IndianOil",
      "lat": 22.789604,
      "lng": 72.3328015,
      "address": "Survey No 3, Part No 5, Bavla, NH 8A, GIDC, Kerala",
      "open_now": true
    },
    {
      "place_id": "ChIJ1TaTdJmVXjkRUi0nA4jUn8k",
      "name": "Hindustan Petroleum Corporation Limited",
      "lat": 22.815327,
      "lng": 72.3503454,
      "address": "Survey No 3941, NH 8A, Bavla",
      "open_now": true
    },
    {
      "place_id": "ChIJuUauFnqVXjkRxiVTLHkParo",
      "name": "Hindustan Petroleum Corporation Limited",
      "lat": 22.7992501,
      "lng": 72.3414801,
      "address": "Survey No 515, NH 8A, Bavla",
      "open_now": true
    },
    {
      "place_id": "ChIJZbbPfwCVXjkRPAACp-Q00OY",
      "name": "Jitu Raj",
      "lat": 22.7736196,
      "lng": 72.334073,
      "address": "Q8FM+CJW, Kerala",
      "open_now": null
    },
    {
      "place_id": "ChIJNc0uRwCVXjkRIUSytVHa27A",
      "name": "NA PARTY",
      "lat": 22.8081041,
      "lng": 72.34739979999999,
      "address": "R85W+6XR, Bavla",
      "open_now": null
    },
    {
      "place_id": "ChIJS0GUJ3GVXjkRfH8PjJeH4_o",
      "name": "Shell Petrol Pump",
      "lat": 22.8162708,
      "lng": 72.34980949999999,
      "address": "near Bavla, opp. Honest, Rajkot - Ahmedabad Highway, Bavla",
      "open_now": null
    },
    {
      "place_id": "ChIJUzIhqlGVXjkRHT58Qv3Mc5o",
      "name": "RADHE PETROLEUM",
      "lat": 22.7666236,
      "lng": 72.35514690000001,
      "address": "opp. Ramdev Namkin, Chiyada",
      "open_now": true
    },
    {
      "place_id": "ChIJg8-T1Lq_XjkRLTbkzrVJjF8",
      "name": "Hindustan Petroleum Corporation Limited",
      "lat": 22.7871199,
      "lng": 72.29105849999999,
      "address": "Survey No 226, Bavla Nalsarovar Road, Amipura",
      "open_now": true
    },
    {
      "place_id": "ChIJcc2he26VXjkRv8tjozZ6eFo",
      "name": "Shree shivalaya beej bhandar",
      "lat": 22.8284076,
      "lng": 72.359348,
      "address": "Opp old, Dev Arcade, D 3, APMC Market, Bavla",
      "open_now": null
    },
    {
      "place_id": "ChIJE19wBpGaXjkR-4Onz8UrN9g",
      "name": "Bharat Petroleum Petrol Pump And Online CNG Pump",
      "lat": 22.9759905,
      "lng": 72.4882324,
      "address": "Sarkhej-Bavla Road, Sarkhej, Ahmedabad",
      "open_now": true
    },
    {
      "place_id": "ChIJVVWV8DuaXjkR2wIrxezH58o",
      "name": "BPCL Petrol Pump",
      "lat": 22.9853346,
      "lng": 72.4436046,
      "address": "XCPV+4CQ, near bacha motors, sarkhej, Sarkhej - Sanand Road, Telav",
      "open_now": true
    },
    {
      "place_id": "ChIJgxF9u8eaXjkR9i_O5jKLU4M",
      "name": "Hindustan Petroleum Corporation Limited",
      "lat": 22.9875701,
      "lng": 72.5065801,
      "address": "Ground Floor, National Highway 8A, Sarkhej, Ahmedabad",
      "open_now": true
    },
    {
      "place_id": "ChIJeXQRnxKbXjkRuRoXRbEMNwc",
      "name": "Shell",
      "lat": 23.028103,
      "lng": 72.48526,
      "address": "Taluka Dascroi, Ambli Road, Ahmedabad",
      "open_now": true
    },
    {
      "place_id": "ChIJQYw2yoaQXjkRSCPlcFRewpc",
      "name": "Bharat Petrol Pump Navkar",
      "lat": 22.9529495,
      "lng": 72.468633,
      "address": "XF39+5FC, S.G.Highway,, Ellisbridge, Ahmedabad",
      "open_now": true
    },
    {
      "place_id": "ChIJa1lhZXWbXjkRdDQp4f9Cs7g",
      "name": "Hindustan Petroleum Corporation Limited",
      "lat": 23.0304051,
      "lng": 72.4738759,
      "address": "Survey No 61, near Sardar Patel Ring Road, 67/60, Bopal, Ahmedabad",
      "open_now": true
    },
    {
      "place_id": "ChIJOeDdzsuaXjkRH7s-zRAEfOU",
      "name": "NAYARA Petrol Pump",
      "lat": 22.99042709999999,
      "lng": 72.5156236,
      "address": "near Makarba Road, 4 rasta, Sarkhej Road, Quresh Nagar Society, Juhapura, Ahmedabad",
      "open_now": true
    },
    {
      "place_id": "ChIJO9K2u8uaXjkRt1JomxQDda0",
      "name": "Hindustan Petroleum Corporation Limited",
      "lat": 22.9909901,
      "lng": 72.5165301,
      "address": "Survey No, 103/P & 221/P, Sarkhej Vasna Road, Juhapura, Gyaspur, Ahmedabad",
      "open_now": true
    },
    {
      "place_id": "ChIJq6qqeiOaXjkRCzTHyrdTJZo",
      "name": "Hindustan Petroleum Corporation Limited",
      "lat": 22.9847811,
      "lng": 72.4260353,
      "address": "Survey No 148, SH 17, Ahmedabad Viramgam Hwy, Telav",
      "open_now": true
    },
    {
      "place_id": "ChIJ2yuupSmbXjkRUoXfjVibbVs",
      "name": "Shell",
      "lat": 23.01214,
      "lng": 72.5125,
      "address": "100, 100 Feet Anand Nagar Road, Prahlad Nagar, Ahmedabad",
      "open_now": true
    },
    {
      "place_id": "ChIJ-SQGSC-DXjkRUm7z3nm7lzQ",
      "name": "Adani Gas CNG Station",
      "lat": 22.9941239,
      "lng": 72.4975079,
      "address": "XFVX+J2R, Sarkhej, nr. Divya Bhasker, SG Highway Service Road, Makarba, Ahmedabad",
      "open_now": true
    },
    {
      "place_id": "ChIJM_NNXgCbXjkRUB4xh2Si5XY",
      "name": "ROYAL PETROLEUM NAYARA",
      "lat": 22.9861387,
      "lng": 72.4717339,
      "address": "1, Shantipura Circle, Sardar Patel Ring Road, Ahmedabad",
      "open_now": null
    },
    {
      "place_id": "ChIJ--2XiOCbXjkRBT6s_7ANkYI",
      "name": "IndianOil",
      "lat": 22.9869837,
      "lng": 72.4816959,
      "address": "Survey No 262, Sarkhej - Sanand Road, Ahmedabad",
      "open_now": true
    },
    {
      "place_id": "ChIJB6W-QC6bXjkRQHR3RP91P-s",
      "name": "TA Gas Technology Co.authorised CNG Kit Technical Centre of India",
      "lat": 22.98687379999999,
      "lng": 72.4868068,
      "address": "opp. Mamta Complex, F-5 Shanti Complex ,besides Jigar Motors, opp. Mamta Complex, Sarkhej - Sanand Road, Sarkhej-Okaf",
      "open_now": true
    },
    {
      "place_id": "ChIJrzsjcMabXjkRqGYWh_B9APo",
      "name": "IndianOil",
      "lat": 22.9862817,
      "lng": 72.4876274,
      "address": "Ground Floor, near Bhavani Tractors, NH 8A, Road, Sarkhej, Bavla",
      "open_now": true
    },
    {
      "place_id": "ChIJuwfnWQCbXjkRRQw842LRs4k",
      "name": "M&H Energy Stop",
      "lat": 22.9752619,
      "lng": 72.4718251,
      "address": "XFGC+4P, Ahmedabad",
      "open_now": null
    },
    {
      "place_id": "ChIJYyXMiJCbXjkRECjQwhJ_7UY",
      "name": "Hindustan Petroleum Corporation Limited",
      "lat": 23.0101481,
      "lng": 72.4750713,
      "address": "TPS No 204, FP No 308/2, VIP Road, Makarba, Ahmedabad",
      "open_now": true
    },
    {
      "place_id": "ChIJVygvNQCbXjkRZTGGAvIz6M4",
      "name": "Nayara Pump",
      "lat": 23.007828,
      "lng": 72.4586635,
      "address": "Block-2, Aakash Tower, SAMATVA BUNGALOWS, Gaam, Block-2, SAMATVA BUNGALOWS Shop No - 05, Sola, Khadiya, Shela",
      "open_now": null
    },
    {
      "place_id": "ChIJUZkNcOabXjkRkvUh8ui6UK4",
      "name": "N J PETROLEUM",
      "lat": 23.0078706,
      "lng": 72.4584603,
      "address": "opp. SAMATVA BUNGALOWS, PLOT NUMBER 320/A/2/3 FP NO 52/1, Club O7 Road, Shela",
      "open_now": true
    },
    {
      "place_id": "ChIJMbmLDwCbXjkR_4-fkwDlRik",
      "name": "Bopal Petroleum - Nayara Pump",
      "lat": 23.0112951,
      "lng": 72.46530729999999,
      "address": "2F68+G47, VIP Road, Ahmedabad",
      "open_now": true
    },
    {
      "place_id": "ChIJwelBibOCXjkRN6X6pPvIiig",
      "name": "Hindustan Petroleum Corporation Limited",
      "lat": 23.1323101,
      "lng": 72.524475,
      "address": "Survey No 185, opposite green wood, 2/200, Sardar Patel Ring Road, Ahmedabad",
      "open_now": true
    },
    {
      "place_id": "ChIJ5-8eHsopXDkROfKyr1UFbgE",
      "name": "IndianOil",
      "lat": 23.176801,
      "lng": 72.573801,
      "address": "block no 409, behind Trimandir Road, Ahmedabad - Patan Highway Road, Ahmedabad",
      "open_now": true
    },
    {
      "place_id": "ChIJjVqITACDXjkRsEQ-aCGeEu4",
      "name": "Indian Oil Petrol pump",
      "lat": 23.141362,
      "lng": 72.54498099999999,
      "address": "Before Vaishnodevi Circle Flyover, Sarkhej - Gandhinagar Highway, Ahmedabad",
      "open_now": true
    },
    {
      "place_id": "ChIJMyhtSwCDXjkRA_sKbrSMrIU",
      "name": "Petrol pump",
      "lat": 23.1402151,
      "lng": 72.54493839999999,
      "address": "4GRV+3XP, Vaishnodevi Mandir Road, Ahmedabad",
      "open_now": null
    },
    {
      "place_id": "ChIJwQ4Ktw8pXDkRUR4Zyd0VdL0",
      "name": "Bharat Petroleum, CNG & Petrol Pump - Jay Khodiyar Petroleum Service",
      "lat": 23.1564956,
      "lng": 72.55351449999999,
      "address": "KHORAJ, NH8C, GANDHINAGAR, Gandhinagar",
      "open_now": true
    },
    {
      "place_id": "ChIJC2rcBAApXDkRx7raa9AvmbY",
      "name": "Sabarmati CNG",
      "lat": 23.1566651,
      "lng": 72.5531936,
      "address": "5H43+M78, Gandhinagar",
      "open_now": null
    },
    {
      "place_id": "ChIJaWZVJQCDXjkRVy8jg3Yiobk",
      "name": "Nayara petrol pump",
      "lat": 23.1317982,
      "lng": 72.5521237,
      "address": "4HJ2+PR9, Ahmedabad",
      "open_now": true
    },
    {
      "place_id": "ChIJn3ubfACDXjkRF7k4TGfX-VQ",
      "name": "SHREE HARGOVIND PETROLEUM",
      "lat": 23.1316971,
      "lng": 72.5521184,
      "address": "Ahmedabad",
      "open_now": true
    },
    {
      "place_id": "ChIJzULXPiUoXDkRUFFRhQQVXW0",
      "name": "IndianOil",
      "lat": 23.1633965,
      "lng": 72.5542901,
      "address": "near Khodiya Station, Plot & Survey No 104/8, Amja, Khoraj",
      "open_now": true
    },
    {
      "place_id": "ChIJARXQruWDXjkRQAUneMNT63g",
      "name": "Nayra petrol pump ( Mahakali Petroleum)",
      "lat": 23.1330179,
      "lng": 72.5634865,
      "address": "opp. Hillock hotel, Tragad, opp. Hillock hotel, ring road, Ahmedabad",
      "open_now": true
    },
    {
      "place_id": "ChIJLRTo68CDXjkRNAfNMpkLMVQ",
      "name": "Hindustan Petroleum Corporation Limited",
      "lat": 23.1333401,
      "lng": 72.56856599999999,
      "address": "Survey No 433/2/2, FP97, TP 72 Gandhinagar, 200 Ft Sq Ring Rd, Ring Road, Ahmedabad",
      "open_now": true
    },
    {
      "place_id": "ChIJPWS4jIiDXjkR6W65lZfZz7o",
      "name": "Hindustan Petroleum Corporation Limited",
      "lat": 23.127278,
      "lng": 72.5676372,
      "address": "Survey No 248/3, FP No 49, TPS 72, Zundal - Tragad Road, Tragad",
      "open_now": true
    },
    {
      "place_id": "ChIJS3fGQ6mdXjkRqovxlZhkUFw",
      "name": "Hindustan Petroleum Corporation Limited",
      "lat": 23.140923,
      "lng": 72.5164726,
      "address": "Survey No 70, 18, FP No 57, TPS No 236, Metre Road, Ahmedabad",
      "open_now": true
    },
    {
      "place_id": "ChIJURD_oX6DXjkR6ajw4Gb9sEk",
      "name": "Shell",
      "lat": 23.114502,
      "lng": 72.537683,
      "address": "Jagatpur Road, Jagatpur Village, Gota, Ahmedabad",
      "open_now": true
    },
    {
      "place_id": "ChIJ_34aS9qCXjkR-bXHyLcs1rQ",
      "name": "Shell Petrol Pump",
      "lat": 23.111855,
      "lng": 72.53522,
      "address": "Jagatpur Road, Ahmedabad",
      "open_now": true
    },
    {
      "place_id": "ChIJQyUGLicpXDkRMt1wu-d6e24",
      "name": "Sabarmati Gas CNG Station",
      "lat": 23.170496,
      "lng": 72.576894,
      "address": "11/A, Adalaj Road, Adalaj",
      "open_now": null
    },
    {
      "place_id": "ChIJU1H90huDXjkRq4FLUOy8Q8E",
      "name": "Shell Petrol Pump",
      "lat": 23.12549599999999,
      "lng": 72.582982,
      "address": "Ahmedabad - Patan Highway Rd Moje: Chandkheda, Ta:, Sabarmati, Ahmedabad",
      "open_now": true
    },
    {
      "place_id": "ChIJWerL5yuDXjkRqLN-0HLCOAw",
      "name": "IndianOil",
      "lat": 23.1251,
      "lng": 72.58279999999999,
      "address": "Shop No 41, Survey No 202, 1 & 23, Chandkheda, Ahmedabad",
      "open_now": true
    },
    {
      "place_id": "ChIJ3VOUdACDXjkRLnvy-x1NCJs",
      "name": "HP PETROL PUMP",
      "lat": 23.1261816,
      "lng": 72.5840614,
      "address": "opposite Shell Petrol Pump, SHIVALAYA 24, BRTS Road, opposite Shell Petrol Pump, Chandkheda - Zundal Road, Chandkheda, Ahmedabad",
      "open_now": null
    },
    {
      "place_id": "ChIJq7IJ2nmDXjkR4HNBrnWeirI",
      "name": "R G ENERGY POINT",
      "lat": 23.12589,
      "lng": 72.58393,
      "address": "BRTS Road, Circle, near Zundal, Chankheda-Zundal, Ahmedabad",
      "open_now": null
    },
    {
      "place_id": "ChIJr2IPkQwrXDkRU7B2HpOgpVU",
      "name": "IndianOil",
      "lat": 23.2330851,
      "lng": 72.6693667,
      "address": "Ground Floor, Near GSCS, Sector 21 Road, Sector 19, Gandhinagar",
      "open_now": true
    },
    {
      "place_id": "ChIJH7-gUY4sXDkRineYYbjBdq8",
      "name": "Bharat Petroleum, Petrol Pump",
      "lat": 23.2731206,
      "lng": 72.671899,
      "address": "PETHAPUR, MAHUDI HW, GANDH, Gandhinagar",
      "open_now": true
    },
    {
      "place_id": "ChIJD7rSPpgrXDkRMfkPr7bx6m8",
      "name": "IndianOil",
      "lat": 23.233588,
      "lng": 72.65137399999999,
      "address": "Ground Floor, GH 5, Sector 23, Gandhinagar",
      "open_now": true
    },
    {
      "place_id": "ChIJu0MqUr0rXDkRTJ27KJPpWJs",
      "name": "IndianOil",
      "lat": 23.2321015,
      "lng": 72.65009859999999,
      "address": "Plot No 449, Sector 16, Gandhinagar",
      "open_now": true
    },
    {
      "place_id": "ChIJo9UhsN0qXDkR2Wr0M1WjWBM",
      "name": "Shree Siddheshwari Petroleum (BPCL)",
      "lat": 23.2061027,
      "lng": 72.68840829999999,
      "address": "opp. IIT On, 968/1/A 968/2/A, road, Gandhinagar",
      "open_now": true
    },
    {
      "place_id": "ChIJ81CaPrYrXDkR7F_ETrxYDcA",
      "name": "HP Petrol Pump",
      "lat": 23.2159511,
      "lng": 72.6398672,
      "address": "Near City Bus Stand, GH 3 Circle, Sector 6, Gandhinagar",
      "open_now": true
    },
    {
      "place_id": "ChIJlxONDiMtXDkRvk8HdVoAB3I",
      "name": "IndianOil",
      "lat": 23.2656598,
      "lng": 72.6667679,
      "address": "Ground Floor, G Nagar Road, Pethapur, Mansa",
      "open_now": true
    },
    {
      "place_id": "ChIJt9JWpsrUXTkRPjlV_UrrvDo",
      "name": "Nayara Petrol Pump - Bhola Petroleum -",
      "lat": 23.2392606,
      "lng": 72.71057170000002,
      "address": "Gandhinagar-Chiloda road Near APMC market, Alampur, patiya, Gandhinagar",
      "open_now": true
    },
    {
      "place_id": "ChIJJ-e6AFnVXTkRWKJVRDfwtIs",
      "name": "SHELL PETROL STATION",
      "lat": 23.237028,
      "lng": 72.713917,
      "address": "NH-147 Taluka & Dist, Gandhinagar",
      "open_now": true
    },
    {
      "place_id": "ChIJr85wbpIsXDkRjJulL5OhY_I",
      "name": "Hindustan Petroleum Corporation Limited",
      "lat": 23.2775901,
      "lng": 72.675001,
      "address": "Survey No 1971 Paiki, Gandhinagar - Vijapur Road, Pethapur, Gandhinagar",
      "open_now": true
    },
    {
      "place_id": "ChIJ1V0Oo34tXDkR_w5QM0tqqs0",
      "name": "BHARAT PETROLEUM",
      "lat": 23.2612064,
      "lng": 72.6419593,
      "address": "01, Gandhinagar",
      "open_now": true
    },
    {
      "place_id": "ChIJ9RE0sN0qXDkR0YymDIcBbR0",
      "name": "भारत पेट्रोलियम",
      "lat": 23.206122,
      "lng": 72.6884525,
      "address": "6M4Q+C9W, Diversion Road",
      "open_now": null
    },
    {
      "place_id": "ChIJ--0Ql3QsXDkRlcQDUwb6Unc",
      "name": "LPG Gas Filling",
      "lat": 23.2596603,
      "lng": 72.64048989999999,
      "address": "7J5R+V59, K Road, Sector 26, Gandhinagar",
      "open_now": true
    },
    {
      "place_id": "ChIJ1bguOeMrXDkRYTHV1xperxI",
      "name": "Gujarat Gas CNG Station",
      "lat": 23.2152742,
      "lng": 72.6484945,
      "address": "1, CH Road, Sector 11, Gandhinagar",
      "open_now": null
    },
    {
      "place_id": "ChIJQ-shJ7IrXDkRI2ECQ5aJcio",
      "name": "Hindustan Petroleum Corporation Limited",
      "lat": 23.2152301,
      "lng": 72.6484701,
      "address": "Ground Floor, 1, CH Road, Sector 11, Gandhinagar",
      "open_now": true
    },
    {
      "place_id": "ChIJqRO_-3IsXDkRg59eikP7UuE",
      "name": "Hindustan Petroleum Corporation Limited",
      "lat": 23.263673,
      "lng": 72.641831,
      "address": "Survey No 1028, near GSPL, Mansa - Gandhinagar Highway, Pethapur, Gandhinagar",
      "open_now": true
    },
    {
      "place_id": "ChIJY-gzLsXUXTkRR74gSRQma2I",
      "name": "Sabarmati Gas CNG Station",
      "lat": 23.2299768,
      "lng": 72.7238624,
      "address": "National Highway 147, Chiloda",
      "open_now": true
    },
    {
      "place_id": "ChIJZ7bYKgDTXTkRl0Y--2x4Ot8",
      "name": "Nayara Petrol Pump (Arbuda Petroleum)",
      "lat": 23.3003217,
      "lng": 72.7694315,
      "address": "8Q29+4J6, Chhala",
      "open_now": true
    },
    {
      "place_id": "ChIJKe42qU7TXTkRSDTloX1tzrs",
      "name": "Bharat Petroleum Petrol Pump , AMBICA PETROLEUM",
      "lat": 23.290542,
      "lng": 72.76334299999999,
      "address": "VILLAGE CHHALATEHSIL, Gandhinagar",
      "open_now": true
    },
    {
      "place_id": "ChIJdXG1WL3TXTkRdwuIeuwR0eU",
      "name": "IndianOil",
      "lat": 23.318977,
      "lng": 72.778358,
      "address": "Ground Floor, Chhala",
      "open_now": true
    },
    {
      "place_id": "ChIJd9Ae6R7TXTkRlxEsn11SRVw",
      "name": "Jio-bp",
      "lat": 23.322088,
      "lng": 72.7783298,
      "address": "Survey No 968 Chiloda Himmatnagar Road, National Highway 48, Chhala",
      "open_now": true
    },
    {
      "place_id": "ChIJr8u6tMPTXTkRY4z-HqDUyGs",
      "name": "Jio-bp pulse",
      "lat": 23.283821,
      "lng": 72.761544,
      "address": "Ground Floor, Mataji Temple, Survey No, opposite Giyod, 159/A, Dhanap",
      "open_now": true
    },
    {
      "place_id": "ChIJZeMh4JzTXTkRD-7UOEVTC1Y",
      "name": "Hindustan Petroleum Corporation Limited",
      "lat": 23.281392,
      "lng": 72.758271,
      "address": "Survey No 143, near Pandav Farm, Dhanap",
      "open_now": true
    },
    {
      "place_id": "ChIJWVlXvEfSXTkRGPh9CdYvCGM",
      "name": "Nayara Petrol Pump Shree Vijay Petrolium",
      "lat": 23.3298302,
      "lng": 72.77861399999999,
      "address": "Survey No 443 Paiki, N H 8, Chandrala",
      "open_now": true
    },
    {
      "place_id": "ChIJhdKZ_z_SXTkRvo2bzigFXFI",
      "name": "IndianOil",
      "lat": 23.3394087,
      "lng": 72.78069409999999,
      "address": "Ground Floor NH 48, Chandrala",
      "open_now": true
    },
    {
      "place_id": "ChIJl9ib0t7TXTkREHjKS9Kibgs",
      "name": "KARTAVYA PETROLEUM",
      "lat": 23.2691787,
      "lng": 72.7555599,
      "address": "survey no 250, Dhanap",
      "open_now": true
    },
    {
      "place_id": "ChIJX-551gbTXTkRYPhOE-7rlrk",
      "name": "Hindustan Petroleum Corporation Limited",
      "lat": 23.269308,
      "lng": 72.75514299999999,
      "address": "Survey No 196, Dhanap",
      "open_now": true
    },
    {
      "place_id": "ChIJw8AkLwDVXTkRB3KQwsT5DYY",
      "name": "DEF AdBLue",
      "lat": 23.2669377,
      "lng": 72.7519879,
      "address": "7Q82+QQH, Himatnagar",
      "open_now": null
    },
    {
      "place_id": "ChIJOzgINFDTXTkRXq08_AQJ1js",
      "name": "Hindustan Petroleum Corporation Limited",
      "lat": 23.344854,
      "lng": 72.78451799999999,
      "address": "Survey No 404, Chandrala",
      "open_now": true
    },
    {
      "place_id": "ChIJLc6pnSDPXTkRRF8St4aliTQ",
      "name": "Subodh Petroleum Hindustan Petroleum",
      "lat": 23.4436,
      "lng": 72.8517,
      "address": "Sabarkantha, NH-8, Sabarkath Road, Himatnagar, Himatnagar",
      "open_now": true
    },
    {
      "place_id": "ChIJD_yxE2_OXTkRolcw5gCvDmw",
      "name": "Hindustan Petroleum Corporation Limited",
      "lat": 23.396125,
      "lng": 72.819671,
      "address": "B No, 276, NH 8, Prantij, Oran",
      "open_now": true
    },
    {
      "place_id": "ChIJlbUlSADPXTkREUpCJBIDuZA",
      "name": "Jiobp Petroleum, Prantij",
      "lat": 23.4206778,
      "lng": 72.83756389999999,
      "address": "CRCP+9J3, Prantij",
      "open_now": true
    },
    {
      "place_id": "ChIJ98qlCADPXTkRNjNqFQU1h3Q",
      "name": "Shah Petroleum, Jio-BP Katpur, Prantij",
      "lat": 23.4206059,
      "lng": 72.8373095,
      "address": "Survey No.-318, near Kathpur Toll Plaza, National Highway 48, Katpur",
      "open_now": true
    },
    {
      "place_id": "ChIJyeoW0_bOXTkRGyUnhCv6Za8",
      "name": "Raj Petroleum",
      "lat": 23.4208226,
      "lng": 72.8361955,
      "address": "CRCP+8FG, Katpur",
      "open_now": true
    },
    {
      "place_id": "ChIJyV1sygDPXTkRuq6ciqZ4P-M",
      "name": "AIM Petroleum",
      "lat": 23.4171011,
      "lng": 72.834525,
      "address": "National Highway 48, Katpur",
      "open_now": true
    },
    {
      "place_id": "ChIJ98sSHQDPXTkRWhaNn2bQfM8",
      "name": "Nayara Petrol Pump",
      "lat": 23.4367496,
      "lng": 72.8528118,
      "address": "CVP3+M4V, National Highway 8, Tajpur",
      "open_now": null
    },
    {
      "place_id": "ChIJidcS9xrPXTkR7j0gsNVXasI",
      "name": "IndianOil",
      "lat": 23.431997,
      "lng": 72.86126039999999,
      "address": "Ground Floor, Station Road, Balisana",
      "open_now": true
    },
    {
      "place_id": "ChIJ-_FT4lLPXTkR4KZzfKOylK8",
      "name": "Hindustan Petroleum Corporation Limited",
      "lat": 23.443591,
      "lng": 72.851731,
      "address": "Ground Floor, NH 8, Prantij",
      "open_now": true
    },
    {
      "place_id": "ChIJddzxJCHPXTkROqdkmudnQLw",
      "name": "IndianOil",
      "lat": 23.4449117,
      "lng": 72.855034,
      "address": "Ground Floor, NH 8, Balisana",
      "open_now": true
    },
    {
      "place_id": "ChIJ830l0YHPXTkRxshoXWRs4dU",
      "name": "Keshav Energy",
      "lat": 23.4427933,
      "lng": 72.8583795,
      "address": "opp. IDBI BANK, Approach Road, Prantij",
      "open_now": true
    },
    {
      "place_id": "ChIJFRRMZqrPXTkRjOb-giJV5CE",
      "name": "Happy Shop HP Service Center Oran",
      "lat": 23.3957525,
      "lng": 72.8198293,
      "address": "Block 276, NH 8, Oran, Prantij",
      "open_now": true
    },
    {
      "place_id": "ChIJuzTbKnTPXTkRAAAAcNnzJQU",
      "name": "BPCL PRUTHVI PETROLEUM",
      "lat": 23.42330609999999,
      "lng": 72.8808395,
      "address": "CVFJ+88G, near GEB, HARSHOL ROAD, NAVA, Bakarpur",
      "open_now": true
    },
    {
      "place_id": "ChIJwzF6jum4XTkR98VsgIjLXBw",
      "name": "IndianOil",
      "lat": 23.597608,
      "lng": 72.967924,
      "address": "Ground Floor, Agiol, Mahavirnagar, Himatnagar",
      "open_now": true
    },
    {
      "place_id": "ChIJRa5TFT25XTkROgRvABjBt6s",
      "name": "Om Shree Mahakali Petroleum",
      "lat": 23.5807781,
      "lng": 72.989133,
      "address": "cross road, Opp. Swaminarayan Temple, Towards Kankrol to Sahkari Jin, National Highway-8, Kanknol, Himatnagar",
      "open_now": null
    },
    {
      "place_id": "ChIJXz09TP65XTkRPxjmzNW87eM",
      "name": "Dharti Fuel Center Hindustan Petroleum",
      "lat": 23.5800523,
      "lng": 72.9757886,
      "address": "At: JAWANGADH, HIMATNAGAR-SHAMLAJI N.H.NO.8, TA:HIMATNAGAR, DIST:S.K 383276, GUJ HN 8, Raigadh",
      "open_now": null
    },
    {
      "place_id": "ChIJ_4fyv7y4XTkRG6JbYoCwYkE",
      "name": "Hindustan Petroleum Corporation Limited",
      "lat": 23.581751,
      "lng": 72.97415099999999,
      "address": "near Sahakari Jin, Survey No 870/1/Paiky, NH 8 Himmatnagar Shamlaji Hwy, Sahakari Jin Rd, near Sahakari Jin, Char Rasta, Himatnagar",
      "open_now": true
    },
    {
      "place_id": "ChIJC5emy9yxXTkR_mRvAcVwapg",
      "name": "URJA PETROLEUM",
      "lat": 23.5943366,
      "lng": 72.97859729999999,
      "address": "nr. Naira Petrol Pump, Ilol Main Bazar, nr. Naira Petrol Pump, Davad Road, Himatnagar",
      "open_now": null
    },
    {
      "place_id": "ChIJ1c9UD__HXTkRYhY4iyI5Dbo",
      "name": "Aradhy Petroleum Nayra Petrol Pump",
      "lat": 23.563642,
      "lng": 72.98692319999999,
      "address": "HX7P+FQ3, Piplikampa",
      "open_now": true
    },
    {
      "place_id": "ChIJY4EK3JC4XTkR44JTiJdXZ6o",
      "name": "AMAZONE",
      "lat": 23.5815395,
      "lng": 72.96266469999999,
      "address": "India",
      "open_now": null
    },
    {
      "place_id": "ChIJX6NBSPW5XTkR1Rtau-AYUlo",
      "name": "IndianOil",
      "lat": 23.5984,
      "lng": 72.96809999999999,
      "address": "Ground Floor Agiol, near Railway Crossing, Ambawadi, Mahavirnagar, Himatnagar",
      "open_now": true
    },
    {
      "place_id": "ChIJM-3xxfC5XTkRc_QT1kCVhz4",
      "name": "Bharat Petroleum - Bhagwati Petroleum",
      "lat": 23.5885111,
      "lng": 72.96123709999999,
      "address": "THASIA ROAD, HIMMATNA, KHED",
      "open_now": true
    },
    {
      "place_id": "ChIJxRuyCri5XTkRZ9zc2Exm7Uw",
      "name": "Bharat Petroleum, Petrol and CNG pump-Jamalbhai U. Kadiwala",
      "lat": 23.5788565,
      "lng": 72.95834119999999,
      "address": "HIMMATNAGAR, NH8, SABARKAN",
      "open_now": true
    },
    {
      "place_id": "ChIJw-5SwpO_XTkR10kyZsP4kG4",
      "name": "Laxmi Petroleum",
      "lat": 23.5828522,
      "lng": 73.014663,
      "address": "Plot No. 777/3, NH-48, Kankrol, Himatnagar",
      "open_now": true
    },
    {
      "place_id": "ChIJeeYvOu64XTkRlbNFs7itP8Y",
      "name": "HP PETROL PUMP - PRATAPGARH MOTOR COMPANY",
      "lat": 23.597993,
      "lng": 72.95893099999999,
      "address": "HP Petrol Dealer Himatnagar S.K., Palace Road, Gokulnagar, Ahmedabad",
      "open_now": true
    },
    {
      "place_id": "ChIJhURh07W5XTkRp6QXBfCxOxI",
      "name": "ADHOC S D PETROLEUM & 1",
      "lat": 23.598108,
      "lng": 72.95900449999999,
      "address": "Post Office Pratap Petrol Pump, Gandhi Road, Himatnagar",
      "open_now": null
    },
    {
      "place_id": "ChIJtUdBBaC5XTkRvboU9b6ZtZk",
      "name": "Hindustan Petroleum Corporation Limited",
      "lat": 23.598124,
      "lng": 72.958978,
      "address": "Survey No, 2378 & 2379, Idar Road, Himatnagar",
      "open_now": true
    },
    {
      "place_id": "ChIJkVWlKqS5XTkRN_pGOAzlaBQ",
      "name": "PUJABEN PATNI",
      "lat": 23.5982368,
      "lng": 72.9590058,
      "address": "Post Office Ni Same, nr. Gandhi Road, Himatnagar",
      "open_now": null
    },
    {
      "place_id": "ChIJ694gr9i5XTkRb7jK54rm-ks",
      "name": "Mehta Automobiles",
      "lat": 23.5701908,
      "lng": 72.9543964,
      "address": "Mehta Automobiles, Autho.Dealer Indian Oil Corporation Ltd, N.H.8, Ahmedabad Highway, At, Piplodi",
      "open_now": true
    },
    {
      "place_id": "ChIJ_wGTCmvHXTkRwgpTEFysQFM",
      "name": "IndianOil",
      "lat": 23.5642137,
      "lng": 72.9542744,
      "address": "Ground Floor, Piplodi NH 48, Ahmedabad Himatnagar Hwy, Hajipur",
      "open_now": true
    },
    {
      "place_id": "ChIJey5xUQDHXTkRcRXMpr1bPpM",
      "name": "Jio BP",
      "lat": 23.5596114,
      "lng": 72.9531914,
      "address": "HX53+R7W, Himatnagar",
      "open_now": null
    },
    {
      "place_id": "ChIJ4a2uIc25XTkRRuTbvBZop6o",
      "name": "KUMAR PETROLEUM",
      "lat": 23.6190946,
      "lng": 72.9829823,
      "address": "Khed tasia road Besides prabhuta party plot, nava, Himatnagar",
      "open_now": true
    },
    {
      "place_id": "ChIJ_6_vqv65XTkRinyraEwtYoA",
      "name": "SARTHAK PETROLEUM",
      "lat": 23.61491819999999,
      "lng": 72.9642241,
      "address": "SARTHAK PETROLEUM Building, No303/3, Idar Road, N/H, Virpur",
      "open_now": true
    },
    {
      "place_id": "ChIJ8ytNWpmTXTkR1Z4GiIMhKgM",
      "name": "Hindustan Petroleum Corporation Limited",
      "lat": 23.602684,
      "lng": 73.217461,
      "address": "Survey No 309, Modasa, Gadhada Kampa",
      "open_now": true
    },
    {
      "place_id": "ChIJt8W2JTSTXTkRpbsZUzvgnlU",
      "name": "IndianOil",
      "lat": 23.600402,
      "lng": 73.209628,
      "address": "Ground Floor, Gadhada, Modasa Himatnagar, Shamlaji Road, Rajendranagar",
      "open_now": true
    },
    {
      "place_id": "ChIJuwkiUcSTXTkRoeMQS66cO3Y",
      "name": "Nayara Petrol pump - Jay somnath petroleum",
      "lat": 23.6184229,
      "lng": 73.2758443,
      "address": "Nh 48 Road, Sunokh",
      "open_now": true
    },
    {
      "place_id": "ChIJdWRya1-JXTkRYspCLn6jwm0",
      "name": "IndianOil",
      "lat": 23.7083,
      "lng": 73.3903,
      "address": "Ground Floor, Samalaji",
      "open_now": true
    },
    {
      "place_id": "ChIJh_CZewCJXTkR9kFiZA3s4lA",
      "name": "Gujarat Last Petrol Pump",
      "lat": 23.727975,
      "lng": 73.403453,
      "address": "PCH3+78J, Karchha",
      "open_now": null
    },
    {
      "place_id": "ChIJOcdSs22JXTkRSRJ50OdS_18",
      "name": "Reliance",
      "lat": 23.7279452,
      "lng": 73.4032914,
      "address": "India",
      "open_now": null
    },
    {
      "place_id": "ChIJLdmEVACJXTkRr2hoYzKkNcQ",
      "name": "Jio Oil Pump",
      "lat": 23.7278491,
      "lng": 73.40303639999999,
      "address": "48, Golden Quadrilateral",
      "open_now": true
    },
    {
      "place_id": "ChIJ5ay1PgCJXTkRO2O92yalMvw",
      "name": "Bharat petroleum Coco",
      "lat": 23.7302735,
      "lng": 73.4070993,
      "address": "PCJ4+4R5, Karchha",
      "open_now": null
    },
    {
      "place_id": "ChIJD5jZ5m6JXTkR8ihDtuQUjWc",
      "name": "IndianOil",
      "lat": 23.7240082,
      "lng": 73.4011154,
      "address": "Sabarkantha, Ground Floor NH 8, Shamlaji, Udaipur Ahmedabad Rd, Nava Manipur",
      "open_now": true
    },
    {
      "place_id": "ChIJ4_5LE2SJXTkRyXJ_eXYBPfw",
      "name": "Vaikunth Petroleum",
      "lat": 23.7311901,
      "lng": 73.4124224,
      "address": "NHAI 8, po, At, Rangpur",
      "open_now": null
    },
    {
      "place_id": "ChIJ78rERgCJXTkRfnBaRv_otcc",
      "name": "Shree shyam DEF uriya pump",
      "lat": 23.7267359,
      "lng": 73.3959201,
      "address": "P9GW+M9V, Nava Venpur",
      "open_now": null
    },
    {
      "place_id": "ChIJc70BRgCJXTkRE7usA0AaCWs",
      "name": "Shree shyam filing station",
      "lat": 23.7157053,
      "lng": 73.39326989999999,
      "address": "N H no 8, At navavenpur, Samalaji",
      "open_now": null
    },
    {
      "place_id": "ChIJzf1PGQCJXTkR1npclIukDME",
      "name": "Shree shyam DEF uriya pump",
      "lat": 23.715429,
      "lng": 73.39250609999999,
      "address": "P98V+52C, National Highway 48, Venpur",
      "open_now": null
    },
    {
      "place_id": "ChIJkak-pV2LXTkRxfGKrirsbfA",
      "name": "Hindustan Petroleum Corporation Limited",
      "lat": 23.7050701,
      "lng": 73.391632,
      "address": "Sy No 11, Paiki 1, Ahmedabad Udaipur Hwy NH 48, Venpur, Bhiloda",
      "open_now": true
    },
    {
      "place_id": "ChIJg0TwewCLXTkRQFBSglaBC3k",
      "name": "Shree shyam DEF uriya pump",
      "lat": 23.6875458,
      "lng": 73.386304,
      "address": "M9QP+2G7, Nava Venpur",
      "open_now": null
    },
    {
      "place_id": "ChIJ_yZ-hBxjZzkRm6RamFjHjsw",
      "name": "Shri Ashapura Delaer-Hindustan Petroleum",
      "lat": 23.7814,
      "lng": 73.5178,
      "address": "QGJ9+H43, NH-8, Bicchiwada, Dungarpur",
      "open_now": true
    },
    {
      "place_id": "ChIJw-5aYgFjZzkRDTFhbcR1QR4",
      "name": "IndianOil",
      "lat": 23.764013,
      "lng": 73.483257,
      "address": "Ground Floor, NH 8, Lehna, Bichhiwara",
      "open_now": true
    },
    {
      "place_id": "ChIJv9W6RvxiZzkRLYGmJU95zro",
      "name": "Hindustan Petroleum Corporation Limited",
      "lat": 23.774001,
      "lng": 73.508301,
      "address": "Ground Floor, NH 8, Dhamod",
      "open_now": true
    },
    {
      "place_id": "ChIJLY0mEP1iZzkRjPn6hayVpQE",
      "name": "Hindustan Petroleum Corporation Limited",
      "lat": 23.77607639999999,
      "lng": 73.5102086,
      "address": "Ground Floor, NH 8, Dhamod",
      "open_now": true
    },
    {
      "place_id": "ChIJgesJehJjZzkRZtrmRXipPk4",
      "name": "Bharat Petroleum, Petrol Pump -BP-Bichhiwara- Ii",
      "lat": 23.7874245,
      "lng": 73.4889863,
      "address": "BICHIWARA, AHMEDABAD UDAIPU, DUNGARPUR",
      "open_now": null
    },
    {
      "place_id": "ChIJ4x9X4pZjZzkR3fIqg9ICIE4",
      "name": "Essar Oil",
      "lat": 23.76038429999999,
      "lng": 73.4802076,
      "address": "QF6J+534, Lehana",
      "open_now": null
    },
    {
      "place_id": "ChIJrVgiv41jZzkRgXVTE4hlovI",
      "name": "Hindustan Petroleum Corporation Limited",
      "lat": 23.79023200000001,
      "lng": 73.521682,
      "address": "Ground Floor, NH 8, Udaipur Ahmedabad Road, Bichhiwara",
      "open_now": true
    },
    {
      "place_id": "ChIJycGWstKJXTkRbA48cxQQrvY",
      "name": "IndianOil - SWAGAT",
      "lat": 23.7530912,
      "lng": 73.46599379999999,
      "address": "NH 8 Ratanpur, Border, Khajoori",
      "open_now": true
    },
    {
      "place_id": "ChIJfXecPGyJXTkRa21xNpe3vnY",
      "name": "IndianOil",
      "lat": 23.7525352,
      "lng": 73.46498070000001,
      "address": "NH 8, Ratanpur Border, Khajoori",
      "open_now": true
    },
    {
      "place_id": "ChIJlWaZ78CJXTkR3GX88dp70QY",
      "name": "IndianOil",
      "lat": 23.760597,
      "lng": 73.453985,
      "address": "Ground Floor NH 8, Border, Khajoori",
      "open_now": true
    },
    {
      "place_id": "ChIJxcPoRCVjZzkRMRRbXAvQSvA",
      "name": "IndianOil",
      "lat": 23.8019572,
      "lng": 73.5230648,
      "address": "Ground Floor NH 48, Amjhara",
      "open_now": true
    },
    {
      "place_id": "ChIJb9T_5DKIXTkRHR68LHZVIJk",
      "name": "Bharat Petroleum, Petrol Pump -Omshree Filling Station",
      "lat": 23.7619748,
      "lng": 73.4508462,
      "address": "Ratanpur",
      "open_now": true
    },
    {
      "place_id": "ChIJh2aa6S9jZzkR_B0t-Ia6LhQ",
      "name": "BPCL Petrol Pump - BP Bichiwara",
      "lat": 23.804026,
      "lng": 73.523029,
      "address": "NH-8, Udaipur Ahmedabad Highway Near Neelgiri Hotel, Distt Dungarpur, Village, Bichhiwara",
      "open_now": null
    },
    {
      "place_id": "ChIJs3O8yVt8ZzkRq-A3dmkitCo",
      "name": "Hindustan Petroleum Corporation Limited",
      "lat": 23.86805009999999,
      "lng": 73.527501,
      "address": "Ground Floor NH 8, Amjhara",
      "open_now": true
    },
    {
      "place_id": "ChIJcasWN_d8ZzkRkEythWJEmHQ",
      "name": "IndianOil",
      "lat": 23.8556,
      "lng": 73.52579999999999,
      "address": "near Bhairavji Mandir, Udaipur Ahmedabad Road, Amjhara",
      "open_now": true
    },
    {
      "place_id": "ChIJTwq0HfF8ZzkRgP2tqTPbRSs",
      "name": "IndianOil",
      "lat": 23.85330099999999,
      "lng": 73.5270101,
      "address": "Ground Floor NH 8, Bichhiwara, Amzara, near Km Stone, 368 to 69, Dungarpur",
      "open_now": true
    },
    {
      "place_id": "ChIJG908axNjZzkRdyRTY9m4qyk",
      "name": "Hindustan Petroleum Corporation Limited",
      "lat": 23.838556,
      "lng": 73.522926,
      "address": "Khasra No, 693 & 694, NH 8, Baroti With Chak",
      "open_now": true
    },
    {
      "place_id": "ChIJl2rFvnCbZzkRk2h1NyVDi1o",
      "name": "Bharat Petroleum Pump",
      "lat": 24.1227568,
      "lng": 73.694273,
      "address": "Peepli B",
      "open_now": true
    },
    {
      "place_id": "ChIJI1mx9uWcZzkRE5nrYXzU80U",
      "name": "L AND R HP Petrol pump",
      "lat": 24.0727667,
      "lng": 73.68283280000001,
      "address": "3MFM+444, choraha, Rishabhdev",
      "open_now": true
    },
    {
      "place_id": "ChIJF9-HBzqbZzkRmvx3xy-5k8M",
      "name": "Hindustan Petroleum Corporation Limited",
      "lat": 24.115551,
      "lng": 73.697182,
      "address": "Ground Floor, NH 8, Kalawat",
      "open_now": true
    },
    {
      "place_id": "ChIJ81AJsJGcZzkRyR0qUUkpLDc",
      "name": "Reliance Petroleum",
      "lat": 24.0947448,
      "lng": 73.6872704,
      "address": "KHASRA NO. - 230, 231 , LHS TOWARDS :- UDAIPUR , NH - 8 , VILLAGE :- THANA TEHSIL :- RISHABDEO , DISTRICT:, Udaipur",
      "open_now": true
    },
    {
      "place_id": "ChIJkUYlI0qdZzkR5vlU5fRa9ck",
      "name": "Jio-bp",
      "lat": 24.0947778,
      "lng": 73.6872222,
      "address": "Khasra No, 230 & 231, Nh 8, Thana",
      "open_now": true
    },
    {
      "place_id": "ChIJq_KUfpGcZzkRQT43kkC4EsM",
      "name": "IndianOil",
      "lat": 24.0921001,
      "lng": 73.68560099999999,
      "address": "Ground Floor NH 8, Rishabdev, Balua, Kherwara Chhaoni",
      "open_now": true
    },
    {
      "place_id": "ChIJXWAwYlSbZzkRu7sLUq2KfVU",
      "name": "SHREE NEELKANTH FUELS",
      "lat": 24.1232324,
      "lng": 73.6923523,
      "address": "village- kalaliyakad Rishabdev udaipur rajasthan 313802 Rishabdev",
      "open_now": true
    },
    {
      "place_id": "ChIJtefVfEOdZzkRzyoEB70BZX8",
      "name": "Hindustan Petroleum Corporation Limited",
      "lat": 24.082024,
      "lng": 73.68588299999999,
      "address": "Ground Floor, NH 8, Rishabhdev",
      "open_now": true
    },
    {
      "place_id": "ChIJeRqGgO6cZzkRom3enw6PaQs",
      "name": "Bharat Petroleum, Petrol Pump -Deepak Filling Station",
      "lat": 24.0801505,
      "lng": 73.6860117,
      "address": "RIKABDEV, UDAIPUR",
      "open_now": true
    },
    {
      "place_id": "ChIJWficOUGdZzkRmzWeFpaaPqk",
      "name": "Bharat Petroleum, Petrol Pump -Rishabhdev Filling Station",
      "lat": 24.0756019,
      "lng": 73.6856701,
      "address": "PIPLIYA, RISHABDEO, UDAIPUR",
      "open_now": null
    },
    {
      "place_id": "ChIJTS-z67udZzkRovUu9rh_QIM",
      "name": "Bharat Petroleum, Petrol Pump -Kesariyaji Filling Station",
      "lat": 24.071544,
      "lng": 73.6828031,
      "address": "KESHARIYAJI,UDAIPUR AHMEDA, UDAIPUR",
      "open_now": true
    },
    {
      "place_id": "ChIJE2L2eQCdZzkRMaPjF97chW4",
      "name": "Assam Oil",
      "lat": 24.0689375,
      "lng": 73.68131249999999,
      "address": "3M9J+HG, Rayana",
      "open_now": null
    },
    {
      "place_id": "ChIJQdbqwkidZzkRCSc7HJbvrYY",
      "name": "IndianOil",
      "lat": 24.0685502,
      "lng": 73.68130099999999,
      "address": "337/1, Km Stone, Ground Floor NH 8, Near, Balua, Rishabhdev",
      "open_now": true
    },
    {
      "place_id": "ChIJZbl3FQadZzkRUr6E8c0Ep0s",
      "name": "Vartika HP Filling Station",
      "lat": 24.0618446,
      "lng": 73.7004398,
      "address": "Rajasthan State Highway 53, Rishabhdev",
      "open_now": true
    },
    {
      "place_id": "ChIJ189dFQCRZzkRiE0N1kp6XEs",
      "name": "BALAJI ADANI CNG PUMP",
      "lat": 24.216694,
      "lng": 73.696274,
      "address": "6M8W+XG3, Baroti",
      "open_now": true
    },
    {
      "place_id": "ChIJ5fi165GRZzkRTkMO25yxmuk",
      "name": "Petrol Pump",
      "lat": 24.2075336,
      "lng": 73.69924449999999,
      "address": "6M5X+2M9, Baroti",
      "open_now": null
    },
    {
      "place_id": "ChIJ3zGhNn6QZzkRj89zcQYhYxI",
      "name": "Bharat Petroleum, Petrol Pump, Cng Gas -Sugam Filling Station",
      "lat": 24.2064334,
      "lng": 73.69971190000001,
      "address": "PRASAD, UDAIPUR AHMEDABAD, UDAIPUR",
      "open_now": true
    },
    {
      "place_id": "ChIJw6iDj2ONZzkRQaBW6N8_0k8",
      "name": "IndianOil",
      "lat": 24.351171,
      "lng": 73.64814009999999,
      "address": "Ground Floor, Bori Kuan, NH 8, Girwa, Tidi, Barapal",
      "open_now": true
    },
    {
      "place_id": "ChIJ1X39Q7HyZzkRk9ZQ4wo2pYk",
      "name": "Kisan Seva Centre",
      "lat": 24.3878,
      "lng": 73.63709999999999,
      "address": "9JQP+4R9, Bhinder - Udaipur Rd, Udaipur",
      "open_now": true
    },
    {
      "place_id": "ChIJK4O7kpbzZzkRi44W6Ffepbc",
      "name": "IndianOil",
      "lat": 24.3972379,
      "lng": 73.63465819999999,
      "address": "NH 8, Udaipur - Ahmedabad Highway, Barapal",
      "open_now": true
    },
    {
      "place_id": "ChIJMebZd3PzZzkRmC0yCwy0ucc",
      "name": "IndianOil",
      "lat": 24.3996128,
      "lng": 73.6327912,
      "address": "Ground Floor, NH 8, Barapal, Udaipur",
      "open_now": true
    },
    {
      "place_id": "ChIJt5LdJ7LzZzkRBhN7PooWRL4",
      "name": "GATEWAY FUELS",
      "lat": 24.4014394,
      "lng": 73.6321542,
      "address": "NH, vill, Barapal",
      "open_now": true
    },
    {
      "place_id": "ChIJa-4D5oaSZzkRv36QSdzQWuA",
      "name": "Hindustan Petroleum Corporation Limited",
      "lat": 24.341201,
      "lng": 73.66160099999999,
      "address": "Ground Floor, NH 8, Tidi Dam Road, Udaipur",
      "open_now": true
    },
    {
      "place_id": "ChIJk_9nqIrtZzkRSu9wvFt9cUs",
      "name": "IndianOil",
      "lat": 24.4516001,
      "lng": 73.6537001,
      "address": "Ground Floor Kaya, Road, Dhundi, Ahmedabad",
      "open_now": true
    },
    {
      "place_id": "ChIJD7o-YADxZzkRPEDXaZe52zI",
      "name": "V max petroleum",
      "lat": 24.4936053,
      "lng": 73.6533194,
      "address": "FMV3+C8W, Lai",
      "open_now": null
    },
    {
      "place_id": "ChIJ6-ey5eHxZzkRWFdNVhamUoU",
      "name": "Dalal Fueling Station",
      "lat": 24.4936221,
      "lng": 73.6533058,
      "address": "FMV3+C8V, Lai",
      "open_now": true
    },
    {
      "place_id": "ChIJRceCMSHuZzkRI4sd0mh2pto",
      "name": "HP PETROL PUMP - CHOUDHARY PETROLEUM HOUSE",
      "lat": 24.496775,
      "lng": 73.6551574,
      "address": "Ahemdabad Road, Udaipur",
      "open_now": true
    },
    {
      "place_id": "ChIJJZR2ghHvZzkR_ON04NCUUUw",
      "name": "IndianOil",
      "lat": 24.5448526,
      "lng": 73.7153842,
      "address": "Gokul Village Road, Sector 9, Udaipur",
      "open_now": true
    },
    {
      "place_id": "ChIJQVWJ527vZzkR-JRTIpfF-ZQ",
      "name": "Hindustan Petroleum Corporation Limited",
      "lat": 24.559361,
      "lng": 73.716871,
      "address": "Ground Floor, Sector 6, Hiran Magri, Udaipur",
      "open_now": true
    },
    {
      "place_id": "ChIJYw4tP5foZzkRoT7DwSTHtok",
      "name": "IndianOil",
      "lat": 24.5674699,
      "lng": 73.7761189,
      "address": "Ground Floor, H Magri, Girwa, Udaipur",
      "open_now": true
    },
    {
      "place_id": "ChIJ11T2KNroZzkRHtZ1WZ18hls",
      "name": "IndianOil",
      "lat": 24.5391,
      "lng": 73.7620001,
      "address": "Ground Floor Kaladwas, Girwa, Udaipur",
      "open_now": true
    },
    {
      "place_id": "ChIJWZEmCavpZzkRKfVvH1WTcas",
      "name": "Nayara Petrol Pump - Shrinath Filling Station",
      "lat": 24.5356389,
      "lng": 73.7670387,
      "address": "Umarda road, Udaipur",
      "open_now": true
    },
    {
      "place_id": "ChIJMagXdMzoZzkRE9V3AxSjqbY",
      "name": "Hindustan Petroleum Corporation Limited",
      "lat": 24.549411,
      "lng": 73.75195099999999,
      "address": "Ground Floor Kaladwas, Road, Eklingpura",
      "open_now": true
    },
    {
      "place_id": "ChIJewCFak_vZzkR_rQE8e2iJZk",
      "name": "IndianOil",
      "lat": 24.5057911,
      "lng": 73.737126,
      "address": "Ground Floor, Jaisamand Road, Dakan Kotra",
      "open_now": true
    },
    {
      "place_id": "ChIJ46xLrxbvZzkR2NZJNK3WZ_4",
      "name": "Bharat Petroleum Petrol Pump , SHREE KISHAN FILLING STATION",
      "lat": 24.555521,
      "lng": 73.73792999999999,
      "address": "Main Jhamarkotra Road, Udaipur",
      "open_now": true
    },
    {
      "place_id": "ChIJ9Q4G2_XvZzkRQXzFs2dq5S8",
      "name": "BPCL Radhe Krishna Filling Station",
      "lat": 24.5630044,
      "lng": 73.740073,
      "address": "Manwa khera, Pratapnagar, Eklingpura",
      "open_now": true
    },
    {
      "place_id": "ChIJ2W30PwDvZzkRgBKXRQ-ltMk",
      "name": "Girja Vyas Petrol Pump - RK Puram,Udaipur",
      "lat": 24.5449036,
      "lng": 73.7153039,
      "address": "GPV8+X47, Gokul Village Road, Gokul Village, Sector 9, Udaipur",
      "open_now": true
    },
    {
      "place_id": "ChIJN5QQPELvZzkREp9XtX8oqlo",
      "name": "IndianOil",
      "lat": 24.5594001,
      "lng": 73.726101,
      "address": "Ground Floor Jhamarkotra Road, Hiran Magri Main Road, Manva Kheda, Udaipur",
      "open_now": true
    },
    {
      "place_id": "ChIJDyvUjGnvZzkRVmbWPh25nTg",
      "name": "Essar Fuel Station",
      "lat": 24.5582622,
      "lng": 73.7227554,
      "address": "Sector 6, Udaipur",
      "open_now": true
    },
    {
      "place_id": "ChIJCS0Lw-fpZzkRWELBqgW4WYM",
      "name": "Hindustan Petroleum Corporation Limited",
      "lat": 24.567438,
      "lng": 73.761777,
      "address": "Ground Floor, opposite Reliance Chemotex, Transport Nagar, Udaipur",
      "open_now": true
    },
    {
      "place_id": "ChIJz_BTdZDpZzkRTaxVSr0iq44",
      "name": "IndianOil",
      "lat": 24.5671483,
      "lng": 73.7645291,
      "address": "Ground Floor Bhoiyon Ki Pancholi, Kanpur",
      "open_now": true
    },
    {
      "place_id": "ChIJ18nVVA7vZzkRrHIy8vLFu_E",
      "name": "Hindustan Petroleum Corporation Limited",
      "lat": 24.5419101,
      "lng": 73.7095701,
      "address": "Ground Floor, Jaisamand Road, Savina, Udaipur",
      "open_now": true
    },
    {
      "place_id": "ChIJVx6sclTvZzkRGfJJH1HLhRw",
      "name": "Shree Ramkripa Filling Station",
      "lat": 24.5722437,
      "lng": 73.74339499999999,
      "address": "HPCV+V9R, Road Number 1, NH-8, Square Near FCI Office, Madri Industrial Area, Transport Nagar, Udaipur",
      "open_now": null
    },
    {
      "place_id": "ChIJF-kv0G3kZzkRp83Y3AZlQCc",
      "name": "Hindustan Petroleum Corporation Limited",
      "lat": 24.6533746,
      "lng": 73.7191259,
      "address": "Ground Floor, opposite Zohra Marble, Amberi",
      "open_now": true
    },
    {
      "place_id": "ChIJW4CtR9zlZzkRoed-bZ7qmWU",
      "name": "DEBARI GATE FILLING STATION 2",
      "lat": 24.6532303,
      "lng": 73.7324759,
      "address": "MP3J+7XX, Dheekli Road, Udaipur",
      "open_now": null
    },
    {
      "place_id": "ChIJQcsQfpvlZzkRpNW9cfrrAOI",
      "name": "Diamond Motors BPCL Petrol Pump",
      "lat": 24.6469671,
      "lng": 73.71839659999999,
      "address": "Sukher Road, Sukher",
      "open_now": true
    },
    {
      "place_id": "ChIJp6S1UBDlZzkR_Hj4caMnVNc",
      "name": "Eklingji Service center",
      "lat": 24.6389352,
      "lng": 73.7154031,
      "address": "NH 8, Sukher, Udaipur",
      "open_now": true
    },
    {
      "place_id": "ChIJs6vOCDrlZzkRi-WAsUdMKTo",
      "name": "R.K. Fuels",
      "lat": 24.6379514,
      "lng": 73.7158884,
      "address": "near bank of baroda, Sukher Road, Udaipur",
      "open_now": true
    },
    {
      "place_id": "ChIJt8N6S9rlZzkRdSKYudxhQ2E",
      "name": "Fuel Marchant",
      "lat": 24.6467816,
      "lng": 73.6905902,
      "address": "Lakhawali Road, Bedla, Udaipur",
      "open_now": null
    },
    {
      "place_id": "ChIJsZavcQDlZzkROzMhT_VTiUY",
      "name": "IndianOil",
      "lat": 24.629311,
      "lng": 73.711775,
      "address": "Ground Floor, NH 8, Bhuwana, Udaipur",
      "open_now": true
    },
    {
      "place_id": "ChIJMeo2cgDlZzkR3ey06x82xNA",
      "name": "Cng pump",
      "lat": 24.6292438,
      "lng": 73.7117659,
      "address": "Indian Oil Corporation, Ashok Chowk, Adarsh Nagar, Jaipur",
      "open_now": null
    },
    {
      "place_id": "ChIJQ-ESO07kZzkRAkKeZzMzSSM",
      "name": "Amritdhara Submersible Pumps",
      "lat": 24.6278219,
      "lng": 73.7133422,
      "address": "JPH7+48G, Sulabh Shochalaya Road, Sukher",
      "open_now": null
    },
    {
      "place_id": "ChIJ-wBsDMjnZzkR1FcZlr2bS3M",
      "name": "DEBARI GATE FILLING STATION",
      "lat": 24.6326046,
      "lng": 73.7549628,
      "address": "JQM3+2XW, VILLLEGE VADA, DHINKLI",
      "open_now": null
    },
    {
      "place_id": "ChIJmTmrDQnlZzkRWVD1w_tEnVo",
      "name": "New BPCL petrol pump Meera Nagar Bhuwana",
      "lat": 24.6181543,
      "lng": 73.7137398,
      "address": "JP97+7F9, Bhuwana, Udaipur",
      "open_now": null
    },
    {
      "place_id": "ChIJZ3Mp6wvhZzkRH95HptI_3cM",
      "name": "Bharat Petroleum petrol pump, City Connect Fuels",
      "lat": 24.7497121,
      "lng": 73.7563399,
      "address": "opposite vaishno devi temple, Nh58, opposite vaishno devi temple, Rajsamand",
      "open_now": true
    },
    {
      "place_id": "ChIJ3T5jpKnhZzkRZpVH0zLCPQo",
      "name": "IndianOil",
      "lat": 24.7521599,
      "lng": 73.759214,
      "address": "Ground Floor, Ilera",
      "open_now": true
    },
    {
      "place_id": "ChIJdYld21bjZzkRigUAFYy3gXw",
      "name": "Royal Biodiesel Feeling Station",
      "lat": 24.7238518,
      "lng": 73.73163810000001,
      "address": "Opp. Prem Sagar Dhaba, NH-8 Eklingji Bypass,Nathdwara, Road, Udaipur",
      "open_now": null
    },
    {
      "place_id": "ChIJqXJiWAALaDkR44cFNQg6gRc",
      "name": "AVVNL RSEB office",
      "lat": 24.7814116,
      "lng": 73.7500761,
      "address": "QQJ2+H28, Majera",
      "open_now": null
    },
    {
      "place_id": "ChIJxScY3vQLaDkRMroPHHch68I",
      "name": "Shree Mohan Filling Station",
      "lat": 24.7820414,
      "lng": 73.7487278,
      "address": "Bijli Vibhag Office, Old N. H. -8, near Police Station, near State Electricity Office, near Panchayat Samiti Office, Road, Delwara",
      "open_now": null
    },
    {
      "place_id": "ChIJs7PKIgDjZzkR0dTdTrkyO3k",
      "name": "SHREEJlCNG",
      "lat": 24.710505,
      "lng": 73.73172269999999,
      "address": "NH 8, NATHDWARA ROAD, Mohanpura",
      "open_now": null
    },
    {
      "place_id": "ChIJqwGNZaTjZzkR0bYUIL_iBJ4",
      "name": "IndianOil",
      "lat": 24.71049290000001,
      "lng": 73.7314253,
      "address": "Ground Floor, Mohanpura",
      "open_now": true
    },
    {
      "place_id": "ChIJqQHdy14LaDkRc92sSyhkvlg",
      "name": "IndianOil",
      "lat": 24.78776199999999,
      "lng": 73.75253,
      "address": "Ground Floor, Nathdwara, Delwara",
      "open_now": true
    },
    {
      "place_id": "ChIJF6-s0TwKaDkRAAAAsNq1lwU",
      "name": "Smart Fuel India",
      "lat": 24.79028319999999,
      "lng": 73.7601024,
      "address": "Shop 1, Udaipur",
      "open_now": null
    },
    {
      "place_id": "ChIJ615p6jgNaDkRy7qLHhBgPYE",
      "name": "Bharat Petroleum",
      "lat": 24.9305653,
      "lng": 73.8257592,
      "address": "bus stand, near Axis Bank, Nathdwara",
      "open_now": null
    },
    {
      "place_id": "ChIJB8no3EYNaDkRSWNsYFmDsRc",
      "name": "Prabhu Lallohar",
      "lat": 24.9359805,
      "lng": 73.8254963,
      "address": "WRPG+95X, Rajsamand - Ajmer Road, Shiv Nagar, Nathdwara",
      "open_now": true
    },
    {
      "place_id": "ChIJPTPQx8gNaDkRMQPLjkLGEck",
      "name": "IndianOil",
      "lat": 24.931401,
      "lng": 73.826601,
      "address": "Ground Floor, NH 8, Nathdwara",
      "open_now": true
    },
    {
      "place_id": "ChIJ6Rwz1y8TaDkRAq7ZqJxK1kc",
      "name": "Kohinoor Petroleum , Essar petrol pump",
      "lat": 24.9631065,
      "lng": 73.82986439999999,
      "address": "Kohinoor Petroleum, N.H. 8 , gunjol, Nathdwara",
      "open_now": null
    },
    {
      "place_id": "ChIJ-egs4QINaDkRuNcz1wxTfCs",
      "name": "IndianOil",
      "lat": 24.9096703,
      "lng": 73.8049309,
      "address": "upli oden, Nathdwara",
      "open_now": true
    },
    {
      "place_id": "ChIJ28ch1cBsaDkRITxOnQrbWg0",
      "name": "IndianOil",
      "lat": 25.025801,
      "lng": 73.85940099999999,
      "address": "Ground Floor, Piparda",
      "open_now": true
    },
    {
      "place_id": "ChIJXfyQNyptaDkRpkAzU2xwfBI",
      "name": "Bharat Petroleum & CNG, Tejpuriya",
      "lat": 25.0017928,
      "lng": 73.8463104,
      "address": "",
      "open_now": true
    },
    {
      "place_id": "ChIJUQLXBABtaDkR8cBvA1yL-CA",
      "name": "KANHAIYA FILLING STATION",
      "lat": 25.0211338,
      "lng": 73.8569986,
      "address": "opp. B.P. Petrol Pump, N.H. 8, Piparda",
      "open_now": true
    },
    {
      "place_id": "ChIJKUXENcRsaDkRuwNO1zQvV9I",
      "name": "Sbn electric works",
      "lat": 25.0207498,
      "lng": 73.8563745,
      "address": "opp. Kanhaiya bharat petrol pump, Piparda",
      "open_now": true
    },
    {
      "place_id": "ChIJhUHaSwBtaDkReiPpcLfhujU",
      "name": "(INDIAN OIL) MURLIDHAR FILLING STATION",
      "lat": 25.0208535,
      "lng": 73.8557376,
      "address": "NH 58, Rajsamand",
      "open_now": true
    },
    {
      "place_id": "ChIJD3YrK8dsaDkRtv066yqlUVw",
      "name": "Shiv Shambhu Filling Station",
      "lat": 25.01661379999999,
      "lng": 73.85249259999999,
      "address": "Piparda",
      "open_now": true
    },
    {
      "place_id": "ChIJXcEkWgBtaDkRhrMYyLO_gFw",
      "name": "Shri Shivanshika Filling Station - Indian Oil",
      "lat": 25.0263112,
      "lng": 73.87638670000001,
      "address": "229/30, NH 758",
      "open_now": true
    },
    {
      "place_id": "ChIJ-9HsWadsaDkR4hs71kZ7DCc",
      "name": "Jio-bp",
      "lat": 25.0512641,
      "lng": 73.8586905,
      "address": "KHASRA NO 1289, NH8, MILE STONE 207, VILLAGE RAJNAGAR, (LHS AJMER TO UDAIPUR TEHSIL &, Rajnagar",
      "open_now": true
    },
    {
      "place_id": "ChIJB5tABNhtaDkRTuovcC25ZRE",
      "name": "Hindustan Petroleum Corporation Limited",
      "lat": 25.045179,
      "lng": 73.877451,
      "address": "near Bus Stand, Ground Floor Nathdwara, near Bus Stand, Road, Kankroli, Dhoinda",
      "open_now": true
    },
    {
      "place_id": "ChIJQw6CgYFsaDkRUiwtOoYNf7E",
      "name": "Bharat Petroleum, Petrol and CNG Pump -Shrinath Filling Station",
      "lat": 25.0515454,
      "lng": 73.88342,
      "address": "DHOINDA KANKRAULI, RAJ, RAJ SAMAND",
      "open_now": true
    },
    {
      "place_id": "ChIJqwyO6HxraDkRpV5ne1AeNJI",
      "name": "Nayara Petrol Pump",
      "lat": 25.0573943,
      "lng": 73.8788841,
      "address": "Rajsamand, Mahaveer Nagar, kishor Nagar, Rajsamand",
      "open_now": true
    },
    {
      "place_id": "ChIJC0aM8HZraDkRRv_ESFjkysk",
      "name": "Bharat Petroleum Girdhar Petroleum",
      "lat": 25.0557609,
      "lng": 73.8840675,
      "address": "Shop No 2, near 100 Feet Tiraha, 100 Feet Road, Kankroli, Rajsamand",
      "open_now": null
    },
    {
      "place_id": "ChIJqyjBNfVraDkR7qu-gaTx7r8",
      "name": "IndianOil",
      "lat": 25.0585686,
      "lng": 73.88572789999999,
      "address": "Ground Floor, Jal Chakki, Kankroli, Rajsamand",
      "open_now": true
    },
    {
      "place_id": "ChIJm_pkZQBraDkREsUQi-5IIEQ",
      "name": "राजा राजसिंह चौराहा",
      "lat": 25.0584452,
      "lng": 73.8860282,
      "address": "SH 12, Mahadev Colony, Koyad, Rajsamand",
      "open_now": true
    },
    {
      "place_id": "ChIJAdIjD39raDkRfONWYdGvnNo",
      "name": "IndianOil",
      "lat": 25.0579001,
      "lng": 73.887101,
      "address": "Ground Floor, Dealerjal Chakki, Kankroli, Sakroda",
      "open_now": true
    },
    {
      "place_id": "ChIJLUhSUwBraDkRQmBwsl05ry0",
      "name": "Kelwada",
      "lat": 25.0663459,
      "lng": 73.87572,
      "address": "3V8G+G7Q, Kelwara, Rajsamand",
      "open_now": null
    },
    {
      "place_id": "ChIJs_zss9JnaDkRpe1vkV_xu9g",
      "name": "IndianOil",
      "lat": 25.1177784,
      "lng": 74.0406366,
      "address": "NHAI 758, Kunwariya",
      "open_now": true
    },
    {
      "place_id": "ChIJE9YeuJ5naDkRgLgmQMEeoKc",
      "name": "Essar Petrol Pump",
      "lat": 25.118552,
      "lng": 74.0640871,
      "address": "4397+CJG, Phiyabari",
      "open_now": null
    },
    {
      "place_id": "ChIJ2VhhG3BhaDkRGLnCDNvKKZ4",
      "name": "ANMOL PETROLEUM",
      "lat": 25.1282413,
      "lng": 74.1738069,
      "address": "NH-758 SANGAS, TEHSIL, Sahara",
      "open_now": true
    },
    {
      "place_id": "ChIJxczazXphaDkRayFa0tLEw_U",
      "name": "Sanwaliya Filling Station Essar Pump",
      "lat": 25.1287672,
      "lng": 74.17293769999999,
      "address": "45HF+G54, Udaipur Road, Potlan",
      "open_now": null
    },
    {
      "place_id": "ChIJvdLf-K2LaDkRxIzQPkhaLkE",
      "name": "रामदेव जी मंदिर। रामदेव नीवास",
      "lat": 25.1597079,
      "lng": 74.2251607,
      "address": "565G+V3M, Potlan",
      "open_now": null
    },
    {
      "place_id": "ChIJeeuTMAiLaDkRNf7pf0wDYMQ",
      "name": "Dilkhush Filling Station",
      "lat": 25.167103,
      "lng": 74.2317542,
      "address": "568J+RPR, Gurha Khera",
      "open_now": true
    },
    {
      "place_id": "ChIJ9ykIQF3taDkRxWeSapzCo00",
      "name": "IndianOil",
      "lat": 25.2263848,
      "lng": 74.4159366,
      "address": "Ground Floor, Gangapur Road, Karoi",
      "open_now": true
    },
    {
      "place_id": "ChIJ26Ob7c7taDkR8c63Kb4JO-E",
      "name": "Jai sanwariya petroleum",
      "lat": 25.2519545,
      "lng": 74.4264551,
      "address": "Parvatipura - Sangwa Road, Karoi Kalan",
      "open_now": null
    },
    {
      "place_id": "ChIJb3Sw6gnzaDkR9LGa_Ai6zTg",
      "name": "Hindustan Petroleum Corporation Limited",
      "lat": 25.223101,
      "lng": 74.40430099999999,
      "address": "Ground Floor, NH 758, Karoi",
      "open_now": true
    },
    {
      "place_id": "ChIJsUqHuPrpaDkRipoHluAOOrs",
      "name": "IndianOil",
      "lat": 25.3257232,
      "lng": 74.58289959999999,
      "address": "Ground Floor, G 19, Pur Road, Azad Nagar, Bhilwara",
      "open_now": true
    },
    {
      "place_id": "ChIJLVpJCwnCaDkRpZrDlSKmagc",
      "name": "BPCL Petrol Pump",
      "lat": 25.3322866,
      "lng": 74.5965487,
      "address": "Sector A, Bapu Nagar, Bhilwara",
      "open_now": null
    },
    {
      "place_id": "ChIJ6fyH-YvpaDkRVqfepz7cJRE",
      "name": "IndianOil",
      "lat": 25.3182845,
      "lng": 74.5646015,
      "address": "India",
      "open_now": null
    },
    {
      "place_id": "ChIJo4lhZZTpaDkRrJ6T_IRUCrQ",
      "name": "Bharat Petroleum, Petrol Pump -Navkar Filling Station",
      "lat": 25.3312752,
      "lng": 74.566124,
      "address": "NH-76, VILL PUR, BHILWARA, Bhilwara",
      "open_now": true
    },
    {
      "place_id": "ChIJ18s6I-7paDkR9pt6ztEHU3Y",
      "name": "IndianOil",
      "lat": 25.337215,
      "lng": 74.55369340000001,
      "address": "Ground Floor, Samori",
      "open_now": true
    },
    {
      "place_id": "ChIJw8eDUaLpaDkRTMmlQ7IIrT8",
      "name": "Hindustan Petroleum Corporation Limited",
      "lat": 25.3369027,
      "lng": 74.55313819999999,
      "address": "Ground Floor Sambodhi, near Ratnakar Steel Plant, Jindal Road, Bhilwara",
      "open_now": true
    },
    {
      "place_id": "ChIJueC-cobpaDkRm8xunY9PZC8",
      "name": "IndianOil",
      "lat": 25.3213769,
      "lng": 74.586953,
      "address": "Ground Floor, NH 79, Bhilwara Road, Pur",
      "open_now": true
    },
    {
      "place_id": "ChIJF434cxrqaDkRhF9D8xpQmsg",
      "name": "IndianOil",
      "lat": 25.3032369,
      "lng": 74.5777327,
      "address": "Ground Floor, Bhadokhara Attoon, Pur",
      "open_now": true
    },
    {
      "place_id": "ChIJ-63SaGvpaDkRP3_q9kD08_Q",
      "name": "DEVILAL",
      "lat": 25.3304669,
      "lng": 74.59145389999999,
      "address": "8HJR+5HP, Sector 4, Patel Nagar, Bhilwara",
      "open_now": null
    },
    {
      "place_id": "ChIJE_2EG9rpaDkRTA_EHHwrxbQ",
      "name": "IndianOil",
      "lat": 25.34930009999999,
      "lng": 74.587001,
      "address": "near Kalaji Palace, Ground Floor Pansal, near Kalaji Palace, Gaon Road, Azad Nagar",
      "open_now": true
    },
    {
      "place_id": "ChIJP1_v87HpaDkRNetpGUfVWHE",
      "name": "HP PETROL PUMP - NAHAR FILLING STATION",
      "lat": 25.3585783,
      "lng": 74.54593779999999,
      "address": "Hpcl Petrol Pump Vill Sambodhi Near Meja DAM, Udaipur",
      "open_now": null
    },
    {
      "place_id": "ChIJBQLBygPpaDkR0f30I54wGyc",
      "name": "Hindustan Petroleum Corporation Limited",
      "lat": 25.358592,
      "lng": 74.545928,
      "address": "Ground Floor, near Meja Dam, Samori",
      "open_now": true
    },
    {
      "place_id": "ChIJ240y4mzCaDkRCbAc8Sf37gg",
      "name": "Hindustan Petroleum Corp. Ltd.",
      "lat": 25.3425627,
      "lng": 74.6080084,
      "address": "8JV5+26C, Pansal, opp. Bhopal Mining Works, Road, Bhilwara",
      "open_now": true
    },
    {
      "place_id": "ChIJidbSbgDDaDkRmuyXmjiIM6g",
      "name": "My Eco Energy Indizel",
      "lat": 25.4031981,
      "lng": 74.5951705,
      "address": "CH3W+73F, Jeepiya",
      "open_now": null
    },
    {
      "place_id": "ChIJExhYj0vdaDkRIe9kAkdLGZk",
      "name": "Petrol Pump Essar",
      "lat": 25.4139933,
      "lng": 74.6112562,
      "address": "Jeepiya",
      "open_now": null
    },
    {
      "place_id": "ChIJvYRTdk7daDkRw1QRy-tMc3k",
      "name": "Hindustan Petroleum Corporation Limited",
      "lat": 25.414957,
      "lng": 74.610901,
      "address": "Ground Floor, Bhadali Khera",
      "open_now": true
    },
    {
      "place_id": "ChIJaZ46YmTDaDkRy6afKahUoRw",
      "name": "Bharat Petroleum Petrol Pump , SHYAMAL ENTERPRISES",
      "lat": 25.403471,
      "lng": 74.61424099999999,
      "address": "E25 & E26 MADHAVNAGARAMER ROAD",
      "open_now": true
    },
    {
      "place_id": "ChIJ03b3bUXdaDkRkqDRyuqs42Y",
      "name": "IndianOil",
      "lat": 25.42252329999999,
      "lng": 74.6071089,
      "address": "Ground Floor, NH 79, Badali Khera, Azad Nagar",
      "open_now": true
    },
    {
      "place_id": "ChIJqYIMS2bdaDkR1_0P01rt06U",
      "name": "IndianOil",
      "lat": 25.4356124,
      "lng": 74.6030674,
      "address": "NH 79 National Highway, Chouraha, Mandal",
      "open_now": true
    },
    {
      "place_id": "ChIJa3LwzXnpaDkR4zbbkf17_Zw",
      "name": "IndianOil",
      "lat": 25.3847731,
      "lng": 74.5821823,
      "address": "Ground Floor, Azad Nagar, Malola",
      "open_now": true
    },
    {
      "place_id": "ChIJ8YYwtyvpaDkR3TlYPjLXvCE",
      "name": "IndianOil",
      "lat": 25.3847731,
      "lng": 74.5821823,
      "address": "Ground Floor, Azad Nagar, Malola",
      "open_now": true
    },
    {
      "place_id": "ChIJO6NadonpaDkR5WDa5AFFVes",
      "name": "Nayara Petrol Pump - Seth Filling Station",
      "lat": 25.3832079,
      "lng": 74.5801327,
      "address": "Village After Jindal mines, On NH79 Bhilwara BY Pass Near by Dhulkheda, Bhilwara",
      "open_now": true
    },
    {
      "place_id": "ChIJ_-h-IADpaDkRmwesxosWO-M",
      "name": "SETH FS",
      "lat": 25.3831178,
      "lng": 74.5801826,
      "address": "9HMJ+63V, Dhool Khera",
      "open_now": null
    },
    {
      "place_id": "ChIJG32kUADDaDkRL012t11vePU",
      "name": "Shankar petrolium indian oil",
      "lat": 25.3747713,
      "lng": 74.61059809999999,
      "address": "near kankeriya bavji, 200ft, road, Bhilwara",
      "open_now": null
    },
    {
      "place_id": "ChIJW9hWaA3DaDkR6otQ1uQff2Q",
      "name": "IndianOil",
      "lat": 25.3777054,
      "lng": 74.6224381,
      "address": "Ajmer Road, Bhilwara",
      "open_now": true
    },
    {
      "place_id": "ChIJLcv13_DpaDkRgG7pM7ZC9yQ",
      "name": "Hindustan Petroleum Corporation Limited",
      "lat": 25.379701,
      "lng": 74.578001,
      "address": "Ground Floor, NH 79, Narayanpura, Bhilwara",
      "open_now": true
    },
    {
      "place_id": "ChIJ_xus6wznaDkRUSx4KBtlCGs",
      "name": "Shree Bala ji Auto",
      "lat": 25.4226402,
      "lng": 74.56365540000002,
      "address": "Shree Bala Ji Furniture, Road, Bagor",
      "open_now": null
    },
    {
      "place_id": "ChIJx1G7XZDnaDkRDJCScFe7i4s",
      "name": "Hindustan Petroleum Corporation Limited",
      "lat": 25.4399901,
      "lng": 74.5790501,
      "address": "Ground Floor, Mandal",
      "open_now": true
    },
    {
      "place_id": "ChIJ14NbZazCaDkR-G8BKGz0M-M",
      "name": "Monit Fuel Station",
      "lat": 25.3762808,
      "lng": 74.5788732,
      "address": "near D.n. TaTa motors, National Highway 48, Bhilwara",
      "open_now": true
    },
    {
      "place_id": "ChIJixytbC5JbzkRzvQqgUuZIiE",
      "name": "IndianOil",
      "lat": 25.5343199,
      "lng": 74.5886963,
      "address": "Ground Floor, Bairan, Banera, Babrana",
      "open_now": true
    },
    {
      "place_id": "ChIJK1TZBnbgaDkRnKnbeAvAweQ",
      "name": "IndianOil",
      "lat": 25.564022,
      "lng": 74.5927588,
      "address": "Jaswantpura",
      "open_now": true
    },
    {
      "place_id": "ChIJOWWs30ThaDkRmfwODoezlS8",
      "name": "CNG & EV Petrol Pump, Bharat Petroleum, Satya Sai Filling Station",
      "lat": 25.5193586,
      "lng": 74.592016,
      "address": "near NEW BHILWARA MIDWAY, NH-48, near NEW BHILWARA MIDWAY, Nanakpura",
      "open_now": true
    },
    {
      "place_id": "ChIJqYSZfJ_gaDkRV6bmCNLOqGo",
      "name": "Jio bp",
      "lat": 25.5238178,
      "lng": 74.589643,
      "address": "India",
      "open_now": true
    },
    {
      "place_id": "ChIJNbCmRQDhaDkRAKohxN6JPoQ",
      "name": "C- 5 UMESH",
      "lat": 25.5178414,
      "lng": 74.5846551,
      "address": "GH9M+4VJ, kanchan marg, D - Block, Vaishali Nagar, Jaipur",
      "open_now": null
    },
    {
      "place_id": "ChIJgwxrqgThaDkROq2Eh_ZZewU",
      "name": "Reliance Petroleum",
      "lat": 25.5241108,
      "lng": 74.5808188,
      "address": "Khasra No 616, 753/424, Nanakpura",
      "open_now": true
    },
    {
      "place_id": "ChIJKbZ_iALeaDkROrYX4AT43lo",
      "name": "IndianOil",
      "lat": 25.5098368,
      "lng": 74.5935308,
      "address": "Ground Floor, Bhand Ki Bawdi, Mandal, Azad Nagar, Bhilwara",
      "open_now": true
    },
    {
      "place_id": "ChIJMfmnYgDfaDkR0EuLy6bZCdk",
      "name": "Monika Sharma",
      "lat": 25.5302717,
      "lng": 74.5990492,
      "address": "GHJX+4J3, Balesariya",
      "open_now": null
    },
    {
      "place_id": "ChIJId5O7vfdaDkR2M-queB6rRE",
      "name": "ESSAR Pump- Dalmia's petrol pump",
      "lat": 25.4961421,
      "lng": 74.5997814,
      "address": "National Highway 48, Ramsinghpura",
      "open_now": true
    },
    {
      "place_id": "ChIJx6MNTVzdaDkRHTsVT-irpwM",
      "name": "INDIAN OIL",
      "lat": 25.4929818,
      "lng": 74.602409,
      "address": "NH 48, Bhilwara",
      "open_now": true
    },
    {
      "place_id": "ChIJEWDrfhzdaDkRuue4abHSnr4",
      "name": "M/S KHURD MATAJI ENTERPRISES",
      "lat": 25.4898385,
      "lng": 74.6033336,
      "address": "National Highway 48, Danta Nilawari",
      "open_now": null
    },
    {
      "place_id": "ChIJL4o-K_DdaDkRTgq34X2ypEI",
      "name": "HP PETROL PUMP - DAKSH PETROLEUM",
      "lat": 25.487661,
      "lng": 74.604651,
      "address": "Ground Floor, NH 79, Ramsinghpura",
      "open_now": true
    },
    {
      "place_id": "ChIJt4da7y3naDkRPGgoxvPrLAM",
      "name": "Sukhwal Petroleum",
      "lat": 25.4916348,
      "lng": 74.5565539,
      "address": "Mali Khera",
      "open_now": true
    },